census_id,geo_name,lon,lat,country,poll,emis,eff_height
0001,ANGOLA_BENGO_AMBRIZ,13.500573856748415,-7.941839245075118,Angola,NOx,29.590456632689165,220
0002,ANGOLA_BENGO_BULA ATUMBA,14.820908751789867,-8.634475645495783,Angola,NOx,5.056777447564605,220
0003,ANGOLA_BENGO_DANDE,13.841710609854086,-8.53534736049627,Angola,NOx,236.14704489282258,220
0004,ANGOLA_BENGO_DEMBOS,14.552452662474186,-8.506656679922113,Angola,NOx,9.093017299611601,220
0005,ANGOLA_BENGO_NAMBUANGONGO,14.25926486683566,-8.047643790272277,Angola,NOx,19.8267702797405,220
0006,ANGOLA_BENGO_PANGO ALUQUÉM,14.467187741962098,-8.753291428515478,Angola,NOx,1.805879396613769,220
0007,ANGOLA_BENGUELA_BAÍA FARTA,13.110895429150032,-13.169353899832894,Angola,NOx,22.48725924071731,220
0008,ANGOLA_BENGUELA_BALOMBO,14.785534807000774,-12.362142938317604,Angola,NOx,28.629239590996505,220
0009,ANGOLA_BENGUELA_BENGUELA,13.613234701433782,-12.750903810317325,Angola,NOx,101.85641026087472,220
0010,ANGOLA_BENGUELA_BOCOIO,14.273806030010297,-12.337517465231237,Angola,NOx,49.59784969699007,220
0011,ANGOLA_BENGUELA_CAIMBAMBO,13.925466200463916,-13.103370379840863,Angola,NOx,23.4153549362813,220
0012,ANGOLA_BENGUELA_CATUMBELA,13.680172800346687,-12.477296385532492,Angola,NOx,16.86266167353797,220
0013,ANGOLA_BENGUELA_CHONGOROI,13.804725364547245,-13.596741410412521,Angola,NOx,31.01445426892066,220
0014,ANGOLA_BENGUELA_CUBAL,14.349577634106108,-13.16149142143734,Angola,NOx,92.07350449710201,220
0015,ANGOLA_BENGUELA_GANDA,14.733920867955561,-13.122131963632688,Angola,NOx,520.2988910981006,220
0016,ANGOLA_BENGUELA_LOBITO,13.886545783996153,-12.092395259332209,Angola,NOx,27989.00926647647,220
0017,ANGOLA_BIÉ_ANDULO,16.463299708517784,-11.274658946317146,Angola,NOx,76.60504576388237,220
0018,ANGOLA_BIÉ_CAMACUPA,17.780227977541617,-12.451681506672221,Angola,NOx,40.91820949638866,220
0019,ANGOLA_BIÉ_CATABOLA,17.254341809340623,-12.147939255129183,Angola,NOx,33.66582522986405,220
0020,ANGOLA_BIÉ_CHINGUAR,16.57220235885333,-12.562961032395926,Angola,NOx,29.538341137851592,220
0021,ANGOLA_BIÉ_CHITEMBO,17.2256685420672,-13.4761375683222,Angola,NOx,50.794528613772655,220
0022,ANGOLA_BIÉ_CUEMBA,18.450876402365434,-11.812583973776919,Angola,NOx,96.24326820340767,220
0023,ANGOLA_BIÉ_CUITO,17.0195337801636,-12.539053407735349,Angola,NOx,148.8612155191313,220
0024,ANGOLA_BIÉ_CUNHINGA,16.806485043535446,-11.988245606222938,Angola,NOx,14.990013068648407,220
0025,ANGOLA_BIÉ_NHAREA,17.157724905821997,-11.308602978499657,Angola,NOx,27.59678078701927,220
0026,ANGOLA_CABINDA_BELIZE,12.84464336058737,-4.605790961567085,Angola,NOx,19.08899520433308,220
0027,ANGOLA_CABINDA_BUCO ZAU,12.545868870473262,-4.802124175234638,Angola,NOx,22.06892604647406,220
0028,ANGOLA_CABINDA_CABINDA,12.36403326270615,-5.461872414729606,Angola,NOx,128.6869068833478,220
0029,ANGOLA_CABINDA_CACONGO,12.242228043574034,-5.043712430446504,Angola,NOx,125.78319102704545,220
0030,ANGOLA_KUANDO KUBANGO_CALAI,19.414268804995988,-17.367954683212766,Angola,NOx,15.876310808796676,220
0031,ANGOLA_KUANDO KUBANGO_CUANGAR,18.15299180710266,-17.054777832805367,Angola,NOx,6.868865581503221,220
0032,ANGOLA_KUANDO KUBANGO_CUCHI,16.962579756983985,-14.692891199511664,Angola,NOx,24.34263082857855,220
0033,ANGOLA_KUANDO KUBANGO_CUITO CUANAVALE,18.841355039845936,-14.950150376556852,Angola,NOx,50.72649307004218,220
0034,ANGOLA_KUANDO KUBANGO_DIRICO,20.825162039879295,-17.52729673830151,Angola,NOx,26.10663878670245,220
0035,ANGOLA_KUANDO KUBANGO_MAVINGA,20.292091111981065,-16.124977275218903,Angola,NOx,45.20987801603293,220
0036,ANGOLA_KUANDO KUBANGO_MENONGUE,17.745373647024998,-15.225709939331868,Angola,NOx,101.4715936499212,220
0037,ANGOLA_KUANDO KUBANGO_NANCOVA,18.73240828489362,-16.388826303005242,Angola,NOx,9.311242744138633,220
0038,ANGOLA_KUANDO KUBANGO_RIVUNGO,21.95105197046031,-16.860900758284263,Angola,NOx,38.27567030271039,220
0039,ANGOLA_KWANZA NORTE_AMBACA,15.509119051943488,-8.223269097816729,Angola,NOx,15.148122160394296,220
0040,ANGOLA_KWANZA NORTE_BANGA,15.153253461606287,-8.689616530469744,Angola,NOx,2.4093499481000857,220
0041,ANGOLA_KWANZA NORTE_BOLONGONGO,15.113302487330705,-8.382132376680488,Angola,NOx,3.9455183862996814,220
0042,ANGOLA_KWANZA NORTE_CAMBAMBE,14.521816633134614,-9.433964278230446,Angola,NOx,31.497029704273693,220
0043,ANGOLA_KWANZA NORTE_CAZENGO,14.779870946066733,-9.320031680889498,Angola,NOx,48.73640140560801,220
0044,ANGOLA_KWANZA NORTE_GOLUNGO ALTO,14.666387710001,-9.076507922069805,Angola,NOx,15.551954464191034,220
0045,ANGOLA_KWANZA NORTE_LUCALA,15.238258650636386,-9.139267281380702,Angola,NOx,7.058172536983287,220
0046,ANGOLA_KWANZA NORTE_NGONGUEMBO,14.901663408090647,-8.902563767131948,Angola,NOx,3.713035289769521,220
0047,ANGOLA_KWANZA NORTE_QUICULUNGO,15.319625776448795,-8.49002907643525,Angola,NOx,1.3233250809601418,220
0048,ANGOLA_KWANZA NORTE_SAMBA CAJÚ,15.494620704324683,-8.808515207926657,Angola,NOx,7.174479158061189,220
0049,ANGOLA_KWANZA SUL_AMBOIM,14.409446053756277,-10.888247311555114,Angola,NOx,554.8303309627446,220
0050,ANGOLA_KWANZA SUL_CASSONGUE,14.969245996228281,-11.823486279155278,Angola,NOx,32.53526907509165,220
0051,ANGOLA_KWANZA SUL_CELA,15.327509138494797,-11.286611386444985,Angola,NOx,63.595292676712745,220
0052,ANGOLA_KWANZA SUL_CONDA,14.457113187835018,-11.173469665594153,Angola,NOx,23.09514180985798,220
0053,ANGOLA_KWANZA SUL_EBO,14.756355439021709,-10.954311333786544,Angola,NOx,46.23133767031868,220
0054,ANGOLA_KWANZA SUL_LIBOLO,14.990540118658812,-10.063463539441377,Angola,NOx,31.05339323139793,220
0055,ANGOLA_KWANZA SUL_MUSSENDE,15.978658982493396,-10.268786589120642,Angola,NOx,209.0865238582381,220
0056,ANGOLA_KWANZA SUL_PORTO AMBOIM,13.942283729197893,-10.627805552833145,Angola,NOx,35.673800705371,220
0057,ANGOLA_KWANZA SUL_QUIBALA,15.335713103750756,-10.699008506951671,Angola,NOx,47.754071571848336,220
0058,ANGOLA_KWANZA SUL_QUILENDA,14.370237419617364,-10.524491857097443,Angola,NOx,24.182504279660808,220
0059,ANGOLA_KWANZA SUL_SELES,14.50091627350989,-11.457587720793851,Angola,NOx,43.537123207882544,220
0060,ANGOLA_KWANZA SUL_SUMBE,14.04934311345206,-11.49811492361192,Angola,NOx,627.6950727007288,220
0061,ANGOLA_CUNENE_CAHAMA,14.247669093888437,-16.41710354139286,Angola,NOx,30.340294715940857,220
0062,ANGOLA_CUNENE_CUANHAMA,16.320547599774045,-16.48223334568777,Angola,NOx,146.56548730862687,220
0063,ANGOLA_CUNENE_CUROCA,13.788175609536145,-16.932294476395295,Angola,NOx,5.509997602952763,220
0064,ANGOLA_CUNENE_CUVELAI,16.136146428177735,-15.746368160393057,Angola,NOx,36.005258649105734,220
0065,ANGOLA_CUNENE_NAMACUNDE,16.606272115792553,-17.074018548021083,Angola,NOx,67.1490182758169,220
0066,ANGOLA_CUNENE_OMBADJA,14.941895100531925,-16.768959146811532,Angola,NOx,119.74367794873447,220
0067,ANGOLA_HUAMBO_BAILUNDO,15.850466201739053,-11.950050465566608,Angola,NOx,79.96946176042981,220
0068,ANGOLA_HUAMBO_CAÁLA,15.572188198073116,-13.27102876067493,Angola,NOx,426.20278922953673,220
0069,ANGOLA_HUAMBO_CACHIUNGO,16.319644201016246,-12.759421533499594,Angola,NOx,42.492481587293604,220
0070,ANGOLA_HUAMBO_ECUNHA,15.49134958273524,-12.53401934231182,Angola,NOx,20.798527338927876,220
0071,ANGOLA_HUAMBO_HUAMBO,15.79536569507517,-12.819324307871682,Angola,NOx,189.01799544417233,220
0072,ANGOLA_HUAMBO_LONDUIMBALI,15.292015045757923,-12.235996591708586,Angola,NOx,32.8822703212323,220
0073,ANGOLA_HUAMBO_LONGONJO,15.22279516795389,-13.084757821818668,Angola,NOx,25.497467209665306,220
0074,ANGOLA_HUAMBO_MUNGO,16.20588037491343,-11.755072951814116,Angola,NOx,38.951023268422354,220
0075,ANGOLA_HUAMBO_CHICALA CHOLOHANGA,16.092706109508978,-12.95985009260693,Angola,NOx,29.901466978302906,220
0076,ANGOLA_HUAMBO_CHINJENJE,14.940107561316543,-12.818781665594054,Angola,NOx,11.5977987369434,220
0077,ANGOLA_HUAMBO_UCUMA,15.15058241504692,-12.745033355569538,Angola,NOx,10.365685886061911,220
0078,ANGOLA_HUÍLA_CACONDA,15.158416365277283,-13.778376463063532,Angola,NOx,46.521580667379084,220
0079,ANGOLA_HUÍLA_CACULA,14.291948368736596,-14.437668897988177,Angola,NOx,41.72118944087179,220
0080,ANGOLA_HUÍLA_CALUQUEMBE,14.553605248971426,-13.943434135545042,Angola,NOx,51.990329344849386,220
0081,ANGOLA_HUÍLA_CHIBIA,13.860963321337298,-15.220319449437994,Angola,NOx,52.366946463588725,220
0082,ANGOLA_HUÍLA_CHICOMBA,15.019421703365952,-14.30430435864405,Angola,NOx,44.12418347905347,220
0083,ANGOLA_HUÍLA_CHIPINDO,15.73591828652565,-13.88531948048917,Angola,NOx,19.96962056128366,220
0084,ANGOLA_HUÍLA_CUVANGO,16.318716983084595,-14.2140670585581,Angola,NOx,32.213458476648526,220
0085,ANGOLA_HUÍLA_GAMBOS,14.0555441801658,-15.836380299367216,Angola,NOx,34.96369669067176,220
0086,ANGOLA_HUÍLA_HUMPATA,13.37340825793292,-15.07711619840059,Angola,NOx,82.5536212733847,220
0087,ANGOLA_HUÍLA_JAMBA,15.84246469273556,-14.813136321719922,Angola,NOx,38.36446197781624,220
0088,ANGOLA_HUÍLA_LUBANGO,13.74650625251509,-14.782265363665282,Angola,NOx,179.42137329838155,220
0089,ANGOLA_HUÍLA_MATALA,15.162569522619448,-15.264035381319765,Angola,NOx,91.23604488372446,220
0090,ANGOLA_HUÍLA_QUILENGUES,13.926712495367244,-14.10284606537322,Angola,NOx,26.131385082824135,220
0091,ANGOLA_HUÍLA_QUIPUNGO,14.584346812183863,-15.11197852346331,Angola,NOx,64.27379267063202,220
0092,ANGOLA_LUANDA_BELAS,13.174021473379,-9.08837444152561,Angola,NOx,1703.8843790952228,220
0093,ANGOLA_LUANDA_CACUACO,13.451339905381309,-8.81991357363531,Angola,NOx,368.9092363835706,220
0094,ANGOLA_LUANDA_CAZENGA,13.300213504677842,-8.82313810517484,Angola,NOx,4518.774252391529,220
0095,ANGOLA_LUANDA_ICOLO E BENGO,13.862681054977354,-9.152861347234415,Angola,NOx,68.62505756395713,220
0096,ANGOLA_LUANDA_LUANDA,13.252264930379923,-8.85095461326464,Angola,NOx,25287.57973839498,220
0097,ANGOLA_LUANDA_QUISSAMA,13.850629524262196,-9.831116523016574,Angola,NOx,146.22111329869867,220
0098,ANGOLA_LUANDA_VIANA,13.400581493461187,-9.003465052028048,Angola,NOx,607.8603054993796,220
0099,ANGOLA_LUNDA NORTE_CAMBULO,21.496387269915466,-7.900107950052335,Angola,NOx,31.805528627044033,220
0100,ANGOLA_LUNDA NORTE_CAPENDA CAMULEMBA,18.86907773627034,-9.675389036317052,Angola,NOx,22.053916771942603,220
0101,ANGOLA_LUNDA NORTE_CAUNGULA,18.82247560938972,-8.340339422591542,Angola,NOx,5.535907792559605,220
0102,ANGOLA_LUNDA NORTE_CHITATO,20.86681232898085,-7.553523750605493,Angola,NOx,56.442649973890816,220
0103,ANGOLA_LUNDA NORTE_CUANGO,18.060888555716936,-8.601096909504287,Angola,NOx,37.62457512150013,220
0104,ANGOLA_LUNDA NORTE_CUILO,19.68851489115215,-8.128052490802382,Angola,NOx,5.877107578168677,220
0105,ANGOLA_LUNDA NORTE_LÓVUA,20.13536631533787,-7.292391189166928,Angola,NOx,2.6408070419025256,220
0106,ANGOLA_LUNDA NORTE_LUBALO,19.297321892350976,-9.188561260843436,Angola,NOx,8.825648303191837,220
0107,ANGOLA_LUNDA NORTE_LUCAPA,20.47673092828323,-8.42331409755646,Angola,NOx,38.3067437343045,220
0108,ANGOLA_LUNDA NORTE_XÁ-MUTEBA,17.85122654394,-9.277995251698849,Angola,NOx,40.76591196248883,220
0109,ANGOLA_LUNDA SUL_CACOLO,19.178913301145815,-10.547328172202947,Angola,NOx,18.725502105076163,220
0110,ANGOLA_LUNDA SUL_DALA,20.352238837105524,-10.92405164265005,Angola,NOx,5.500426341100536,220
0111,ANGOLA_LUNDA SUL_MUCONDA,21.424847286291374,-10.154651759138405,Angola,NOx,14.910625537260838,220
0112,ANGOLA_LUNDA SUL_SAURIMO,20.688380679682755,-9.477233643283244,Angola,NOx,129.29337717771728,220
0113,ANGOLA_MALANJE_CACUSO,15.62849098111707,-9.490292469411429,Angola,NOx,998.9284798849085,220
0114,ANGOLA_MALANJE_CAHOMBO,16.66605389643875,-8.647102372057851,Angola,NOx,4.706922538402139,220
0115,ANGOLA_MALANJE_CALANDULA,16.005245178381916,-8.695990183498342,Angola,NOx,22.526727265549507,220
0116,ANGOLA_MALANJE_CAMBUNDI-CATEMBO,17.84709415122643,-10.125145503710968,Angola,NOx,13.29734587278992,220
0117,ANGOLA_MALANJE_CANGANDALA,16.683252748189343,-9.952367021939013,Angola,NOx,14.60490065515527,220
0118,ANGOLA_MALANJE_CUNDA-DIA-BAZE,17.352728983670623,-8.66125398022735,Angola,NOx,2.802992958835484,220
0119,ANGOLA_MALANJE_KIWABA NZOJI,16.45736622164412,-9.037971690115318,Angola,NOx,4.066834804268144,220
0120,ANGOLA_MALANJE_LUQUEMBO,17.384986684590697,-10.792874181396483,Angola,NOx,22.30315165699703,220
0121,ANGOLA_MALANJE_MALANJE,16.35498305019854,-9.482474776585153,Angola,NOx,145.73222746226355,220
0122,ANGOLA_MALANJE_MARIMBA,17.11151213033175,-8.168436018156713,Angola,NOx,10.807106579495615,220
0123,ANGOLA_MALANJE_MASSANGO,16.599614024908476,-7.763456075510212,Angola,NOx,15.958981562213143,220
0124,ANGOLA_MALANJE_MUCARI,16.919365558811112,-9.481804740501817,Angola,NOx,9.355215206484655,220
0125,ANGOLA_MALANJE_QUELA,17.28820754724371,-9.318539247011007,Angola,NOx,5.452131335845774,220
0126,ANGOLA_MALANJE_QUIRIMA,18.2681837365498,-11.068909718662896,Angola,NOx,11.459727789248904,220
0127,ANGOLA_MOXICO_ALTO ZAMBEZE,22.90799374709926,-12.209683357686718,Angola,NOx,69.21940649791996,220
0128,ANGOLA_MOXICO_BUNDAS,21.31907325919521,-14.210473217747047,Angola,NOx,45.59254696308939,220
0129,ANGOLA_MOXICO_CAMANONGUE,20.234534061632754,-11.408959591622152,Angola,NOx,9.22190954007341,220
0130,ANGOLA_MOXICO_CAMEIA,21.26339460023485,-11.838370789228382,Angola,NOx,6.507089689505636,220
0131,ANGOLA_MOXICO_LÉUA,20.575562544579704,-11.74380358626066,Angola,NOx,10.203894745838202,220
0132,ANGOLA_MOXICO_LUACANO,22.046284955949286,-11.669871723573195,Angola,NOx,6.209724355718399,220
0133,ANGOLA_MOXICO_LUAU,21.997475474347006,-10.901812727972676,Angola,NOx,26.97532130059747,220
0134,ANGOLA_MOXICO_LUCHAZES,19.530239402686032,-13.751962349149917,Angola,NOx,18.889810135595084,220
0135,ANGOLA_MOXICO_LUENA,19.776770525882704,-12.327720581169427,Angola,NOx,131.8689102867337,220
0136,ANGOLA_NAMIBE_BIBALA,13.139576640553054,-14.685793467915335,Angola,NOx,23.837694694532264,220
0137,ANGOLA_NAMIBE_CAMUCUIO,13.0324059676621,-14.003701587165244,Angola,NOx,18.266333330751596,220
0138,ANGOLA_NAMIBE_NAMIBE,12.457905307074512,-14.720315334187738,Angola,NOx,86.53291737437556,220
0139,ANGOLA_NAMIBE_TÔMBWA,12.359284305310362,-16.564898961646183,Angola,NOx,10.607668190722706,220
0140,ANGOLA_NAMIBE_VIREI,12.94168325673447,-15.813548331274848,Angola,NOx,10.964637924937376,220
0141,ANGOLA_UÍGE_AMBUILA,14.468179065511844,-7.587449047134571,Angola,NOx,14.474075228051728,220
0142,ANGOLA_UÍGE_BEMBE,14.277664721920273,-7.052417289665407,Angola,NOx,13.55835926230605,220
0143,ANGOLA_UÍGE_BUENGAS,15.825059286515511,-6.668373974646913,Angola,NOx,15.468504526691252,220
0144,ANGOLA_UÍGE_BUNGO,15.447113463583449,-7.392017748161813,Angola,NOx,9.537629994020039,220
0145,ANGOLA_UÍGE_CANGOLA,15.953541847191238,-7.839972087285049,Angola,NOx,13.293941264403486,220
0146,ANGOLA_UÍGE_DAMBA,15.216117046210005,-6.730711730495686,Angola,NOx,12.975026518657439,220
0147,ANGOLA_UÍGE_MAQUELA DO ZOMBO,15.504832114047753,-6.115762646049738,Angola,NOx,28.509968424870653,220
0148,ANGOLA_UÍGE_SANTA CRUZ,16.58039852859364,-7.043057290518152,Angola,NOx,14.685591411048971,220
0149,ANGOLA_UÍGE_MUCABA,15.044844983137867,-7.104479137048426,Angola,NOx,9.546749431677819,220
0150,ANGOLA_UÍGE_NEGAGE,15.387803110685544,-7.82670187011252,Angola,NOx,31.42908931431437,220
0151,ANGOLA_UÍGE_PURI,15.677588319493356,-7.6520448609471,Angola,NOx,6.789013236765702,220
0152,ANGOLA_UÍGE_QUIMBELE,16.358827373391733,-6.339946266586419,Angola,NOx,42.42408223041738,220
0153,ANGOLA_UÍGE_QUITEXE,14.916309357718397,-8.05805649608166,Angola,NOx,12.863276976577216,220
0154,ANGOLA_UÍGE_SANZA POMBO,16.05132046706061,-7.225080931426597,Angola,NOx,16.524187361635004,220
0155,ANGOLA_UÍGE_SONGO,14.789371774574954,-7.15444085578491,Angola,NOx,16.10774074321818,220
0156,ANGOLA_UÍGE_UÍGE,15.086269927234868,-7.569389383460002,Angola,NOx,131.31887112997353,220
0157,ANGOLA_ZAIRE_CUIMBA,14.656648047034412,-6.211094387740501,Angola,NOx,24.345310457611134,220
0158,ANGOLA_ZAIRE_MBANZA CONGO,14.17814621079705,-6.310144184559853,Angola,NOx,57.16390223215038,220
0159,ANGOLA_ZAIRE_NZETO,13.396012085498478,-7.329332397443156,Angola,NOx,35.67892097423896,220
0160,ANGOLA_ZAIRE_NÓQUI,13.505068524452918,-6.150797500748508,Angola,NOx,40.69400554795944,220
0161,ANGOLA_ZAIRE_SOYO,12.72456320103429,-6.276748486180679,Angola,NOx,110.74365438361826,220
0162,ANGOLA_ZAIRE_TOMBOCO,13.360813071321832,-6.70704141475642,Angola,NOx,32.21219137191327,220
0163,BOTSWANA_CENTRAL_BOBONONG_BOBONONG,28.439270006020617,-21.904588768680572,Botswana,NOx,20.079324321481458,220
0164,BOTSWANA_CENTRAL_BOBONONG_DAMOCHOJENA,27.46425717187249,-21.89586472598768,Botswana,NOx,0.02825357153916435,220
0165,BOTSWANA_CENTRAL_BOBONONG_KOBOJANGO,28.763918196572497,-21.785636334108606,Botswana,NOx,1.2488085033629002,220
0166,BOTSWANA_CENTRAL_BOBONONG_LENTSWELEMORITI,29.09263730127421,-22.126071452194022,Botswana,NOx,16.898164367956767,220
0167,BOTSWANA_CENTRAL_BOBONONG_LEPOKOLE,28.342120180879903,-21.78828871071267,Botswana,NOx,0.17292883282379085,220
0168,BOTSWANA_CENTRAL_BOBONONG_MABOLWE,28.93856360422732,-21.822911107503458,Botswana,NOx,0.18940502995205494,220
0169,BOTSWANA_CENTRAL_BOBONONG_MATHATHANE,28.765707084954567,-22.164921148469332,Botswana,NOx,2.612615356539289,220
0170,BOTSWANA_CENTRAL_BOBONONG_MMADINARE,27.61927099292336,-21.939530032971234,Botswana,NOx,186.66012489820196,220
0171,BOTSWANA_CENTRAL_BOBONONG_MOLALATAU,28.546028057555482,-22.244047061148887,Botswana,NOx,5.377661645841052,220
0172,BOTSWANA_CENTRAL_BOBONONG_MOLETEMANE,28.24551458680093,-22.49838952314233,Botswana,NOx,0.1370198885640991,220
0173,BOTSWANA_CENTRAL_BOBONONG_MOTLHABANENG,28.847671161031595,-22.0878861675696,Botswana,NOx,0.7057562760625268,220
0174,BOTSWANA_CENTRAL_BOBONONG_ROBELELA,28.01614217627893,-21.606755627584164,Botswana,NOx,0.288217376130631,220
0175,BOTSWANA_CENTRAL_BOBONONG_SEFOPHE,28.010768080362112,-22.202415922887717,Botswana,NOx,4.272259333049057,220
0176,BOTSWANA_CENTRAL_BOBONONG_SEMOLALE,28.901373465716713,-21.94234612580183,Botswana,NOx,0.32122054442164527,220
0177,BOTSWANA_CENTRAL_BOBONONG_TOBANE,28.034740456942973,-21.715331266156507,Botswana,NOx,8.098136882453819,220
0178,BOTSWANA_CENTRAL_BOBONONG_TSETSEBJWE,28.261512057832615,-22.323234206617617,Botswana,NOx,3.9948979928582626,220
0179,BOTSWANA_CENTRAL_BOBONONG_TSHOKWE,28.12020929554016,-21.7461736340543,Botswana,NOx,0.06943059579321643,220
0180,BOTSWANA_CENTRAL_BOBONONG_TULI,28.659593038222404,-22.426510831132365,Botswana,NOx,6.279668454459195,220
0181,BOTSWANA_CENTRAL_BOTETI_KEDIA,24.838048952453185,-21.403241698591675,Botswana,NOx,1.2564268042403976e-4,220
0182,BOTSWANA_CENTRAL_BOTETI_KHWEE,25.42160849963441,-21.949084316434682,Botswana,NOx,2.0878748766430357,220
0183,BOTSWANA_CENTRAL_BOTETI_KUMAGA,24.694403521304178,-20.43709104783157,Botswana,NOx,0.965239303884289,220
0184,BOTSWANA_CENTRAL_BOTETI_LETLHAKANE,25.324076768019342,-21.74281229869488,Botswana,NOx,224.03390949189355,220
0185,BOTSWANA_CENTRAL_BOTETI_MAKALAMABEDI,24.027537186531372,-20.329731365780997,Botswana,NOx,0,220
0186,BOTSWANA_CENTRAL_BOTETI_MMADIKOLA,24.505648562137157,-21.04540148259183,Botswana,NOx,0,220
0187,BOTSWANA_CENTRAL_BOTETI_MMATSHUMO,25.608635534616877,-21.055357574481494,Botswana,NOx,192.02327358638016,220
0188,BOTSWANA_CENTRAL_BOTETI_MOKOBOXANE,25.01278736428241,-21.374661912697718,Botswana,NOx,0.815784727099077,220
0189,BOTSWANA_CENTRAL_BOTETI_MOPIPI,25.06130611972133,-20.957019464880865,Botswana,NOx,87.04038601708994,220
0190,BOTSWANA_CENTRAL_BOTETI_MOREOMAOTO,24.225653269651804,-20.326805973885744,Botswana,NOx,0,220
0191,BOTSWANA_CENTRAL_BOTETI_MOSU,26.096038009772478,-21.108931183794436,Botswana,NOx,1.5084548244745664,220
0192,BOTSWANA_CENTRAL_BOTETI_MOTOPI,24.143658950831586,-20.239487705166916,Botswana,NOx,0,220
0193,BOTSWANA_CENTRAL_BOTETI_TOROMOJA,24.68875163244386,-21.028858930681245,Botswana,NOx,0.05321361122685826,220
0194,BOTSWANA_CENTRAL_BOTETI_TSIENYANE/RAKOPS,24.297459830504376,-20.770824097320627,Botswana,NOx,10.30510937741587,220
0195,BOTSWANA_CENTRAL_BOTETI_XERE,23.995091776720663,-21.05103701376487,Botswana,NOx,0.4090850963363711,220
0196,BOTSWANA_CENTRAL_BOTETI_XHUMO,24.543580068860226,-21.43138653458584,Botswana,NOx,3.985258344250748,220
0197,BOTSWANA_CENTRAL_MAHALAPYE_BONWAPITSE,26.696499319837177,-23.016977775399745,Botswana,NOx,0.6222174471807166,220
0198,BOTSWANA_CENTRAL_MAHALAPYE_BOROTSI,27.574845464339035,-23.03787815480758,Botswana,NOx,0.32002217294196866,220
0199,BOTSWANA_CENTRAL_MAHALAPYE_CHADIBE,27.653472614061975,-23.04213517690895,Botswana,NOx,0.13542646796827615,220
0200,BOTSWANA_CENTRAL_MAHALAPYE_DIBETE STATION,26.60466673565762,-23.712578892238895,Botswana,NOx,6.902966962603763,220
0201,BOTSWANA_CENTRAL_MAHALAPYE_DOVEDALE,27.0584095397386,-23.43747251689984,Botswana,NOx,16.77151626226494,220
0202,BOTSWANA_CENTRAL_MAHALAPYE_IKONGWE,26.42368516567563,-23.133332920110572,Botswana,NOx,0,220
0203,BOTSWANA_CENTRAL_MAHALAPYE_KALAMARE,26.676800027450167,-22.85145869530537,Botswana,NOx,1.1583642046554665,220
0204,BOTSWANA_CENTRAL_MAHALAPYE_KODIBELENG,25.8565320473089,-23.06990009465882,Botswana,NOx,4.348739359027489,220
0205,BOTSWANA_CENTRAL_MAHALAPYE_KUDUMATSE,27.163558620828415,-23.343825570073967,Botswana,NOx,11.182155035881953,220
0206,BOTSWANA_CENTRAL_MAHALAPYE_MAAPE,27.298633726872115,-22.801071310840364,Botswana,NOx,2.9690930802468674,220
0207,BOTSWANA_CENTRAL_MAHALAPYE_MACHANENG,27.430989788355014,-23.17527950233516,Botswana,NOx,3.4236007193561164,220
0208,BOTSWANA_CENTRAL_MAHALAPYE_MAHALAPYE,26.92364672437042,-23.059367128880574,Botswana,NOx,35.485381488544064,220
0209,BOTSWANA_CENTRAL_MAHALAPYE_MAKWATE,27.289572829578482,-23.25066866242674,Botswana,NOx,2.552393978647079,220
0210,BOTSWANA_CENTRAL_MAHALAPYE_MATLHAKO,27.57730747946278,-23.092868816729595,Botswana,NOx,0.4600071568317284,220
0211,BOTSWANA_CENTRAL_MAHALAPYE_MHALAPITSA,27.241670153565362,-22.750141129591885,Botswana,NOx,1.3453875949976126,220
0212,BOTSWANA_CENTRAL_MAHALAPYE_MMAPHASHALALA,26.85959307803958,-23.525191663403213,Botswana,NOx,1.1870162161889095,220
0213,BOTSWANA_CENTRAL_MAHALAPYE_MMUTLANA,26.603632318980285,-22.97161859276938,Botswana,NOx,0.9971015012937563,220
0214,BOTSWANA_CENTRAL_MAHALAPYE_MOKGENENE,26.039953432163163,-23.53987260084274,Botswana,NOx,0.026456606873830845,220
0215,BOTSWANA_CENTRAL_MAHALAPYE_MOKOBENG,27.693890294840614,-22.97362584906358,Botswana,NOx,0.0225074846120281,220
0216,BOTSWANA_CENTRAL_MAHALAPYE_MOKOSWANE,26.94190877928232,-23.316220505173856,Botswana,NOx,1.0041695831761093,220
0217,BOTSWANA_CENTRAL_MAHALAPYE_MOOKANE,26.698166386924417,-23.694975957356803,Botswana,NOx,0.5007631956174143,220
0218,BOTSWANA_CENTRAL_MAHALAPYE_MORALANE,26.215414450162044,-22.936420739953075,Botswana,NOx,0.11298997979084528,220
0219,BOTSWANA_CENTRAL_MAHALAPYE_MOSHOPHA,27.314662802995976,-22.947407012331485,Botswana,NOx,3.5594002572704992,220
0220,BOTSWANA_CENTRAL_MAHALAPYE_MOSOLOTSHANE,26.428423160167153,-22.91931594278049,Botswana,NOx,5.660536175882275,220
0221,BOTSWANA_CENTRAL_MAHALAPYE_NGWAPA,27.77944253096159,-22.919703336193177,Botswana,NOx,0.20482226917245774,220
0222,BOTSWANA_CENTRAL_MAHALAPYE_OTSE,25.946626364668234,-23.32358945282839,Botswana,NOx,1.870927813795358,220
0223,BOTSWANA_CENTRAL_MAHALAPYE_PALLA ROAD/DINOKWE,26.77659555732254,-23.360515846147123,Botswana,NOx,1.2776095288588194,220
0224,BOTSWANA_CENTRAL_MAHALAPYE_PILIKWE,27.12830992169561,-22.797803953113785,Botswana,NOx,11.373967790741016,220
0225,BOTSWANA_CENTRAL_MAHALAPYE_POLOKA,26.288048197015442,-23.601986580637178,Botswana,NOx,5.764072832838406,220
0226,BOTSWANA_CENTRAL_MAHALAPYE_RAMOKGONAMI,27.427775976491716,-22.856906588140728,Botswana,NOx,10.531272735473163,220
0227,BOTSWANA_CENTRAL_MAHALAPYE_SEFHARE,27.497480197007754,-23.01846757513452,Botswana,NOx,4.257101032250208,220
0228,BOTSWANA_CENTRAL_MAHALAPYE_SELEKA,27.541179586978274,-22.862211127370156,Botswana,NOx,12.213351696493636,220
0229,BOTSWANA_CENTRAL_MAHALAPYE_SHAKWE,27.285868545141952,-23.098563338666022,Botswana,NOx,4.459641151196878,220
0230,BOTSWANA_CENTRAL_MAHALAPYE_SHOSHONG,26.387666419486898,-23.28181618855284,Botswana,NOx,57.492156668508635,220
0231,BOTSWANA_CENTRAL_MAHALAPYE_TAUPYE,27.086389543341017,-23.181122303718336,Botswana,NOx,1.194754628232659,220
0232,BOTSWANA_CENTRAL_MAHALAPYE_TEWANE,26.8808106284804,-22.855065985054686,Botswana,NOx,0.9488576312058641,220
0233,BOTSWANA_CENTRAL_MAHALAPYE_TULI,27.376483753636418,-23.358300442845334,Botswana,NOx,17447.949105699143,220
0234,BOTSWANA_CENTRAL_MAHALAPYE_TUMASERA,27.625135322324592,-22.873322197159712,Botswana,NOx,30.908695272805584,220
0235,BOTSWANA_CENTRAL_SEROWE PALAPYE_DILORO,27.615763781482226,-22.42069872982587,Botswana,NOx,0.9822410642346429,220
0236,BOTSWANA_CENTRAL_SEROWE PALAPYE_DIMAJWE,26.75499325012916,-21.701835892951095,Botswana,NOx,0.6668888493906108,220
0237,BOTSWANA_CENTRAL_SEROWE PALAPYE_GAMABUO,26.34887363421504,-22.621942368691556,Botswana,NOx,0,220
0238,BOTSWANA_CENTRAL_SEROWE PALAPYE_GOJWANE,27.274583799149916,-21.783314177365938,Botswana,NOx,1.7668527197986725,220
0239,BOTSWANA_CENTRAL_SEROWE PALAPYE_GOO-SEKGWENG,27.378852556607093,-22.684458968010347,Botswana,NOx,1.2479861123181928,220
0240,BOTSWANA_CENTRAL_SEROWE PALAPYE_GOOTAU,27.424470969841263,-22.695172167140004,Botswana,NOx,0.17190164716118822,220
0241,BOTSWANA_CENTRAL_SEROWE PALAPYE_KGAGODI,27.50339317555218,-22.29477672423486,Botswana,NOx,0.7128547710459042,220
0242,BOTSWANA_CENTRAL_SEROWE PALAPYE_LECHENG,27.185275817151037,-22.673190570584637,Botswana,NOx,3.7799776073290583,220
0243,BOTSWANA_CENTRAL_SEROWE PALAPYE_LERALA,27.844813325817267,-22.74868745754991,Botswana,NOx,2.009723701103857,220
0244,BOTSWANA_CENTRAL_SEROWE PALAPYE_LESENEPOLE/MATOLWANE,27.57647005773152,-22.540521067100062,Botswana,NOx,0.26702331445396216,220
0245,BOTSWANA_CENTRAL_SEROWE PALAPYE_MABELEAPUDI,26.825166966464483,-22.128040644255414,Botswana,NOx,1.6369443987093355,220
0246,BOTSWANA_CENTRAL_SEROWE PALAPYE_MAJWANAADIPITSE,27.005264767504467,-21.94020945810498,Botswana,NOx,5.640865602480706,220
0247,BOTSWANA_CENTRAL_SEROWE PALAPYE_MAJWANENG,27.649493814512812,-22.75586221108769,Botswana,NOx,0.0028676631315080682,220
0248,BOTSWANA_CENTRAL_SEROWE PALAPYE_MALAKA,27.34590226161426,-22.592437093749382,Botswana,NOx,12.471798762970154,220
0249,BOTSWANA_CENTRAL_SEROWE PALAPYE_MALATSWAI,26.22277867959262,-21.857375536824936,Botswana,NOx,20.137553596564615,220
0250,BOTSWANA_CENTRAL_SEROWE PALAPYE_MANALEDI,27.5051048457668,-22.739538071182494,Botswana,NOx,0.39017782201119816,220
0251,BOTSWANA_CENTRAL_SEROWE PALAPYE_MATLHAKOLA,27.317001132592853,-22.71429972506726,Botswana,NOx,0.10010592696618865,220
0252,BOTSWANA_CENTRAL_SEROWE PALAPYE_MAUNATLALA,27.815623496542926,-22.549960915979852,Botswana,NOx,1.4946428558338036,220
0253,BOTSWANA_CENTRAL_SEROWE PALAPYE_MMASHORO,26.545528327992464,-21.913528088466634,Botswana,NOx,0.9903798845905551,220
0254,BOTSWANA_CENTRAL_SEROWE PALAPYE_MOENG,27.61182691600207,-22.684247954870994,Botswana,NOx,0.010503406813370943,220
0255,BOTSWANA_CENTRAL_SEROWE PALAPYE_MOGAPI,27.90355332352727,-22.400536057043198,Botswana,NOx,2.5245743637845224,220
0256,BOTSWANA_CENTRAL_SEROWE PALAPYE_MOGAPINYANA,27.656777003289175,-22.30921854076872,Botswana,NOx,0.7349469957640211,220
0257,BOTSWANA_CENTRAL_SEROWE PALAPYE_MOGOME,26.8788884869847,-22.780246290758782,Botswana,NOx,0.22032622199040533,220
0258,BOTSWANA_CENTRAL_SEROWE PALAPYE_MOGOROSI,26.50681705808967,-22.435754433322103,Botswana,NOx,0.9301910455524829,220
0259,BOTSWANA_CENTRAL_SEROWE PALAPYE_MOIYABANA,25.735420719204132,-22.568416950895624,Botswana,NOx,14.583981378711949,220
0260,BOTSWANA_CENTRAL_SEROWE PALAPYE_MOKGWARE,26.78655204288414,-22.77384105120242,Botswana,NOx,0.12574374183435663,220
0261,BOTSWANA_CENTRAL_SEROWE PALAPYE_MOKHUNGWANA,27.306318999794403,-22.66250272126858,Botswana,NOx,0.915097144692396,220
0262,BOTSWANA_CENTRAL_SEROWE PALAPYE_MOKOKWANA,27.68970066181251,-22.615814171525756,Botswana,NOx,5.496223552234887,220
0263,BOTSWANA_CENTRAL_SEROWE PALAPYE_MOREMI,27.48231653767836,-22.53631545317506,Botswana,NOx,1.0720974043846498,220
0264,BOTSWANA_CENTRAL_SEROWE PALAPYE_MOREOMABELE,27.19509262463396,-21.997866632985815,Botswana,NOx,3.5498160032464914,220
0265,BOTSWANA_CENTRAL_SEROWE PALAPYE_MOSWEU,27.643842814290796,-22.648861924159835,Botswana,NOx,0.015432309467288397,220
0266,BOTSWANA_CENTRAL_SEROWE PALAPYE_MOTSHEGALETAU,26.39728909838941,-22.561009612981003,Botswana,NOx,0.06373707514609601,220
0267,BOTSWANA_CENTRAL_SEROWE PALAPYE_PAJE,26.816328935481604,-22.26070768401234,Botswana,NOx,0.025336999255226977,220
0268,BOTSWANA_CENTRAL_SEROWE PALAPYE_PALAPYE,27.16786344665423,-22.55497413257865,Botswana,NOx,19492.40332249695,220
0269,BOTSWANA_CENTRAL_SEROWE PALAPYE_RADISELE,26.988408471288807,-22.81090444695215,Botswana,NOx,0.5205423570968939,220
0270,BOTSWANA_CENTRAL_SEROWE PALAPYE_RATHOLO,27.53938699821314,-22.68681419937455,Botswana,NOx,1.2685964817555306,220
0271,BOTSWANA_CENTRAL_SEROWE PALAPYE_SEHUNOU,26.385003835935297,-22.59514869100243,Botswana,NOx,0.008276628042025658,220
0272,BOTSWANA_CENTRAL_SEROWE PALAPYE_SEOLWANE,27.762620325390287,-22.666448768729584,Botswana,NOx,41.59567452365225,220
0273,BOTSWANA_CENTRAL_SEROWE PALAPYE_SEROWE,26.50285991859318,-21.991307902066985,Botswana,NOx,171.79652494083587,220
0274,BOTSWANA_CENTRAL_SEROWE PALAPYE_SERULE,27.237798390462725,-21.890009585678992,Botswana,NOx,2.4081630732736232,220
0275,BOTSWANA_CENTRAL_SEROWE PALAPYE_TAMASANE,27.396841887713986,-22.3814578521284,Botswana,NOx,1.0034767872615211,220
0276,BOTSWANA_CENTRAL_SEROWE PALAPYE_THABALA,26.421061666211095,-22.511119340536165,Botswana,NOx,0.5473371858516725,220
0277,BOTSWANA_CENTRAL_SEROWE PALAPYE_TOPISI,27.22337506343467,-22.227424247307294,Botswana,NOx,21.847972896462583,220
0278,BOTSWANA_CENTRAL_SEROWE PALAPYE_TSHIMOYAPULA,27.019142014452218,-22.119432295799754,Botswana,NOx,1.4451747233907817,220
0279,BOTSWANA_CENTRAL_SEROWE PALAPYE_TULI,28.061256491221307,-22.727203098241798,Botswana,NOx,1.9388294431921316,220
0280,BOTSWANA_CENTRAL_TUTUME_BOROLONG,27.32637665560921,-21.091395459266185,Botswana,NOx,0.44419719522439927,220
0281,BOTSWANA_CENTRAL_TUTUME_BOROTSI,27.251654267811457,-21.026993493948527,Botswana,NOx,0.2594352877819461,220
0282,BOTSWANA_CENTRAL_TUTUME_CHADIBE,27.342256409557447,-21.066229746391034,Botswana,NOx,0.6440151818104558,220
0283,BOTSWANA_CENTRAL_TUTUME_CHANGATE,27.246529169011538,-20.323681695475976,Botswana,NOx,0.016265715008517367,220
0284,BOTSWANA_CENTRAL_TUTUME_DAGWI,27.24543111493109,-20.205531255072483,Botswana,NOx,0.12127036141430254,220
0285,BOTSWANA_CENTRAL_TUTUME_DUKWI,26.284620970093016,-20.67546283807841,Botswana,NOx,8.890518041511788,220
0286,BOTSWANA_CENTRAL_TUTUME_GOSHWE,27.21557874997618,-20.535609785786193,Botswana,NOx,0,220
0287,BOTSWANA_CENTRAL_TUTUME_GWETA,25.591976234675478,-19.905319536886395,Botswana,NOx,84.63732835191345,220
0288,BOTSWANA_CENTRAL_TUTUME_JAMATAKA,27.15547496011975,-21.068951470145485,Botswana,NOx,0.14774357036211988,220
0289,BOTSWANA_CENTRAL_TUTUME_KUTAMOGREE,26.880512190693914,-20.75110495387822,Botswana,NOx,2.3823358736928713,220
0290,BOTSWANA_CENTRAL_TUTUME_LEPASHE,26.66685337113433,-20.812417757916798,Botswana,NOx,18.014228201686066,220
0291,BOTSWANA_CENTRAL_TUTUME_MABESEKWA,26.832739428334428,-21.176734877732674,Botswana,NOx,9.17393351738776,220
0292,BOTSWANA_CENTRAL_TUTUME_MAFONGO/HOBONA,27.235943246400137,-20.94573521021701,Botswana,NOx,0.030763770710384622,220
0293,BOTSWANA_CENTRAL_TUTUME_MAITENGWE,27.011808968202775,-20.116667928999114,Botswana,NOx,2.777627068098665,220
0294,BOTSWANA_CENTRAL_TUTUME_MAKOBO,27.107677079222814,-21.02576555193948,Botswana,NOx,0.4105428978557488,220
0295,BOTSWANA_CENTRAL_TUTUME_MAKUTA,26.936411463806042,-20.611020613663403,Botswana,NOx,2.6945167881100156,220
0296,BOTSWANA_CENTRAL_TUTUME_MANDUNYANE,27.164838306199922,-21.29997484522961,Botswana,NOx,3.68940953522492,220
0297,BOTSWANA_CENTRAL_TUTUME_MAPOSA,26.227831043889193,-20.105672557073913,Botswana,NOx,2.2949666267144817,220
0298,BOTSWANA_CENTRAL_TUTUME_MARAPONG,27.060904032209528,-20.875646900092942,Botswana,NOx,0.005596637592600365,220
0299,BOTSWANA_CENTRAL_TUTUME_MAROBELA,27.22684904528886,-20.86226718353111,Botswana,NOx,0.020457587361186868,220
0300,BOTSWANA_CENTRAL_TUTUME_MATHANGWANE,27.301597561179328,-20.96526881266621,Botswana,NOx,1.2777320809724546,220
0301,BOTSWANA_CENTRAL_TUTUME_MATOBO,27.07410815569497,-20.55396589314004,Botswana,NOx,1.0695627098121383,220
0302,BOTSWANA_CENTRAL_TUTUME_MATSITAMA,26.795600326944548,-20.91574597947195,Botswana,NOx,29.45392637015447,220
0303,BOTSWANA_CENTRAL_TUTUME_MMANXOTAE,26.39231628230285,-20.11189737769122,Botswana,NOx,1.4337646947827103,220
0304,BOTSWANA_CENTRAL_TUTUME_MMEYA,26.45632418802842,-20.83403038639063,Botswana,NOx,16.522434234563935,220
0305,BOTSWANA_CENTRAL_TUTUME_MOKUBILO,26.522301620359478,-21.211068795354347,Botswana,NOx,10.197509903254245,220
0306,BOTSWANA_CENTRAL_TUTUME_MOSETSE,26.717225408615494,-20.61414488681695,Botswana,NOx,4.794588047698584,220
0307,BOTSWANA_CENTRAL_TUTUME_NATA,26.421106250465357,-20.364015464327988,Botswana,NOx,26.736970371676794,220
0308,BOTSWANA_CENTRAL_TUTUME_NATALE,27.13819661363051,-21.12190933916731,Botswana,NOx,2.0993719980606413,220
0309,BOTSWANA_CENTRAL_TUTUME_NKANGE,27.150899768186317,-20.292280125711056,Botswana,NOx,0.15434760236758846,220
0310,BOTSWANA_CENTRAL_TUTUME_NSHAKASHOKWE,27.19448164625436,-20.800715019251136,Botswana,NOx,0.06241844733000026,220
0311,BOTSWANA_CENTRAL_TUTUME_NSWAZWI,27.11079707796551,-20.717051379328918,Botswana,NOx,2.7909610419117445,220
0312,BOTSWANA_CENTRAL_TUTUME_SEBINA,27.212125328697905,-20.8229088309246,Botswana,NOx,0.022246073753918044,220
0313,BOTSWANA_CENTRAL_TUTUME_SEMITWE,27.057568754807466,-20.9304846145358,Botswana,NOx,2.7426433034511115,220
0314,BOTSWANA_CENTRAL_TUTUME_SENETE,27.061521930586494,-20.338940466599496,Botswana,NOx,1.0702626636712504,220
0315,BOTSWANA_CENTRAL_TUTUME_SEPAKO,26.42176865500974,-19.91292710159379,Botswana,NOx,17.083761525108333,220
0316,BOTSWANA_CENTRAL_TUTUME_SHASHE-MOOKE,27.294622390104607,-21.200689259821715,Botswana,NOx,1.0424759926750922,220
0317,BOTSWANA_CENTRAL_TUTUME_SHASHE/SEMOTSWANE,27.353975033981698,-21.4004850680266,Botswana,NOx,0.9336742913588313,220
0318,BOTSWANA_CENTRAL_TUTUME_TONOTA,27.390007578405545,-21.56581687363627,Botswana,NOx,11.577157440531089,220
0319,BOTSWANA_CENTRAL_TUTUME_TSHOKATSHAA,25.411457316681155,-20.073274987651395,Botswana,NOx,0.5609895307851117,220
0320,BOTSWANA_CENTRAL_TUTUME_TUTUME,26.93343318392142,-20.358110222677443,Botswana,NOx,11.742131077482176,220
0321,BOTSWANA_CENTRAL_TUTUME_ZOROGA,25.931132083826565,-20.225947339100205,Botswana,NOx,4.181147185397469,220
0322,BOTSWANA_CHOBE_CHOBE_KACHIKAU,24.593403269312077,-18.19955337118612,Botswana,NOx,0.39103647439758527,220
0323,BOTSWANA_CHOBE_CHOBE_KASANE,25.053605518831368,-17.95621200218165,Botswana,NOx,15.41045517329004,220
0324,BOTSWANA_CHOBE_CHOBE_KATABA,24.208556915615702,-18.516556039211913,Botswana,NOx,2.0930600389434955,220
0325,BOTSWANA_CHOBE_CHOBE_KAVIMBA,24.673787397731,-18.131513519062572,Botswana,NOx,0.26828032950190517,220
0326,BOTSWANA_CHOBE_CHOBE_KAZUNGULA,25.239551399880288,-17.81715309318576,Botswana,NOx,1.461446954412805,220
0327,BOTSWANA_CHOBE_CHOBE_LESOMA,25.22616409411994,-17.924922498851625,Botswana,NOx,1.212056757320803,220
0328,BOTSWANA_CHOBE_CHOBE_MUCHINJE/MABELE,24.80594102179805,-18.000000788213598,Botswana,NOx,0.2976474929977096,220
0329,BOTSWANA_CHOBE_CHOBE_NUMBER SEVEN,25.091530617419757,-18.628521496100262,Botswana,NOx,41.45833509254263,220
0330,BOTSWANA_CHOBE_CHOBE_PANDAMATENGA,25.62991931175742,-18.55507084642917,Botswana,NOx,0.19379277815047402,220
0331,BOTSWANA_CHOBE_CHOBE_PARAKARUNGU,24.3003425097673,-18.078920152986736,Botswana,NOx,1.0023791210092396,220
0332,BOTSWANA_CHOBE_CHOBE_SATAU,24.4229631549193,-18.021010667013208,Botswana,NOx,0.2118975617711735,220
0333,BOTSWANA_GABORONE_GABORONE_GABORONE,25.88095190745218,-24.686452843134287,Botswana,NOx,79.3396819428579,220
0334,BOTSWANA_GHANZI_CENTRAL KGALAGADI GAME RESERVE_CENTRAL KGALAGADI GAME RESERVE,23.84354631529824,-22.32227292696922,Botswana,NOx,217.42943149598733,220
0335,BOTSWANA_GHANZI_GHANZI_B. VISSER,22.55838233704724,-21.32992655115972,Botswana,NOx,0,220
0336,BOTSWANA_GHANZI_GHANZI_BERE,21.79557213181817,-22.740271290335002,Botswana,NOx,0,220
0337,BOTSWANA_GHANZI_GHANZI_CHARLES HILL,20.07849051397565,-22.30448292484571,Botswana,NOx,1.2085946823907263,220
0338,BOTSWANA_GHANZI_GHANZI_CHARLES SHELDON,22.10987199508711,-21.572165997131027,Botswana,NOx,0.754875355168637,220
0339,BOTSWANA_GHANZI_GHANZI_CHOBOKWANE,21.24948179474576,-22.480947513304624,Botswana,NOx,0.32091885979411316,220
0340,BOTSWANA_GHANZI_GHANZI_DECT ETIN,21.87694726048196,-21.572322965589386,Botswana,NOx,3.2429122943120605,220
0341,BOTSWANA_GHANZI_GHANZI_DEKAR,22.065436232878568,-21.366520787607246,Botswana,NOx,0.24031802197168184,220
0342,BOTSWANA_GHANZI_GHANZI_EAST HANAHAI,22.296004965831617,-22.138606212752848,Botswana,NOx,4.356094731953302,220
0343,BOTSWANA_GHANZI_GHANZI_GHANZI,21.636172818729325,-21.69600936266415,Botswana,NOx,5.852545363322015,220
0344,BOTSWANA_GHANZI_GHANZI_GROOTE LAAGTE,21.349883074115542,-21.38859908504291,Botswana,NOx,9.827900480307193,220
0345,BOTSWANA_GHANZI_GHANZI_HANS METZLER,20.164337868142784,-22.12061746486461,Botswana,NOx,1.8192510673595503,220
0346,BOTSWANA_GHANZI_GHANZI_J. RANSALL,20.422333298998613,-22.140780374743333,Botswana,NOx,0,220
0347,BOTSWANA_GHANZI_GHANZI_JANKI JANKI,21.346606317490824,-23.123137224643713,Botswana,NOx,1.5506033463424955,220
0348,BOTSWANA_GHANZI_GHANZI_JERUNG,22.462289483631174,-21.771073127188487,Botswana,NOx,1.92694001519357,220
0349,BOTSWANA_GHANZI_GHANZI_JOHN FARM,22.325500764273656,-21.113654988029502,Botswana,NOx,0.22558643556643504,220
0350,BOTSWANA_GHANZI_GHANZI_KACGAE,22.25670639051408,-22.78108355380457,Botswana,NOx,3.41327455781509,220
0351,BOTSWANA_GHANZI_GHANZI_KARAKOBIS,20.69787418591688,-22.076318449477853,Botswana,NOx,0.20105426532579943,220
0352,BOTSWANA_GHANZI_GHANZI_KULE,20.25485884411168,-22.82990220520822,Botswana,NOx,0.16520868022374124,220
0353,BOTSWANA_GHANZI_GHANZI_MAGONO MAGONO,20.74295662591417,-23.122989899939387,Botswana,NOx,0,220
0354,BOTSWANA_GHANZI_GHANZI_MAKUNDA,20.356137474087205,-22.403140017753746,Botswana,NOx,1.4204639757470254,220
0355,BOTSWANA_GHANZI_GHANZI_MASIRE'S FARM,21.364735361374258,-21.90738889293877,Botswana,NOx,1.140878972741647,220
0356,BOTSWANA_GHANZI_GHANZI_NCOJANE,20.259249043024266,-23.18993344999315,Botswana,NOx,7.554851487795703e-4,220
0357,BOTSWANA_GHANZI_GHANZI_NEW XADE,22.47638609723249,-22.059709596306462,Botswana,NOx,0.49842717334914605,220
0358,BOTSWANA_GHANZI_GHANZI_NEW XANAGAS,20.800274167066778,-22.572525810989912,Botswana,NOx,1.8624718518376764,220
0359,BOTSWANA_GHANZI_GHANZI_QABO,21.72658991626723,-21.05161346564646,Botswana,NOx,0,220
0360,BOTSWANA_GHANZI_GHANZI_TSOOTSHA,20.91109497610415,-22.075747207834585,Botswana,NOx,0.10647908815837676,220
0361,BOTSWANA_GHANZI_GHANZI_WEST HANAHAI,21.65082272869238,-22.135855131778566,Botswana,NOx,0,220
0362,BOTSWANA_JWANENG_JWANENG_JWANENG,24.757853176422884,-24.58932918017088,Botswana,NOx,0.3222056551802396,220
0363,BOTSWANA_KGALAGADI_KGALAGADI NORTH_HUKUNTSI,21.663906534181816,-23.998763591814352,Botswana,NOx,2.423158159641416,220
0364,BOTSWANA_KGALAGADI_KGALAGADI NORTH_HUNHUKWE,21.77076341928267,-23.455768999361656,Botswana,NOx,0.7946594947494526,220
0365,BOTSWANA_KGALAGADI_KGALAGADI NORTH_INALEGOLO,22.658513508974664,-24.45585560542118,Botswana,NOx,10.208386644601422,220
0366,BOTSWANA_KGALAGADI_KGALAGADI NORTH_KANG,22.631383747199003,-23.529403386876705,Botswana,NOx,7.177302059231177,220
0367,BOTSWANA_KGALAGADI_KGALAGADI NORTH_LEHUTUTU,22.00790879280739,-23.84360826239536,Botswana,NOx,0.03004865164017616,220
0368,BOTSWANA_KGALAGADI_KGALAGADI NORTH_LOKGWABE,21.7851453687414,-24.07867771129318,Botswana,NOx,1.6741733171428355,220
0369,BOTSWANA_KGALAGADI_KGALAGADI NORTH_MAKE,21.994205625425362,-23.680770428270183,Botswana,NOx,2.052681118060195e-10,220
0370,BOTSWANA_KGALAGADI_KGALAGADI NORTH_MONONG,21.544688834846603,-23.73920927317219,Botswana,NOx,0.10684000564641007,220
0371,BOTSWANA_KGALAGADI_KGALAGADI NORTH_NCAANG,21.1223824590204,-23.44041697965504,Botswana,NOx,0,220
0372,BOTSWANA_KGALAGADI_KGALAGADI NORTH_NGWATLE,21.117355141120534,-23.647886311201248,Botswana,NOx,0.10145439151012663,220
0373,BOTSWANA_KGALAGADI_KGALAGADI NORTH_PHUDUHUDU,22.580063911251433,-23.93036127904691,Botswana,NOx,0.7210145787941515,220
0374,BOTSWANA_KGALAGADI_KGALAGADI NORTH_TSHANE,22.009218648598967,-23.97480857848694,Botswana,NOx,0.3580537492218315,220
0375,BOTSWANA_KGALAGADI_KGALAGADI NORTH_UKWI,20.54965855676176,-23.64224465777984,Botswana,NOx,15.2463438877433,220
0376,BOTSWANA_KGALAGADI_KGALAGADI NORTH_ZUTSWA,21.06879673283048,-24.378159867529472,Botswana,NOx,16.06970995964808,220
0377,BOTSWANA_KGALAGADI_KGALAGADI SOUTH_BOGOGOBO,21.939941061820672,-26.643776855439175,Botswana,NOx,0,220
0378,BOTSWANA_KGALAGADI_KGALAGADI SOUTH_BOKSPITS,21.314513491670507,-25.52305062333103,Botswana,NOx,0.86850430755961,220
0379,BOTSWANA_KGALAGADI_KGALAGADI SOUTH_BRAY,23.752155151918004,-25.314612046817558,Botswana,NOx,6.064638410681217,220
0380,BOTSWANA_KGALAGADI_KGALAGADI SOUTH_GACHIBANA,21.318615947145076,-26.76135876855932,Botswana,NOx,0,220
0381,BOTSWANA_KGALAGADI_KGALAGADI SOUTH_KHISA,22.627311790636153,-25.661301014142644,Botswana,NOx,0,220
0382,BOTSWANA_KGALAGADI_KGALAGADI SOUTH_KHUIS,21.778745594602643,-26.61621321259511,Botswana,NOx,0,220
0383,BOTSWANA_KGALAGADI_KGALAGADI SOUTH_KHWAWA,21.536389504618732,-26.33146231350371,Botswana,NOx,0,220
0384,BOTSWANA_KGALAGADI_KGALAGADI SOUTH_KOKOTSHA,23.282665786747692,-24.952596354252385,Botswana,NOx,0.0294723800724481,220
0385,BOTSWANA_KGALAGADI_KGALAGADI SOUTH_KOLONKWANE,21.998886440804885,-26.46695305601831,Botswana,NOx,0,220
0386,BOTSWANA_KGALAGADI_KGALAGADI SOUTH_MAKOPONG,23.00557554126552,-25.279785016029198,Botswana,NOx,0,220
0387,BOTSWANA_KGALAGADI_KGALAGADI SOUTH_MALESHE,22.578885408820124,-25.861705230970156,Botswana,NOx,4.514219233895437e-9,220
0388,BOTSWANA_KGALAGADI_KGALAGADI SOUTH_MARALALENG,22.68707487230088,-25.784682276497044,Botswana,NOx,0,220
0389,BOTSWANA_KGALAGADI_KGALAGADI SOUTH_MAUBELO,22.38337590834033,-25.32060395255863,Botswana,NOx,3.988357946272732,220
0390,BOTSWANA_KGALAGADI_KGALAGADI SOUTH_MIDDLEPITS,21.88965522829646,-26.64510622003729,Botswana,NOx,0,220
0391,BOTSWANA_KGALAGADI_KGALAGADI SOUTH_MOLOPO FARMS,23.901539179894392,-25.218667431791786,Botswana,NOx,7.7736012368959235,220
0392,BOTSWANA_KGALAGADI_KGALAGADI SOUTH_OMAWENENO,22.58460683893281,-25.787109823452095,Botswana,NOx,0,220
0393,BOTSWANA_KGALAGADI_KGALAGADI SOUTH_PHEPHENG/DRAAIHOEK,22.78105010135853,-25.353110330504997,Botswana,NOx,0.13421293899276324,220
0394,BOTSWANA_KGALAGADI_KGALAGADI SOUTH_RAPPLES PAN,21.008575646663,-26.638159980643096,Botswana,NOx,0,220
0395,BOTSWANA_KGALAGADI_KGALAGADI SOUTH_STRUIZENDAM,20.634736317115014,-26.674011578479416,Botswana,NOx,0,220
0396,BOTSWANA_KGALAGADI_KGALAGADI SOUTH_TSABONG,22.533675678870342,-26.03261068358875,Botswana,NOx,5.846283067811565,220
0397,BOTSWANA_KGALAGADI_KGALAGADI SOUTH_VAALHOEK,20.899174768893236,-26.63085165782585,Botswana,NOx,0,220
0398,BOTSWANA_KGALAGADI_KGALAGADI SOUTH_WERDA,23.074307700309763,-25.079935228446647,Botswana,NOx,26.906651217488314,220
0399,BOTSWANA_KGATLENG_KGATLENG_ARTISIA,26.329598045283216,-24.01646307301413,Botswana,NOx,1.186260269802652,220
0400,BOTSWANA_KGATLENG_KGATLENG_BOKAA,25.97195065976654,-24.450230086407068,Botswana,NOx,24.52681365329527,220
0401,BOTSWANA_KGATLENG_KGATLENG_DIKGONNYE,26.029703255813914,-24.096171191247226,Botswana,NOx,2.163511652946642,220
0402,BOTSWANA_KGATLENG_KGATLENG_DIKWIDIDI,26.17999949757091,-24.55666835671585,Botswana,NOx,0,220
0403,BOTSWANA_KGATLENG_KGATLENG_KGOMODIATSHABA,26.269863148495805,-23.959055603855354,Botswana,NOx,93.20724195214892,220
0404,BOTSWANA_KGATLENG_KGATLENG_KHURUTSHE,26.132859344771337,-23.690545327799267,Botswana,NOx,2.9993562212612153,220
0405,BOTSWANA_KGATLENG_KGATLENG_LESHIBITSE,26.406165055796965,-23.83651089330935,Botswana,NOx,5.074105687168124,220
0406,BOTSWANA_KGATLENG_KGATLENG_MABALANE,26.28893676301754,-24.621655976454754,Botswana,NOx,0.19161318183744122,220
0407,BOTSWANA_KGATLENG_KGATLENG_MALOLWANE,26.430380010494872,-24.457842437404707,Botswana,NOx,1.2830694015487694,220
0408,BOTSWANA_KGATLENG_KGATLENG_MALOTWANA SIDING,26.151012846299633,-24.29179457997145,Botswana,NOx,4.238218040406919,220
0409,BOTSWANA_KGATLENG_KGATLENG_MATEBELENG,26.04953135972325,-24.525143676862136,Botswana,NOx,0.7780775770310757,220
0410,BOTSWANA_KGATLENG_KGATLENG_MMATHUBUDUKWANE,26.402194016452356,-24.58953432239364,Botswana,NOx,0.08393321241570326,220
0411,BOTSWANA_KGATLENG_KGATLENG_MOCHUDI,26.47677571716603,-24.23454264974918,Botswana,NOx,33.103573450156226,220
0412,BOTSWANA_KGATLENG_KGATLENG_MODIPANE,26.172106866832117,-24.61311568769224,Botswana,NOx,1.3744231846401165,220
0413,BOTSWANA_KGATLENG_KGATLENG_MORWA,26.089564160859158,-24.467876815246445,Botswana,NOx,5.190216166899412,220
0414,BOTSWANA_KGATLENG_KGATLENG_OLIPHANTS DRIFT,26.833613302849894,-24.18652011472838,Botswana,NOx,0.21987198566159882,220
0415,BOTSWANA_KGATLENG_KGATLENG_OODI,26.09229785618965,-24.566777150464368,Botswana,NOx,0.6921706108739383,220
0416,BOTSWANA_KGATLENG_KGATLENG_PILANE STATION,26.10483646643129,-24.415535218505003,Botswana,NOx,1.6551814870815347,220
0417,BOTSWANA_KGATLENG_KGATLENG_RAMONAKA,26.446902425513134,-24.542320856771433,Botswana,NOx,0.18358066858932906,220
0418,BOTSWANA_KGATLENG_KGATLENG_RAMOTLABAKI,26.871752159032944,-23.894065124338375,Botswana,NOx,0.41190486523937353,220
0419,BOTSWANA_KGATLENG_KGATLENG_RASESA,26.029082284030856,-24.334812008927873,Botswana,NOx,19.24381057689662,220
0420,BOTSWANA_KGATLENG_KGATLENG_SIKWANE,26.40976832130963,-24.631382480577347,Botswana,NOx,0.013649748811472583,220
0421,BOTSWANA_KWENENG_KWENENG EAST_BDF MOGODITSHANE,25.866597567365684,-24.60177989688917,Botswana,NOx,1.2833517721062786,220
0422,BOTSWANA_KWENENG_KWENENG EAST_BOATLANAME,25.90698626304365,-23.603697827888347,Botswana,NOx,3.0550829486865996,220
0423,BOTSWANA_KWENENG_KWENENG EAST_DIKGATLHONG,25.890773108192004,-24.22990108004598,Botswana,NOx,0.31387743688997055,220
0424,BOTSWANA_KWENENG_KWENENG EAST_DITSHUKUDU,25.79018424903999,-24.31657903586985,Botswana,NOx,1.255085254204069,220
0425,BOTSWANA_KWENENG_KWENENG EAST_GABANE,25.724856086362443,-24.625622432889752,Botswana,NOx,8.424184471338164,220
0426,BOTSWANA_KWENENG_KWENENG EAST_GAKGATLA,25.558388738489484,-24.555893651556392,Botswana,NOx,0,220
0427,BOTSWANA_KWENENG_KWENENG EAST_GAKUTLO,25.795893008492364,-24.485500847618265,Botswana,NOx,4.730803259638436,220
0428,BOTSWANA_KWENENG_KWENENG EAST_GAMODUBU,25.71707045103724,-24.50745373492028,Botswana,NOx,0.0899387996013452,220
0429,BOTSWANA_KWENENG_KWENENG EAST_HATSALATLADI,25.655128743903163,-24.053036283307804,Botswana,NOx,0.29454828673161615,220
0430,BOTSWANA_KWENENG_KWENENG EAST_KGOPE,25.90730765578967,-24.309697924278826,Botswana,NOx,2.1197840042387583,220
0431,BOTSWANA_KWENENG_KWENENG EAST_KOPONG,25.870465764300775,-24.444158127481042,Botswana,NOx,17.60778800136899,220
0432,BOTSWANA_KWENENG_KWENENG EAST_KUBUNG,25.360366076259005,-24.614971635386656,Botswana,NOx,0,220
0433,BOTSWANA_KWENENG_KWENENG EAST_KUMAKWANE,25.672697196778568,-24.673575670712168,Botswana,NOx,3.5923188982011176,220
0434,BOTSWANA_KWENENG_KWENENG EAST_KWENENG,25.828354177294415,-23.852566021088684,Botswana,NOx,12.777765151905555,220
0435,BOTSWANA_KWENENG_KWENENG EAST_LENTSWELETAU,25.870136138465416,-24.167826671475748,Botswana,NOx,3.814103252552886,220
0436,BOTSWANA_KWENENG_KWENENG EAST_LEOLOGANE,25.64433800339369,-23.434433772014575,Botswana,NOx,1.1902074078131344,220
0437,BOTSWANA_KWENENG_KWENENG EAST_LEPHEPHE,25.894174284633333,-23.40765559827626,Botswana,NOx,0.5377893182807385,220
0438,BOTSWANA_KWENENG_KWENENG EAST_LOSILAKGOKONG,25.34988894663335,-24.571135771940597,Botswana,NOx,0,220
0439,BOTSWANA_KWENENG_KWENENG EAST_MAHETLWE,25.665185137212088,-24.23905297400607,Botswana,NOx,6.481446901179842,220
0440,BOTSWANA_KWENENG_KWENENG EAST_MEDIE,25.874565240962703,-24.031116366980243,Botswana,NOx,0.5700763647734077,220
0441,BOTSWANA_KWENENG_KWENENG EAST_METSIMOTLHABE,25.814813747961594,-24.57843758628985,Botswana,NOx,10.80521117557888,220
0442,BOTSWANA_KWENENG_KWENENG EAST_MMANKGODI,25.623117562536567,-24.72944762315122,Botswana,NOx,52.05572868628435,220
0443,BOTSWANA_KWENENG_KWENENG EAST_MMANOKO,25.64934009640395,-24.42250311648915,Botswana,NOx,0.7763038067531053,220
0444,BOTSWANA_KWENENG_KWENENG EAST_MMATSETA,25.85895904561137,-24.512431056468085,Botswana,NOx,1.7746322208650882,220
0445,BOTSWANA_KWENENG_KWENENG EAST_MMOPANE,25.831916673401516,-24.543107056933852,Botswana,NOx,47.21955058870982,220
0446,BOTSWANA_KWENENG_KWENENG EAST_MOGODITSHANE,25.85842184630358,-24.60738400491993,Botswana,NOx,14.666622684245716,220
0447,BOTSWANA_KWENENG_KWENENG EAST_MOGONONO,25.577935957073354,-24.234385269062876,Botswana,NOx,0.6024676259183692,220
0448,BOTSWANA_KWENENG_KWENENG EAST_MOKOLODI,25.81603234528639,-24.697241109077822,Botswana,NOx,0.8919069812036622,220
0449,BOTSWANA_KWENENG_KWENENG EAST_MOLEPOLOLE,25.5497055386965,-24.395542548425816,Botswana,NOx,39.202399183762175,220
0450,BOTSWANA_KWENENG_KWENENG EAST_RAMAPHATLE,25.61446897045962,-24.70394371590776,Botswana,NOx,12.734151729188614,220
0451,BOTSWANA_KWENENG_KWENENG EAST_SHADISHADI,25.6542773445706,-23.631687537826256,Botswana,NOx,2.9635954114845755,220
0452,BOTSWANA_KWENENG_KWENENG EAST_SOJWE,25.81060306743436,-23.447805731300946,Botswana,NOx,2.3692612667403696,220
0453,BOTSWANA_KWENENG_KWENENG EAST_THAMAGA,25.512202536353346,-24.636709032733712,Botswana,NOx,0.6056736166483531,220
0454,BOTSWANA_KWENENG_KWENENG EAST_TLOANENG,25.718436819740113,-24.748830124610986,Botswana,NOx,7.3320020925981355,220
0455,BOTSWANA_KWENENG_KWENENG WEST_BOTLHAPATLOU,25.49433742402101,-23.950964377275472,Botswana,NOx,0.15069461644345505,220
0456,BOTSWANA_KWENENG_KWENENG WEST_DIPHUDUHUDU,25.361313831639055,-23.66424037279965,Botswana,NOx,0.09302312231868091,220
0457,BOTSWANA_KWENENG_KWENENG WEST_DITSHEGWANE,24.967494356636315,-24.325453739104706,Botswana,NOx,0.026418731372026272,220
0458,BOTSWANA_KWENENG_KWENENG WEST_DUTLWE,24.010209606049106,-24.0766543302552,Botswana,NOx,0.6669303141055548,220
0459,BOTSWANA_KWENENG_KWENENG WEST_KAUDWANE,24.659436878890112,-23.367661970601763,Botswana,NOx,0.0020564547700275297,220
0460,BOTSWANA_KWENENG_KWENENG WEST_KHUDUMELAPYE,25.170144578603114,-23.791371348563107,Botswana,NOx,1.0938154751369686,220
0461,BOTSWANA_KWENENG_KWENENG WEST_KOTOLANAME,25.344981106952105,-24.426360101349005,Botswana,NOx,0.8436375817043448,220
0462,BOTSWANA_KWENENG_KWENENG WEST_LETLHAKENG,25.055504504543418,-24.07736578153483,Botswana,NOx,72.10359319644414,220
0463,BOTSWANA_KWENENG_KWENENG WEST_MABOANE,24.62981126929652,-24.01531720256432,Botswana,NOx,1.432486363280957,220
0464,BOTSWANA_KWENENG_KWENENG WEST_MALWELWE,25.388569305562967,-24.124123864830562,Botswana,NOx,0.7451411436107606,220
0465,BOTSWANA_KWENENG_KWENENG WEST_MANTSHWABISI,25.20948564723073,-24.090430074502226,Botswana,NOx,0.8594004835122357,220
0466,BOTSWANA_KWENENG_KWENENG WEST_MARATSHWANE,25.27943300340971,-24.00543002229499,Botswana,NOx,0.34153934846612605,220
0467,BOTSWANA_KWENENG_KWENENG WEST_METSIBOTLHOKO,24.88334535341407,-24.02100921043726,Botswana,NOx,30.846554191493354,220
0468,BOTSWANA_KWENENG_KWENENG WEST_MONWANE,25.208167783087692,-24.31675483950471,Botswana,NOx,0.002224066506232837,220
0469,BOTSWANA_KWENENG_KWENENG WEST_MOSHAWENG,25.126758323030916,-24.50223959697767,Botswana,NOx,0,220
0470,BOTSWANA_KWENENG_KWENENG WEST_MOTOKWE,23.393326314118752,-23.949217767767472,Botswana,NOx,1.6007876508114895,220
0471,BOTSWANA_KWENENG_KWENENG WEST_NGWARE,25.472317051558928,-23.407189666362918,Botswana,NOx,7.58719699180483,220
0472,BOTSWANA_KWENENG_KWENENG WEST_SALAJWE,24.700069233188845,-23.586968168257275,Botswana,NOx,52.20981691827105,220
0473,BOTSWANA_KWENENG_KWENENG WEST_SERINANE,25.19951548113084,-24.18969812658127,Botswana,NOx,0.06311427364616348,220
0474,BOTSWANA_KWENENG_KWENENG WEST_SESUNG,24.920484389582054,-24.098764991625394,Botswana,NOx,0.04168422266889936,220
0475,BOTSWANA_KWENENG_KWENENG WEST_SORILATHOLO,25.06367528301778,-23.48111009752001,Botswana,NOx,0.4551378148068208,220
0476,BOTSWANA_KWENENG_KWENENG WEST_TAKATOKWANE,24.333986142124967,-23.897263235861104,Botswana,NOx,3.3972207336018605,220
0477,BOTSWANA_KWENENG_KWENENG WEST_THEBEPHATSHWA,25.33911813426609,-24.229770927348877,Botswana,NOx,0.43120188998441966,220
0478,BOTSWANA_KWENENG_KWENENG WEST_TSETSENG,23.346608409362428,-23.556625874898454,Botswana,NOx,0,220
0479,BOTSWANA_KWENENG_KWENENG WEST_TSWAANE,23.844303310573697,-23.677953470418096,Botswana,NOx,1.1212243808084568,220
0480,BOTSWANA_LOBATSE_LOBATSE_LOBATSE,25.680222039240462,-25.21156716052995,Botswana,NOx,7.752368690959136,220
0481,BOTSWANA_NORTH EAST_NORTH EAST_BOTALAOTE,27.23593919430158,-20.74011790617292,Botswana,NOx,0,220
0482,BOTSWANA_NORTH EAST_NORTH EAST_BUTALE,27.676071500645865,-20.656116388620305,Botswana,NOx,0.07937877008868639,220
0483,BOTSWANA_NORTH EAST_NORTH EAST_DITLADI,27.593853189898606,-21.357392846398774,Botswana,NOx,8.457949710448784,220
0484,BOTSWANA_NORTH EAST_NORTH EAST_GAMBULE,27.39900708699297,-20.563127167228444,Botswana,NOx,0,220
0485,BOTSWANA_NORTH EAST_NORTH EAST_GULUBANE,27.31358281638026,-20.901873558761327,Botswana,NOx,0.35514663887159514,220
0486,BOTSWANA_NORTH EAST_NORTH EAST_GUNGWE,27.38271596277986,-20.484327285782342,Botswana,NOx,0.022484532291803177,220
0487,BOTSWANA_NORTH EAST_NORTH EAST_HASKINS FARM,27.53856707842432,-20.942088468645853,Botswana,NOx,0.9844270086627115,220
0488,BOTSWANA_NORTH EAST_NORTH EAST_JACKALAS 1,27.70190501415433,-20.551898920198756,Botswana,NOx,0.3463341693461629,220
0489,BOTSWANA_NORTH EAST_NORTH EAST_JACKALAS 2,27.684263288454705,-20.943529822684937,Botswana,NOx,0.019979247478820062,220
0490,BOTSWANA_NORTH EAST_NORTH EAST_JOHANNES KACHEJOHN,27.416370017173527,-21.032990996945774,Botswana,NOx,14.008491178631536,220
0491,BOTSWANA_NORTH EAST_NORTH EAST_KALAKAMATI,27.325085093746505,-20.616599567778596,Botswana,NOx,0,220
0492,BOTSWANA_NORTH EAST_NORTH EAST_KGARI,27.62095491247424,-20.59772226024511,Botswana,NOx,0.030849628508193158,220
0493,BOTSWANA_NORTH EAST_NORTH EAST_LETSHOLATHEBE,27.42289424926035,-20.718374886141437,Botswana,NOx,0.9594479966341453,220
0494,BOTSWANA_NORTH EAST_NORTH EAST_MABUDZANE,27.65030964853915,-20.906207513366976,Botswana,NOx,0.00617750100496381,220
0495,BOTSWANA_NORTH EAST_NORTH EAST_MAKALENG,27.285094240822392,-20.79040562603129,Botswana,NOx,0.018200988398983146,220
0496,BOTSWANA_NORTH EAST_NORTH EAST_MAMBO,27.339806500913884,-20.78191758239405,Botswana,NOx,0,220
0497,BOTSWANA_NORTH EAST_NORTH EAST_MAPOKA,27.583403081931646,-20.534321559571424,Botswana,NOx,0.06555541484523396,220
0498,BOTSWANA_NORTH EAST_NORTH EAST_MASINGWANENG,27.31796380391279,-20.837868143226277,Botswana,NOx,0.019255742366215196,220
0499,BOTSWANA_NORTH EAST_NORTH EAST_MASUKWANE,27.54938882946871,-20.590964331617293,Botswana,NOx,0,220
0500,BOTSWANA_NORTH EAST_NORTH EAST_MASUNGA,27.434400286669504,-20.627325508955153,Botswana,NOx,0.7516158696737555,220
0501,BOTSWANA_NORTH EAST_NORTH EAST_MATENGE,27.243163563094196,-20.824890359812834,Botswana,NOx,0.046036434301827925,220
0502,BOTSWANA_NORTH EAST_NORTH EAST_MATSHELAGABEDI,27.625910201894996,-21.12872037207013,Botswana,NOx,19.650143944988773,220
0503,BOTSWANA_NORTH EAST_NORTH EAST_MATSILOJE,27.79748603303526,-21.272615331495285,Botswana,NOx,57.13034578512181,220
0504,BOTSWANA_NORTH EAST_NORTH EAST_MBALAMBI,27.339335713407475,-20.51403109309788,Botswana,NOx,0.10315042223379244,220
0505,BOTSWANA_NORTH EAST_NORTH EAST_MOROKA,27.64533883665974,-20.526246843989444,Botswana,NOx,0.14008913755279692,220
0506,BOTSWANA_NORTH EAST_NORTH EAST_MOSOJANE,27.510648322475955,-20.605682710993673,Botswana,NOx,0.3810561783956911,220
0507,BOTSWANA_NORTH EAST_NORTH EAST_MOWANA,27.63647955779588,-20.777830273205144,Botswana,NOx,0.08475576888417803,220
0508,BOTSWANA_NORTH EAST_NORTH EAST_MULAMBAKWENA,27.46594067350093,-20.57301251814986,Botswana,NOx,0.11570994107298871,220
0509,BOTSWANA_NORTH EAST_NORTH EAST_NLAKHWANE,27.517632990383536,-20.518539158214796,Botswana,NOx,0.10007730262402212,220
0510,BOTSWANA_NORTH EAST_NORTH EAST_PATAYAMATEBELE,27.737992823316166,-21.4643350004061,Botswana,NOx,0.6495618525486119,220
0511,BOTSWANA_NORTH EAST_NORTH EAST_POLE,27.574132779023316,-20.610493660531436,Botswana,NOx,0.0028223828930592125,220
0512,BOTSWANA_NORTH EAST_NORTH EAST_RAMOKGWEBANA,27.662924110656288,-20.583729469679355,Botswana,NOx,0.07212908109285945,220
0513,BOTSWANA_NORTH EAST_NORTH EAST_SECHELE,27.38485539651099,-20.797350422844442,Botswana,NOx,0,220
0514,BOTSWANA_NORTH EAST_NORTH EAST_SEKAKANGWE,27.324905899544337,-20.566292847964146,Botswana,NOx,0,220
0515,BOTSWANA_NORTH EAST_NORTH EAST_SENYAWE,27.6781087349486,-20.734971000867784,Botswana,NOx,0.3546835371904798,220
0516,BOTSWANA_NORTH EAST_NORTH EAST_SHASHE BRIDGE,27.441314891279994,-21.258844535487142,Botswana,NOx,9.485665982008983,220
0517,BOTSWANA_NORTH EAST_NORTH EAST_SIVIYA,27.69697685871457,-20.82969467830003,Botswana,NOx,0.14743601010020999,220
0518,BOTSWANA_NORTH EAST_NORTH EAST_TATI SIDING,27.46845579652601,-21.26452617148856,Botswana,NOx,1.2107269748094815,220
0519,BOTSWANA_NORTH EAST_NORTH EAST_THEMASHANGA,27.55069700154272,-20.72636426785868,Botswana,NOx,1.0187086115867043,220
0520,BOTSWANA_NORTH EAST_NORTH EAST_TOTENG,27.270345176482714,-20.719997560519936,Botswana,NOx,0,220
0521,BOTSWANA_NORTH EAST_NORTH EAST_TSAMAYA,27.65197854641795,-20.83445747757975,Botswana,NOx,4.161857063641097e-5,220
0522,BOTSWANA_NORTH EAST_NORTH EAST_TSHESEBE,27.60488659969322,-20.718620239818698,Botswana,NOx,0.07020588358293281,220
0523,BOTSWANA_NORTH EAST_NORTH EAST_VUKWI,27.38708622858749,-20.607139935771677,Botswana,NOx,0.05195822050030969,220
0524,BOTSWANA_NORTH EAST_NORTH EAST_ZWENSHAMBE,27.448183551665426,-20.504176199278817,Botswana,NOx,0.2785440818328202,220
0525,BOTSWANA_NORTH WEST_NGAMILAND DELTA_NGAMILAND DELTA,22.960336814344046,-19.43828751092393,Botswana,NOx,11.643507836450937,220
0526,BOTSWANA_NORTH WEST_NGAMILAND EAST_BODIBENG,22.600564390842983,-20.54248828687454,Botswana,NOx,0.6929634989303872,220
0527,BOTSWANA_NORTH WEST_NGAMILAND EAST_BOTLHATLOGO,22.726763405990695,-20.74674723011069,Botswana,NOx,3.9609512453729794,220
0528,BOTSWANA_NORTH WEST_NGAMILAND EAST_CHANOGA,23.67422168898431,-20.16363542170472,Botswana,NOx,0.09349225197399501,220
0529,BOTSWANA_NORTH WEST_NGAMILAND EAST_HABU,22.399450144071537,-19.835986974771608,Botswana,NOx,0.22422529821239737,220
0530,BOTSWANA_NORTH WEST_NGAMILAND EAST_KARENG,22.300472651793307,-20.754601900098116,Botswana,NOx,2.7888021314128584,220
0531,BOTSWANA_NORTH WEST_NGAMILAND EAST_KGAKGE/MAKAKUNG,22.500435832111794,-20.540049424101177,Botswana,NOx,0.2770423639222554,220
0532,BOTSWANA_NORTH WEST_NGAMILAND EAST_KOMANA,23.23556501767629,-20.197324460737033,Botswana,NOx,0.061163293865680604,220
0533,BOTSWANA_NORTH WEST_NGAMILAND EAST_MABABE,23.997011922196286,-19.182027762406623,Botswana,NOx,0.07796884829910698,220
0534,BOTSWANA_NORTH WEST_NGAMILAND EAST_MAKALAMABEDI,23.41521287773188,-20.67081042197008,Botswana,NOx,72.65458491858311,220
0535,BOTSWANA_NORTH WEST_NGAMILAND EAST_MATLAPANA,23.546036955690333,-19.921555467159827,Botswana,NOx,2.3286364157086594,220
0536,BOTSWANA_NORTH WEST_NGAMILAND EAST_MATSAUDI/SAKAPNAE,23.675283205409393,-19.806194245710948,Botswana,NOx,0.37972827312700524,220
0537,BOTSWANA_NORTH WEST_NGAMILAND EAST_MAUN,24.199903111118402,-19.619553541252102,Botswana,NOx,80.29901378269355,220
0538,BOTSWANA_NORTH WEST_NGAMILAND EAST_PHUDUHUDU,24.645957266286953,-20.051304523225582,Botswana,NOx,7.849649511320122,220
0539,BOTSWANA_NORTH WEST_NGAMILAND EAST_SANKUYO,23.881724902731463,-19.421659901868495,Botswana,NOx,0.3282047803369823,220
0540,BOTSWANA_NORTH WEST_NGAMILAND EAST_SEHITHWA,22.677793302639653,-20.237066774603015,Botswana,NOx,8.166341657552373,220
0541,BOTSWANA_NORTH WEST_NGAMILAND EAST_SEMBOYO,22.27649485221952,-20.354376077745215,Botswana,NOx,2.393925568927428,220
0542,BOTSWANA_NORTH WEST_NGAMILAND EAST_SHOROBE,23.712796248799126,-19.11296691544541,Botswana,NOx,20.9709354550904,220
0543,BOTSWANA_NORTH WEST_NGAMILAND EAST_TOTENG,22.999306808598018,-20.32082005396448,Botswana,NOx,55.02419723194953,220
0544,BOTSWANA_NORTH WEST_NGAMILAND EAST_TSAO,22.28659245098526,-20.02090488822863,Botswana,NOx,4.2581521638467175,220
0545,BOTSWANA_NORTH WEST_NGAMILAND WEST_BEETSHA,22.953920477145694,-18.380166226946653,Botswana,NOx,10.144532021361933,220
0546,BOTSWANA_NORTH WEST_NGAMILAND WEST_CHUKUMUCHU,21.598703917965935,-18.74824397962615,Botswana,NOx,3.533158807190415,220
0547,BOTSWANA_NORTH WEST_NGAMILAND WEST_ERETSHA,22.86584821151028,-18.79052805025673,Botswana,NOx,0.13582474310875453,220
0548,BOTSWANA_NORTH WEST_NGAMILAND WEST_ETSHA 1,22.224044369783737,-19.242642574470672,Botswana,NOx,3.545376102664289,220
0549,BOTSWANA_NORTH WEST_NGAMILAND WEST_ETSHA 13,22.229743070714033,-19.017116669937373,Botswana,NOx,1.0018316815705652,220
0550,BOTSWANA_NORTH WEST_NGAMILAND WEST_ETSHA 6,22.229066360329956,-19.108258691269373,Botswana,NOx,1.2397598655395703,220
0551,BOTSWANA_NORTH WEST_NGAMILAND WEST_GANI,21.444696927418082,-18.405419080628068,Botswana,NOx,1.0383794051220478,220
0552,BOTSWANA_NORTH WEST_NGAMILAND WEST_GONUTSUGA,22.59253926092765,-18.87801840211525,Botswana,NOx,0.8377695712900953,220
0553,BOTSWANA_NORTH WEST_NGAMILAND WEST_GUDINGWA,22.905784262247845,-18.563529796191204,Botswana,NOx,0,220
0554,BOTSWANA_NORTH WEST_NGAMILAND WEST_GUMARE,22.131570836874936,-19.394550571792966,Botswana,NOx,4.019722040813807,220
0555,BOTSWANA_NORTH WEST_NGAMILAND WEST_IKOGA,22.218249775302052,-18.888300198172978,Botswana,NOx,1.098107671123844,220
0556,BOTSWANA_NORTH WEST_NGAMILAND WEST_KAJAJA,21.992248859877353,-18.703015404036154,Botswana,NOx,0.20626451071036697,220
0557,BOTSWANA_NORTH WEST_NGAMILAND WEST_KAUXWHI,21.93273566781973,-18.270501890330234,Botswana,NOx,1.0897320198800091,220
0558,BOTSWANA_NORTH WEST_NGAMILAND WEST_MOGOMOTHO,22.252300749707768,-18.492510662073524,Botswana,NOx,0.7238453264300027,220
0559,BOTSWANA_NORTH WEST_NGAMILAND WEST_MOHEMBO EAST,21.802957716080922,-18.266524959816728,Botswana,NOx,0.1808752050910618,220
0560,BOTSWANA_NORTH WEST_NGAMILAND WEST_MOHEMBO WEST,21.66725143544976,-18.312119665836942,Botswana,NOx,0.38052175572961755,220
0561,BOTSWANA_NORTH WEST_NGAMILAND WEST_MOKGACHA,22.28535493171085,-18.701773297683296,Botswana,NOx,0.12449044089801334,220
0562,BOTSWANA_NORTH WEST_NGAMILAND WEST_NGARANGE,22.04454772324353,-18.490470871633665,Botswana,NOx,0.01534167442081733,220
0563,BOTSWANA_NORTH WEST_NGAMILAND WEST_NOKANENG,22.21151988099178,-19.64313399653268,Botswana,NOx,2.0023701509188045,220
0564,BOTSWANA_NORTH WEST_NGAMILAND WEST_NXAMASERE,21.95986197574487,-18.61796345462013,Botswana,NOx,0.29169705715529104,220
0565,BOTSWANA_NORTH WEST_NGAMILAND WEST_NXAUNXAU,21.351524290127983,-18.90359537023587,Botswana,NOx,5.606175591287817,220
0566,BOTSWANA_NORTH WEST_NGAMILAND WEST_QANGWA,21.56450523279803,-19.49744243797423,Botswana,NOx,6.414177001221481,220
0567,BOTSWANA_NORTH WEST_NGAMILAND WEST_SAMOCHEMA,21.807530849136374,-18.491110966045003,Botswana,NOx,0.3462649624907221,220
0568,BOTSWANA_NORTH WEST_NGAMILAND WEST_SEKONDOMBORO,22.116154551020507,-18.31395834682349,Botswana,NOx,0.4203367299688762,220
0569,BOTSWANA_NORTH WEST_NGAMILAND WEST_SEPOPA,22.058884839789098,-18.787426270755017,Botswana,NOx,1.473313316443715,220
0570,BOTSWANA_NORTH WEST_NGAMILAND WEST_SERONGA,22.432137134077763,-18.68657047380979,Botswana,NOx,0.8588067968191977,220
0571,BOTSWANA_NORTH WEST_NGAMILAND WEST_SHAKAWE,21.734262044931864,-18.42525466967516,Botswana,NOx,1.7619075231478774,220
0572,BOTSWANA_NORTH WEST_NGAMILAND WEST_TUBU,22.343676013963407,-19.42290273539071,Botswana,NOx,0.8653336645586035,220
0573,BOTSWANA_NORTH WEST_NGAMILAND WEST_XAKAO,21.89184146965982,-18.35122741006872,Botswana,NOx,1.5736468459408277,220
0574,BOTSWANA_NORTH WEST_NGAMILAND WEST_XAXA,21.481474650920102,-20.367126109392327,Botswana,NOx,7.1361276053230265,220
0575,BOTSWANA_NORTH WEST_NGAMILAND WEST_XHAUGA,21.8600876919785,-18.555460050065392,Botswana,NOx,0.5591747041686336,220
0576,BOTSWANA_ORAPA_ORAPA_ORAPA,25.3996206036354,-21.263370671233456,Botswana,NOx,28.50921229221137,220
0577,BOTSWANA_SELIBE PHIKWE_SELIBE PHIKWE_SELIBE PHIKWE,27.837207638783738,-21.958685691075345,Botswana,NOx,151.63479254326168,220
0578,BOTSWANA_SOUTH EAST_SOUTH EAST_DOORN LAAGTE,25.651786031535003,-25.28255683886919,Botswana,NOx,25.864729594748336,220
0579,BOTSWANA_SOUTH EAST_SOUTH EAST_HILDAVALE,25.616656741956373,-25.403085615302597,Botswana,NOx,4.020955016960533,220
0580,BOTSWANA_SOUTH EAST_SOUTH EAST_LOBATSE ESTATES,25.699833727272946,-25.141969237065187,Botswana,NOx,9.46189962715761,220
0581,BOTSWANA_SOUTH EAST_SOUTH EAST_MOGOBANE,25.702998989332475,-24.943145974483425,Botswana,NOx,0.5261360579356031,220
0582,BOTSWANA_SOUTH EAST_SOUTH EAST_OTSE,25.756324039083623,-25.045000276937234,Botswana,NOx,17.059001218386395,220
0583,BOTSWANA_SOUTH EAST_SOUTH EAST_RAMOTSWA,25.829789056966593,-24.901951101856636,Botswana,NOx,38.977742027926325,220
0584,BOTSWANA_SOUTH EAST_SOUTH EAST_RAMOTSWA STATION/TAUNG,25.770154438973417,-24.815461657589147,Botswana,NOx,0,220
0585,BOTSWANA_SOUTH EAST_SOUTH EAST_TLOKWENG,26.035546995861406,-24.647763400719953,Botswana,NOx,80.28482193347944,220
0586,BOTSWANA_SOUTHERN_BAROLONG_BETHEL,25.523180210457173,-25.455324991549087,Botswana,NOx,0.23653955534158266,220
0587,BOTSWANA_SOUTHERN_BAROLONG_BOROBADILEPE,25.45763854772069,-25.624399960180156,Botswana,NOx,0.17121274692511312,220
0588,BOTSWANA_SOUTHERN_BAROLONG_DIGAWANA,25.554337853260883,-25.336847733509767,Botswana,NOx,0.1597705317352062,220
0589,BOTSWANA_SOUTHERN_BAROLONG_DIKHUKHUNG,24.885447065593745,-25.800063981646993,Botswana,NOx,0.03370512023856395,220
0590,BOTSWANA_SOUTHERN_BAROLONG_DINATSHANA,25.561032468363326,-25.459552008174736,Botswana,NOx,0.4121602165648665,220
0591,BOTSWANA_SOUTHERN_BAROLONG_DITLHARAPA,25.26534775604463,-25.74503088773403,Botswana,NOx,4.097415459991904,220
0592,BOTSWANA_SOUTHERN_BAROLONG_GAMAJALELA,25.422867167043186,-25.383535663638526,Botswana,NOx,0.47864089358723383,220
0593,BOTSWANA_SOUTHERN_BAROLONG_GATHWANE,25.50825122582933,-25.39225799661276,Botswana,NOx,0.0866818260337145,220
0594,BOTSWANA_SOUTHERN_BAROLONG_GOOD HOPE,25.425540411603592,-25.474044252271263,Botswana,NOx,1.9503559069875915,220
0595,BOTSWANA_SOUTHERN_BAROLONG_HEBRON,25.41118276541949,-25.696194884502404,Botswana,NOx,0.13635389814668536,220
0596,BOTSWANA_SOUTHERN_BAROLONG_KANGWE,25.079061936844482,-25.406209192834304,Botswana,NOx,0,220
0597,BOTSWANA_SOUTHERN_BAROLONG_KGORO,25.486735775180065,-25.453486474188907,Botswana,NOx,1.1446645741597175,220
0598,BOTSWANA_SOUTHERN_BAROLONG_LEJWANA,25.53432726709042,-25.415801471703258,Botswana,NOx,0.14993338384196742,220
0599,BOTSWANA_SOUTHERN_BAROLONG_LEPORUNG,25.008424229579703,-25.672891074188268,Botswana,NOx,1.9685902801468589,220
0600,BOTSWANA_SOUTHERN_BAROLONG_LOGAGANE,25.398915672259538,-25.611615010488325,Botswana,NOx,0.16179112610673035,220
0601,BOTSWANA_SOUTHERN_BAROLONG_LORWANA,25.502074910123632,-25.286996269753118,Botswana,NOx,0.14408668609801892,220
0602,BOTSWANA_SOUTHERN_BAROLONG_MABULE,24.537508834961965,-25.73692702390118,Botswana,NOx,5.714778183080049,220
0603,BOTSWANA_SOUTHERN_BAROLONG_MADINGWANA,25.481261650329014,-25.576730325456165,Botswana,NOx,2.7804574039400394,220
0604,BOTSWANA_SOUTHERN_BAROLONG_MAGORIAPITSE,25.27977947866948,-25.44137079227652,Botswana,NOx,0.021417888638928597,220
0605,BOTSWANA_SOUTHERN_BAROLONG_MAKOKWE,25.475459011292934,-25.66937770824479,Botswana,NOx,0.1388983053097247,220
0606,BOTSWANA_SOUTHERN_BAROLONG_MALOKAGANYANE,25.488358562103294,-25.502299871489452,Botswana,NOx,1.1694686212847116,220
0607,BOTSWANA_SOUTHERN_BAROLONG_MAROJANE,25.341901927422153,-25.73640142441916,Botswana,NOx,0.20803832779530199,220
0608,BOTSWANA_SOUTHERN_BAROLONG_METLOBO,25.124348846065626,-25.39253659443453,Botswana,NOx,0.07984057181497876,220
0609,BOTSWANA_SOUTHERN_BAROLONG_METLOJANE,25.375187769980677,-25.552026515853672,Botswana,NOx,0.66059535203043,220
0610,BOTSWANA_SOUTHERN_BAROLONG_MMAKGORI,24.800927173643334,-25.789358109184104,Botswana,NOx,1.0408988892573268,220
0611,BOTSWANA_SOUTHERN_BAROLONG_MMATHETHE,25.16245192169214,-25.332818623646105,Botswana,NOx,1.629279026674007,220
0612,BOTSWANA_SOUTHERN_BAROLONG_MOGOJOGOJO,25.472237292279374,-25.35846674488226,Botswana,NOx,2.3730341731742675,220
0613,BOTSWANA_SOUTHERN_BAROLONG_MOGWALALE,25.3618167413177,-25.480322244471722,Botswana,NOx,0.2727480965356402,220
0614,BOTSWANA_SOUTHERN_BAROLONG_MOKATAKO,25.21324864044004,-25.72876284416883,Botswana,NOx,4.2222811208320294,220
0615,BOTSWANA_SOUTHERN_BAROLONG_MOKGOMANE,25.21261347084866,-25.518245387897743,Botswana,NOx,0.9763182376819336,220
0616,BOTSWANA_SOUTHERN_BAROLONG_MOLETE,25.308791189937068,-25.671084438672697,Botswana,NOx,1.1307608145305947,220
0617,BOTSWANA_SOUTHERN_BAROLONG_MOTSENTSHE,25.375726428046065,-25.379180264622413,Botswana,NOx,0.02138947716684966,220
0618,BOTSWANA_SOUTHERN_BAROLONG_MUSI,25.08334912114238,-25.688286393457503,Botswana,NOx,5.481428198679173,220
0619,BOTSWANA_SOUTHERN_BAROLONG_NGWATSAU,25.540401017789634,-25.553981728114238,Botswana,NOx,0.30254275846107775,220
0620,BOTSWANA_SOUTHERN_BAROLONG_PAPATLO,25.50091785142035,-25.65156471920203,Botswana,NOx,2.646132665253149,220
0621,BOTSWANA_SOUTHERN_BAROLONG_PHIHITSHWANE,25.414087664638753,-25.65601906088651,Botswana,NOx,0.11177458638131144,220
0622,BOTSWANA_SOUTHERN_BAROLONG_PITSANA-POTOKWE,25.556580548078113,-25.50806204359263,Botswana,NOx,0.41099822784790385,220
0623,BOTSWANA_SOUTHERN_BAROLONG_PITSANE SIDING,25.604250914974468,-25.46943866185844,Botswana,NOx,0.8249440798213801,220
0624,BOTSWANA_SOUTHERN_BAROLONG_PITSHANE MOLOPO,25.119834443362777,-25.744597939849236,Botswana,NOx,0.24153167796904126,220
0625,BOTSWANA_SOUTHERN_BAROLONG_RAKHUNA,25.578883997684116,-25.582003199973805,Botswana,NOx,3.6055444740521807,220
0626,BOTSWANA_SOUTHERN_BAROLONG_RAMATLABAMA,25.542590563183143,-25.63663806930263,Botswana,NOx,10.297994530715782,220
0627,BOTSWANA_SOUTHERN_BAROLONG_SEDIBENG,25.16840936243981,-25.684656039464652,Botswana,NOx,0,220
0628,BOTSWANA_SOUTHERN_BAROLONG_SEKHUTLANE,24.48911487032339,-25.502857393367236,Botswana,NOx,1.1380317955272146,220
0629,BOTSWANA_SOUTHERN_BAROLONG_SHEEP FARM,25.494453226915,-25.550549245917278,Botswana,NOx,0.1082932973164135,220
0630,BOTSWANA_SOUTHERN_BAROLONG_TLHARESELEELE,25.6164016549552,-25.509947342258574,Botswana,NOx,3.3245440351892706,220
0631,BOTSWANA_SOUTHERN_BAROLONG_TSHIDILAMOLOMO,24.680774921105087,-25.71938467094859,Botswana,NOx,5.260611130422024,220
0632,BOTSWANA_SOUTHERN_BAROLONG_TSWAANENG,24.874731933296207,-25.481179488719636,Botswana,NOx,2.886884149374208,220
0633,BOTSWANA_SOUTHERN_BAROLONG_TSWAGARE/LOTHOJE/LOKALANA,25.32250003507171,-25.608673297419177,Botswana,NOx,0.12250940208873093,220
0634,BOTSWANA_SOUTHERN_BAROLONG_TSWANYANENG,25.26289447863055,-25.6163734983762,Botswana,NOx,0.1464319955929415,220
0635,BOTSWANA_SOUTHERN_NGWAKETSE WEST_ITHOLOKE,23.49754475940133,-24.802379212464427,Botswana,NOx,0,220
0636,BOTSWANA_SOUTHERN_NGWAKETSE WEST_KANAKU,23.536569449983585,-24.292118077279163,Botswana,NOx,0.6640043646010316,220
0637,BOTSWANA_SOUTHERN_NGWAKETSE WEST_KENG,23.822720476728055,-24.619062130504958,Botswana,NOx,0.08644268512608723,220
0638,BOTSWANA_SOUTHERN_NGWAKETSE WEST_KHAKHEA,23.52876267152225,-24.69951083983683,Botswana,NOx,10.966031515927991,220
0639,BOTSWANA_SOUTHERN_NGWAKETSE WEST_KHONKHWA,23.935454133373597,-24.46012666914766,Botswana,NOx,0.024242901687932972,220
0640,BOTSWANA_SOUTHERN_NGWAKETSE WEST_KOKONG,23.160513999524845,-24.39362019765512,Botswana,NOx,0.32043653038084424,220
0641,BOTSWANA_SOUTHERN_NGWAKETSE WEST_KUTUKU,23.639126946319017,-24.680282589894166,Botswana,NOx,0.49638666925707137,220
0642,BOTSWANA_SOUTHERN_NGWAKETSE WEST_MABUTSANE,23.705699680104797,-24.459760111464377,Botswana,NOx,0.01257806592446294,220
0643,BOTSWANA_SOUTHERN_NGWAKETSE WEST_MAHOTSHWANE,24.187255352450173,-24.38400662626752,Botswana,NOx,0.3861389275515815,220
0644,BOTSWANA_SOUTHERN_NGWAKETSE WEST_MORWAMOSU,23.122520350392715,-24.153854514850522,Botswana,NOx,0,220
0645,BOTSWANA_SOUTHERN_NGWAKETSE WEST_SEKOMA,24.02445527149606,-24.579997053681147,Botswana,NOx,0,220
0646,BOTSWANA_SOUTHERN_SOUTHERN_BETESANKWE,24.8941696227703,-24.719678878206103,Botswana,NOx,0.016560215585735952,220
0647,BOTSWANA_SOUTHERN_SOUTHERN_DIABO,25.365536715216567,-25.223190983743812,Botswana,NOx,1.19616099379102,220
0648,BOTSWANA_SOUTHERN_SOUTHERN_DIPOTSANA,25.446292913079866,-25.212561776849554,Botswana,NOx,0.5840945529272205,220
0649,BOTSWANA_SOUTHERN_SOUTHERN_GASITA,24.82803541943543,-25.124083589756676,Botswana,NOx,2.753224618836059,220
0650,BOTSWANA_SOUTHERN_SOUTHERN_KANYE,25.289267678855026,-25.048656911618565,Botswana,NOx,112.86465022271189,220
0651,BOTSWANA_SOUTHERN_SOUTHERN_KGOMOKASITWA,25.611112091400322,-25.09686032652438,Botswana,NOx,13.711165881598268,220
0652,BOTSWANA_SOUTHERN_SOUTHERN_LEFOKO,24.690111852640598,-24.8470312136434,Botswana,NOx,0,220
0653,BOTSWANA_SOUTHERN_SOUTHERN_LEKGOLOBOTLO,25.61615083241098,-24.885307065481175,Botswana,NOx,6.701463445408,220
0654,BOTSWANA_SOUTHERN_SOUTHERN_LOROLWANA,24.459937704580028,-25.2535967198016,Botswana,NOx,1.2016377834152507,220
0655,BOTSWANA_SOUTHERN_SOUTHERN_LOTLHAKANE,25.435707774440367,-25.08771727806122,Botswana,NOx,0.48830441173436984,220
0656,BOTSWANA_SOUTHERN_SOUTHERN_LOTLHAKANE WEST,25.295371153997333,-24.784930431562245,Botswana,NOx,2.245718111289777,220
0657,BOTSWANA_SOUTHERN_SOUTHERN_MAGOTLHWANE,25.599116726068054,-24.996853415826646,Botswana,NOx,0.06122724807984588,220
0658,BOTSWANA_SOUTHERN_SOUTHERN_MANYANA,25.574934396304805,-24.79875482887838,Botswana,NOx,62.36286380525883,220
0659,BOTSWANA_SOUTHERN_SOUTHERN_MAOKANE,24.649164740852807,-24.988391174828216,Botswana,NOx,1.7971070578250354,220
0660,BOTSWANA_SOUTHERN_SOUTHERN_MOGONYE,25.67857687556797,-24.842313481878563,Botswana,NOx,0.05727426366197252,220
0661,BOTSWANA_SOUTHERN_SOUTHERN_MOKHOMBA,24.61814743618357,-24.716762968297573,Botswana,NOx,0.8627617273623077,220
0662,BOTSWANA_SOUTHERN_SOUTHERN_MOLAPOWABOJANG,25.545639385657516,-25.196418239986023,Botswana,NOx,87.30842141621177,220
0663,BOTSWANA_SOUTHERN_SOUTHERN_MOSHANENG,25.208444254843652,-24.835326824262772,Botswana,NOx,196.93622620369754,220
0664,BOTSWANA_SOUTHERN_SOUTHERN_MOSHUPA,25.42468410253782,-24.802239950537796,Botswana,NOx,59.636048030916996,220
0665,BOTSWANA_SOUTHERN_SOUTHERN_NTLHANTLHE,25.563433827213757,-25.01680148927233,Botswana,NOx,1.2241589078005986,220
0666,BOTSWANA_SOUTHERN_SOUTHERN_PITSENG,25.026961859107356,-24.671811025950742,Botswana,NOx,0.3058536576841725,220
0667,BOTSWANA_SOUTHERN_SOUTHERN_RALEKGETHO,25.153983418889254,-24.651674927885143,Botswana,NOx,0.027931086386885136,220
0668,BOTSWANA_SOUTHERN_SOUTHERN_RANAKA,25.49210433716248,-24.953019551938723,Botswana,NOx,4.061109165162932,220
0669,BOTSWANA_SOUTHERN_SOUTHERN_SEGWAGWA,25.154246986825143,-25.20370107041337,Botswana,NOx,2.8033491843392224,220
0670,BOTSWANA_SOUTHERN_SOUTHERN_SEHERELELA,24.966365412487043,-24.85255338029039,Botswana,NOx,0.1361164473194742,220
0671,BOTSWANA_SOUTHERN_SOUTHERN_SELOKOLELA,25.08619153157018,-25.012511421456256,Botswana,NOx,45.32513056963285,220
0672,BOTSWANA_SOUTHERN_SOUTHERN_SEMANE,24.36060822534978,-24.5838070534333,Botswana,NOx,1.257297920976654,220
0673,BOTSWANA_SOUTHERN_SOUTHERN_SESE,24.837457767676273,-24.623316789302145,Botswana,NOx,3.1006986949118778,220
0674,BOTSWANA_SOUTHERN_SOUTHERN_SESUNG,25.085978537640155,-24.864295490303654,Botswana,NOx,21.117806798655472,220
0675,BOTSWANA_SOUTHERN_SOUTHERN_TLHANKANE,24.375461207737164,-24.957536336747538,Botswana,NOx,4.345669978675485,220
0676,BOTSWANA_SOUTHERN_SOUTHERN_TSHWAANE,25.273421585713766,-24.711641454327474,Botswana,NOx,0.03226456593802868,220
0677,BOTSWANA_SOUTHERN_SOUTHERN_TSONYANE,24.813855404067922,-24.839469110997843,Botswana,NOx,0.01098970472353668,220
0678,BOTSWANA_SOWA TOWN_SOWA TOWN_SOWA TOWN,26.205474065724133,-20.525655504329873,Botswana,NOx,4.88753860619054,220
0679,BOTSWANA_NORTH WEST_NGAMILAND WEST_TOBERE,22.060761168763293,-18.2277220943275,Botswana,NOx,0.15805485866897245,220
0680,BOTSWANA_FRANCISTOWN_FRANCISTOWN_FRANCISTOWN,27.527173396825056,-21.15325240029203,Botswana,NOx,14.630592815345079,220
0681,BOTSWANA_NORTH EAST_NORTH EAST_MATOPI,27.91115579539766,-21.482192037003767,Botswana,NOx,0.7760118658070813,220
0682,LESOTHO_BEREA,27.916543179927878,-29.196133964322186,Lesotho,NOx,467.16841545992605,220
0683,LESOTHO_BUTHA-BUTHE,28.564194113912084,-28.80291309387294,Lesotho,NOx,139.11684953743426,220
0684,LESOTHO_LERIBE,28.262778693785734,-29.01811492119529,Lesotho,NOx,598.3986421684062,220
0685,LESOTHO_MAFETENG,27.392581280663943,-29.77903326417238,Lesotho,NOx,278.8812077177546,220
0686,LESOTHO_MASERU,27.818410139103523,-29.578708001027245,Lesotho,NOx,664.5726145746108,220
0687,LESOTHO_MOHALE'S HOEK,27.81073935217726,-30.05732318594617,Lesotho,NOx,338.0998330632047,220
0688,LESOTHO_MOKHOTLONG,29.030965902973236,-29.219387585513097,Lesotho,NOx,192.81124937392002,220
0689,LESOTHO_QACHA'S NEK,28.738216934631595,-29.96551989191937,Lesotho,NOx,108.57069940346435,220
0690,LESOTHO_QUTHING,27.985860217458367,-30.361098997601832,Lesotho,NOx,175.97914873338286,220
0691,LESOTHO_THABA-TSEKA,28.592501565541635,-29.5707462455164,Lesotho,NOx,200.90412179816153,220
0692,MALAWI_SOUTHERN REGION_BALAKA,35.057010057789576,-15.035291543995603,Malawi,NOx,155.89427663719033,220
0693,MALAWI_SOUTHERN REGION_BLANTYRE,34.93215294645478,-15.653521070374605,Malawi,NOx,341.94040362872704,220
0694,MALAWI_SOUTHERN REGION_BLANTYRE CITY,35.049846087604834,-15.788155512634402,Malawi,NOx,379.0237013573681,220
0695,MALAWI_SOUTHERN REGION_CHIKWAWA,34.70903689510921,-16.164449793446956,Malawi,NOx,235.46045298280512,220
0696,MALAWI_SOUTHERN REGION_CHIRADZULU,35.21401510212054,-15.74504273186666,Malawi,NOx,181.9788202717069,220
0697,MALAWI_NORTHERN REGION_CHITIPA,33.50075697273936,-9.961323805951439,Malawi,NOx,53.567885309884154,220
0698,MALAWI_CENTRAL REGION_DEDZA,34.227546152785884,-14.26666414364504,Malawi,NOx,369.92574963264093,220
0699,MALAWI_CENTRAL REGION_DOWA,33.7882007354298,-13.568943726666408,Malawi,NOx,342.91387301861573,220
0700,MALAWI_NORTHERN REGION_KARONGA,33.88286491576761,-10.085628973711133,Malawi,NOx,304.7782353948257,220
0701,MALAWI_CENTRAL REGION_KASUNGU,33.38591920703449,-12.984592469489298,Malawi,NOx,187.4199424283126,220
0702,MALAWI_LAKE MALAWI_LAKE MALAWI,34.46342187078561,-11.83542210532386,Malawi,NOx,525.6264879763162,220
0703,MALAWI_NORTHERN REGION_LIKOMA,34.68456952933858,-12.049251389757782,Malawi,NOx,4.314580075616849,220
0704,MALAWI_CENTRAL REGION_LILONGWE,33.678384246204125,-14.02262845680586,Malawi,NOx,1233.1722481532577,220
0705,MALAWI_CENTRAL REGION_LILONGWE CITY,33.777412227707195,-13.917060812410538,Malawi,NOx,1024.6567952871997,220
0706,MALAWI_SOUTHERN REGION_MACHINGA,35.56621569203856,-14.939743540640112,Malawi,NOx,274.5930907407291,220
0707,MALAWI_SOUTHERN REGION_MANGOCHI,35.188672100825926,-14.35745673152043,Malawi,NOx,351.114274130575,220
0708,MALAWI_CENTRAL REGION_MCHINJI,33.05678421553763,-13.693204790303813,Malawi,NOx,270.455043643682,220
0709,MALAWI_SOUTHERN REGION_MULANJE,35.510601697456494,-15.937493088013312,Malawi,NOx,386.96899870831015,220
0710,MALAWI_SOUTHERN REGION_MWANZA,34.51070572282828,-15.653498412560298,Malawi,NOx,65.27149344311107,220
0711,MALAWI_NORTHERN REGION_MZIMBA,33.63357391674036,-11.774662616846621,Malawi,NOx,279.39995674903565,220
0712,MALAWI_NORTHERN REGION_MZUZU CITY,34.008085621399474,-11.435033136665401,Malawi,NOx,229.4371873531672,220
0713,MALAWI_SOUTHERN REGION_NENO,34.69511229098429,-15.46855436212607,Malawi,NOx,45.13763304211881,220
0714,MALAWI_NORTHERN REGION_NKHATA BAY,34.04155946420708,-11.671744085857307,Malawi,NOx,122.89094130394147,220
0715,MALAWI_CENTRAL REGION_NKHOTAKOTA,34.088412143637505,-12.844968406478515,Malawi,NOx,99.93691025560106,220
0716,MALAWI_SOUTHERN REGION_NSANJE,35.14256102689594,-16.7458281066411,Malawi,NOx,91.92180072002171,220
0717,MALAWI_CENTRAL REGION_NTCHEU,34.7150219403129,-14.809209532624244,Malawi,NOx,261.8709582903563,220
0718,MALAWI_CENTRAL REGION_NTCHISI,33.919435671123914,-13.29729664939087,Malawi,NOx,75.30365781891534,220
0719,MALAWI_SOUTHERN REGION_PHALOMBE,35.69103908738544,-15.669471595035306,Malawi,NOx,151.39958634759543,220
0720,MALAWI_NORTHERN REGION_RUMPHI,33.814313155835954,-10.819178535708213,Malawi,NOx,32.65720429271803,220
0721,MALAWI_CENTRAL REGION_SALIMA,34.38342391012431,-13.73580013859686,Malawi,NOx,145.6067370480976,220
0722,MALAWI_SOUTHERN REGION_THYOLO,35.14513805866104,-16.103293124272504,Malawi,NOx,402.53481312485025,220
0723,MALAWI_SOUTHERN REGION_ZOMBA,35.431720494463534,-15.397965042950926,Malawi,NOx,417.2807693310509,220
0724,MALAWI_SOUTHERN REGION_ZOMBA CITY,35.32958370864326,-15.389038184748701,Malawi,NOx,17.072011350878114,220
0725,MOZAMBIQUE_CABO DELGADO_ANCUABE_ANCUABE SEDE,39.81250434636672,-12.844910167361961,Mozambique,NOx,11.903828620907447,220
0726,MOZAMBIQUE_CABO DELGADO_ANCUABE_METORO,39.98166464165771,-13.123343510947777,Mozambique,NOx,13.469825908524273,220
0727,MOZAMBIQUE_CABO DELGADO_ANCUABE_MEZA,39.50077329178648,-13.002763030349875,Mozambique,NOx,11.53878461704281,220
0728,MOZAMBIQUE_CABO DELGADO_BALAMA_BALAMA SEDE,38.60741548928212,-13.34632445565341,Mozambique,NOx,26.35327885524886,220
0729,MOZAMBIQUE_CABO DELGADO_BALAMA_IMPIRE,38.234370073203195,-13.36117175168839,Mozambique,NOx,5.2492001386627765,220
0730,MOZAMBIQUE_CABO DELGADO_BALAMA_KWEKWE,38.360631459274536,-13.719258906829074,Mozambique,NOx,11.491586316247092,220
0731,MOZAMBIQUE_CABO DELGADO_BALAMA_MAVALA,38.44433858639442,-13.127397794272662,Mozambique,NOx,5.359490435063663,220
0732,MOZAMBIQUE_CABO DELGADO_CHIÚRE_CHIÚRE SEDE,39.78631866112433,-13.334949533035196,Mozambique,NOx,28.54086064200679,220
0733,MOZAMBIQUE_CABO DELGADO_CHIÚRE_CHIÚRE VELHO,39.9790643743911,-13.394863091288299,Mozambique,NOx,10.831435088085232,220
0734,MOZAMBIQUE_CABO DELGADO_CHIÚRE_KATAPUA,39.46036839056145,-13.3790182741743,Mozambique,NOx,8.225997660401397,220
0735,MOZAMBIQUE_CABO DELGADO_CHIÚRE_MAZEZE,40.26493789258037,-13.394800824078336,Mozambique,NOx,10.319147721524793,220
0736,MOZAMBIQUE_CABO DELGADO_CHIÚRE_NAMOGELIA,39.39543595419324,-13.73917584393942,Mozambique,NOx,11.38714187891162,220
0737,MOZAMBIQUE_CABO DELGADO_CHIÚRE_OCUA,39.70712436514545,-13.593555718225081,Mozambique,NOx,16.05390674406344,220
0738,MOZAMBIQUE_CABO DELGADO_CIDADE DE PEMBA_CIDADE DE PEMBA,40.5301137002399,-13.01866368362211,Mozambique,NOx,30.52751852084375,220
0739,MOZAMBIQUE_CABO DELGADO_IBO_IBO SEDE,40.58966660854597,-12.296434453801252,Mozambique,NOx,0.5194837634581485,220
0740,MOZAMBIQUE_CABO DELGADO_IBO_QUIRIMBA,40.60573197983616,-12.436621233927731,Mozambique,NOx,0.020243217444275093,220
0741,MOZAMBIQUE_CABO DELGADO_MACOMIA_CHAI,40.09939009869904,-11.975771317344952,Mozambique,NOx,7.081838911628954,220
0742,MOZAMBIQUE_CABO DELGADO_MACOMIA_MACOMIA SEDE,40.00966789367028,-12.185963022208076,Mozambique,NOx,19.381108467695007,220
0743,MOZAMBIQUE_CABO DELGADO_MACOMIA_MUCOJO,40.39838621183561,-12.132019600349427,Mozambique,NOx,14.231522751311756,220
0744,MOZAMBIQUE_CABO DELGADO_MACOMIA_QUITERAJO,40.34862064188187,-11.822248596272631,Mozambique,NOx,1.6477839796429512,220
0745,MOZAMBIQUE_CABO DELGADO_MECÚFI_MECÚFI SEDE,40.44136931989843,-13.314578160765912,Mozambique,NOx,8.565314701078496,220
0746,MOZAMBIQUE_CABO DELGADO_MECÚFI_MURREBUE,40.3621691122671,-13.16275211422268,Mozambique,NOx,10.673815642003932,220
0747,MOZAMBIQUE_CABO DELGADO_MELUCO_MELUCO,39.519008675605434,-12.466558692060977,Mozambique,NOx,5.3338983338808434,220
0748,MOZAMBIQUE_CABO DELGADO_MELUCO_MUAGUIDE,40.006147820712634,-12.461564676608146,Mozambique,NOx,3.1131322171660702,220
0749,MOZAMBIQUE_CABO DELGADO_METUGE_METUGE SEDE,40.30149518097115,-12.881110538127228,Mozambique,NOx,23.57000973637082,220
0750,MOZAMBIQUE_CABO DELGADO_METUGE_MIEZE,40.42604082004337,-13.071741165509883,Mozambique,NOx,10.685282577502601,220
0751,MOZAMBIQUE_CABO DELGADO_MOCÍMBOA DA PRAIA_DIACA,39.98361766384434,-11.50941232931751,Mozambique,NOx,8.234633618124894,220
0752,MOZAMBIQUE_CABO DELGADO_MOCÍMBOA DA PRAIA_MBAU,40.264033426645,-11.61011746355292,Mozambique,NOx,3.5956290688395462,220
0753,MOZAMBIQUE_CABO DELGADO_MOCÍMBOA DA PRAIA_MOCÍMBOA DA PRAIA SEDE,40.221732345886586,-11.307039802847223,Mozambique,NOx,17.772607138529846,220
0754,MOZAMBIQUE_CABO DELGADO_MONTEPUEZ_CIDADE DE MONTEPUEZ,39.10336496633387,-13.155831594194833,Mozambique,NOx,48.03729636902905,220
0755,MOZAMBIQUE_CABO DELGADO_MONTEPUEZ_MAPUPULO,38.85156103637511,-13.296202609826898,Mozambique,NOx,5.508301123066902,220
0756,MOZAMBIQUE_CABO DELGADO_MONTEPUEZ_MIRATE SEDE,38.889102884866084,-12.858163088415916,Mozambique,NOx,18.636378408154396,220
0757,MOZAMBIQUE_CABO DELGADO_MONTEPUEZ_NAIROTO,38.60846512227451,-12.417692004693443,Mozambique,NOx,10.860474580577774,220
0758,MOZAMBIQUE_CABO DELGADO_MONTEPUEZ_NAMANHUMBIR,39.29331479236441,-13.03734599713965,Mozambique,NOx,7.1959838441314075,220
0759,MOZAMBIQUE_CABO DELGADO_MUEDA_CHAPA,39.300669871212165,-11.933739048526274,Mozambique,NOx,7.205802856970231,220
0760,MOZAMBIQUE_CABO DELGADO_MUEDA_IMBUHO SEDE,39.71330104587685,-11.492354708140468,Mozambique,NOx,3.2101059616744205,220
0761,MOZAMBIQUE_CABO DELGADO_MUEDA_MUEDA SEDE,39.52799055312814,-11.615490131717069,Mozambique,NOx,19.082558095851226,220
0762,MOZAMBIQUE_CABO DELGADO_MUEDA_NAMAUA,39.71135420448486,-11.578853289361819,Mozambique,NOx,3.5852823321383585,220
0763,MOZAMBIQUE_CABO DELGADO_MUEDA_NEGOMANO,38.68032202017621,-11.555132251334204,Mozambique,NOx,1.9625528372132033,220
0764,MOZAMBIQUE_CABO DELGADO_MUEDA_NGAPA,39.181606916419916,-11.449464889051079,Mozambique,NOx,9.005365042849673,220
0765,MOZAMBIQUE_CABO DELGADO_MUIDUMBE_CHITUNDA,40.02853944757149,-11.798368536527168,Mozambique,NOx,5.131278503013668,220
0766,MOZAMBIQUE_CABO DELGADO_MUIDUMBE_MITEDA,39.64749196598334,-11.853991027094667,Mozambique,NOx,5.9802620710662495,220
0767,MOZAMBIQUE_CABO DELGADO_MUIDUMBE_MUAMBULA,39.82130488684691,-11.841747965829844,Mozambique,NOx,10.369886941913489,220
0768,MOZAMBIQUE_CABO DELGADO_NAMUNO_HUCULA,39.027034408935776,-13.807982550463722,Mozambique,NOx,7.449379571542125,220
0769,MOZAMBIQUE_CABO DELGADO_NAMUNO_MACHOCA,38.9025822941826,-13.935861472055366,Mozambique,NOx,12.143304819085348,220
0770,MOZAMBIQUE_CABO DELGADO_NAMUNO_MELOCO,39.16332069555443,-13.55331427408594,Mozambique,NOx,9.464231456115579,220
0771,MOZAMBIQUE_CABO DELGADO_NAMUNO_NAMUNO SEDE,38.85042931380327,-13.571803785012364,Mozambique,NOx,36.74267157815117,220
0772,MOZAMBIQUE_CABO DELGADO_NAMUNO_NCUMPE,38.64829661522544,-13.759868655212932,Mozambique,NOx,12.714374121124768,220
0773,MOZAMBIQUE_CABO DELGADO_NAMUNO_PAPAI,38.6112488248292,-14.01083078018285,Mozambique,NOx,7.010757244609564,220
0774,MOZAMBIQUE_CABO DELGADO_NANGADE_NANGADE SEDE,39.74862940454096,-11.083424646974992,Mozambique,NOx,20.28260186282207,220
0775,MOZAMBIQUE_CABO DELGADO_NANGADE_NTAMBA,39.82186362422569,-11.298924991205137,Mozambique,NOx,8.240345116065676,220
0776,MOZAMBIQUE_CABO DELGADO_PALMA_OLUMBE,40.37722280987631,-11.022253412786055,Mozambique,NOx,2.0943663845606904,220
0777,MOZAMBIQUE_CABO DELGADO_PALMA_PALMA,40.36752760276333,-10.781107321340652,Mozambique,NOx,6.829202961843609,220
0778,MOZAMBIQUE_CABO DELGADO_PALMA_PUNDANHAR,40.10649223692033,-10.915061660907167,Mozambique,NOx,2.1820894005189095,220
0779,MOZAMBIQUE_CABO DELGADO_PALMA_QUIONGA,40.39832171975072,-10.605188674355327,Mozambique,NOx,1.1812649754524638,220
0780,MOZAMBIQUE_CABO DELGADO_QUISSANGA_BILIBIZA,40.19654727032573,-12.609796456581662,Mozambique,NOx,7.790851148045639,220
0781,MOZAMBIQUE_CABO DELGADO_QUISSANGA_MAHATE,40.41919917872787,-12.635885089192568,Mozambique,NOx,22.47646462489446,220
0782,MOZAMBIQUE_CIDADE DE MAPUTO_KAMAVOTA_KAMAVOTA,32.634886641291224,-25.887693649593853,Mozambique,NOx,85.51119411501425,220
0783,MOZAMBIQUE_CIDADE DE MAPUTO_KAMAXAKENI_KAMAXAKENI,32.59944117113847,-25.93889789948286,Mozambique,NOx,23.064842570093173,220
0784,MOZAMBIQUE_CIDADE DE MAPUTO_KAMPFUMO_KAMPFUMO,32.586471991569425,-25.963392495074924,Mozambique,NOx,37.652381139962216,220
0785,MOZAMBIQUE_CIDADE DE MAPUTO_KAMUBUKWANA_KAMUBUKWANA,32.57628175378329,-25.874280175789803,Mozambique,NOx,113.90220917740396,220
0786,MOZAMBIQUE_CIDADE DE MAPUTO_KANYAKA_KANYAKA,32.942792473320985,-26.019854398302623,Mozambique,NOx,0.20355084316759336,220
0787,MOZAMBIQUE_CIDADE DE MAPUTO_KATEMBE_KATEMBE,32.52558521951384,-26.037162300504427,Mozambique,NOx,65.98876820099017,220
0788,MOZAMBIQUE_CIDADE DE MAPUTO_NHLAMANKULO_NHLAMANKULO,32.557337897173184,-25.94748667088231,Mozambique,NOx,34.48631331854221,220
0789,MOZAMBIQUE_GAZA_BILENE_BILENE MACIA,33.12170844184735,-25.024345210123222,Mozambique,NOx,6.29115297838807,220
0790,MOZAMBIQUE_GAZA_BILENE_INCAIA,33.23389036385305,-24.972836632632283,Mozambique,NOx,1.2893327588588648,220
0791,MOZAMBIQUE_GAZA_BILENE_MACUANE,33.16406911785151,-25.13186013405694,Mozambique,NOx,8.104646160966336,220
0792,MOZAMBIQUE_GAZA_BILENE_MAZIVILA,33.15771945972996,-24.86159285857413,Mozambique,NOx,4.5866697125267235,220
0793,MOZAMBIQUE_GAZA_BILENE_MESSANO,32.994801638202425,-24.9711864826169,Mozambique,NOx,8.324898046128984,220
0794,MOZAMBIQUE_GAZA_BILENE_PRAIA DE BILENE,33.22313026811176,-25.268200454905273,Mozambique,NOx,2.668171356487632,220
0795,MOZAMBIQUE_GAZA_CHIBUTO_ALTO CHANGANE,33.532709699998925,-24.239915954397528,Mozambique,NOx,9.770154522043125,220
0796,MOZAMBIQUE_GAZA_CHIBUTO_CHANGANINE,33.78000414254853,-24.004994838500192,Mozambique,NOx,3.0600943509657306,220
0797,MOZAMBIQUE_GAZA_CHIBUTO_CIDADE DE CHIBUTO,33.56479821975432,-24.69579299181594,Mozambique,NOx,5.36309417834274,220
0798,MOZAMBIQUE_GAZA_CHIBUTO_GODIDE,33.664009941160174,-24.59383871859075,Mozambique,NOx,15.898227524702888,220
0799,MOZAMBIQUE_GAZA_CHIBUTO_MALEHICE,33.68651799951757,-24.751639870695612,Mozambique,NOx,21.220119204042533,220
0800,MOZAMBIQUE_GAZA_CHIBUTO_TCHAIMITE,33.40913649471263,-24.6274038248804,Mozambique,NOx,12.72479853745636,220
0801,MOZAMBIQUE_GAZA_CHICUALACUALA_EDUARDO MONDLANE,31.90283759038279,-22.22474259936432,Mozambique,NOx,3.4857869645228474,220
0802,MOZAMBIQUE_GAZA_CHICUALACUALA_PAFURI,31.839636613036426,-23.062508500431342,Mozambique,NOx,13.905260417007096,220
0803,MOZAMBIQUE_GAZA_CHIGUBO_CHIGUBO SEDE,33.28327880896511,-22.55689162530508,Mozambique,NOx,7.531702458745415,220
0804,MOZAMBIQUE_GAZA_CHIGUBO_NDINDIZA,33.50940091714144,-23.45508178763895,Mozambique,NOx,9.646559707916827,220
0805,MOZAMBIQUE_GAZA_CHÓKWÈ_CIDADE DE CHÓKWÈ,32.99328794506374,-24.520208875238563,Mozambique,NOx,5.111036898496187,220
0806,MOZAMBIQUE_GAZA_CHÓKWÈ_LIONDE,33.00856327547369,-24.690277510511446,Mozambique,NOx,23.04542357171778,220
0807,MOZAMBIQUE_GAZA_CHÓKWÈ_MACARRETANE,32.75708982206706,-24.37253995423536,Mozambique,NOx,17.599083286335574,220
0808,MOZAMBIQUE_GAZA_CHÓKWÈ_XILEMBENE,33.295896826319776,-24.740800650273098,Mozambique,NOx,14.039806282618976,220
0809,MOZAMBIQUE_GAZA_CHONGOENE_CHONGOENE,33.78738388968989,-24.95612324064541,Mozambique,NOx,38.92174699902596,220
0810,MOZAMBIQUE_GAZA_CHONGOENE_MAZUCANE,33.94816589854456,-24.75078182642919,Mozambique,NOx,4.904371927987034,220
0811,MOZAMBIQUE_GAZA_CHONGOENE_NGUZENE,33.99174761296743,-24.900424006547656,Mozambique,NOx,1.4802313049040334,220
0812,MOZAMBIQUE_GAZA_CIDADE DE XAI-XAI_CIDADE DE XAI-XAI,33.6238199287902,-25.095602356591947,Mozambique,NOx,36.022836127191866,220
0813,MOZAMBIQUE_GAZA_GUIJÁ_CHIVONGOENE,33.233221538781685,-24.47489638296496,Mozambique,NOx,13.845127079080052,220
0814,MOZAMBIQUE_GAZA_GUIJÁ_MUBANGOENE,32.95074527970149,-24.269396021473018,Mozambique,NOx,13.85410454111783,220
0815,MOZAMBIQUE_GAZA_GUIJÁ_NALAZI,33.17804626234287,-24.007141668394482,Mozambique,NOx,3.727868346757598,220
0816,MOZAMBIQUE_GAZA_GUIJÁ_VILA CANIÇADO,33.03370976279583,-24.496154209395023,Mozambique,NOx,1.7141611299242634,220
0817,MOZAMBIQUE_GAZA_LIMPOPO_CHICUMBANE,33.50935105307376,-24.95521044053618,Mozambique,NOx,26.843148470342502,220
0818,MOZAMBIQUE_GAZA_LIMPOPO_CHISSANO,33.36595620036372,-24.917774625636756,Mozambique,NOx,11.257220880569514,220
0819,MOZAMBIQUE_GAZA_LIMPOPO_ZONGOENE,33.41768385775187,-25.15027705143945,Mozambique,NOx,3.3942637332322665,220
0820,MOZAMBIQUE_GAZA_MABALANE_COMBOMUNE,32.76206527578445,-23.248510922783225,Mozambique,NOx,11.047247844227703,220
0821,MOZAMBIQUE_GAZA_MABALANE_MABALANE,32.830014386359615,-23.86472905225202,Mozambique,NOx,3.265143727027413,220
0822,MOZAMBIQUE_GAZA_MABALANE_NTLHAVENE,32.55611135942274,-23.700477308848008,Mozambique,NOx,5.343790249439801,220
0823,MOZAMBIQUE_GAZA_MANDLAKAZE_CHALALA,33.898816970795764,-24.62204362818058,Mozambique,NOx,2.8157976809404093,220
0824,MOZAMBIQUE_GAZA_MANDLAKAZE_CHIBONDZANE,34.20993805079586,-24.617150832754188,Mozambique,NOx,6.1521464296147,220
0825,MOZAMBIQUE_GAZA_MANDLAKAZE_CHIDENGUELE,34.222185883991216,-24.846464693637397,Mozambique,NOx,7.408633439137167,220
0826,MOZAMBIQUE_GAZA_MANDLAKAZE_MACUACUA,33.93793587874184,-24.351855632078426,Mozambique,NOx,5.630958491477538,220
0827,MOZAMBIQUE_GAZA_MANDLAKAZE_MANDLAKAZE SEDE,33.881734623458314,-24.717454952391012,Mozambique,NOx,3.8982796490819593,220
0828,MOZAMBIQUE_GAZA_MAPAI_MACHAILA,32.8972792264127,-22.46107250918086,Mozambique,NOx,7.998788305246021,220
0829,MOZAMBIQUE_GAZA_MAPAI_MAPAI,32.340153357812774,-22.66221263505515,Mozambique,NOx,19.183967302241665,220
0830,MOZAMBIQUE_GAZA_MASSANGENA_MASSANGENA,33.024968092166,-21.76228030255321,Mozambique,NOx,7.5955974768989,220
0831,MOZAMBIQUE_GAZA_MASSANGENA_MAVUE,32.44873445655671,-21.74455920732843,Mozambique,NOx,7.33078962766466,220
0832,MOZAMBIQUE_GAZA_MASSINGIR_MASSINGIR SEDE,32.14188192707758,-24.083427448323647,Mozambique,NOx,5.274252455151481,220
0833,MOZAMBIQUE_GAZA_MASSINGIR_MAVODZE,31.957192936094224,-23.682084241320673,Mozambique,NOx,4.435714306579983,220
0834,MOZAMBIQUE_GAZA_MASSINGIR_ZULO,32.44746940415907,-24.081905716979545,Mozambique,NOx,0.4882165160235709,220
0835,MOZAMBIQUE_INHAMBANE_CIDADE DA MAXIXE_CIDADE DA MAXIXE,35.30847837373539,-23.88280148067849,Mozambique,NOx,38.135759127281965,220
0836,MOZAMBIQUE_INHAMBANE_CIDADE DE INHAMBANE_CIDADE DE INHAMBANE,35.4669344326235,-23.887608905915176,Mozambique,NOx,14.87787484178544,220
0837,MOZAMBIQUE_INHAMBANE_FUNHALOURO_FUNHALOURO,34.40493526211412,-23.279005264339535,Mozambique,NOx,17.01774467078087,220
0838,MOZAMBIQUE_INHAMBANE_FUNHALOURO_TOME,34.123107711970896,-22.6492454413369,Mozambique,NOx,13.067753016049194,220
0839,MOZAMBIQUE_INHAMBANE_GOVURO_NOVA MAMBONE,34.91124864499755,-21.24838028736193,Mozambique,NOx,3.136770859163238,220
0840,MOZAMBIQUE_INHAMBANE_GOVURO_SAVE,34.50273875747384,-21.372352488268987,Mozambique,NOx,6.240830500331391,220
0841,MOZAMBIQUE_INHAMBANE_HOMOÍNE_HOMOÍNE SEDE,35.11348463085394,-23.979574815302524,Mozambique,NOx,39.9425491865861,220
0842,MOZAMBIQUE_INHAMBANE_HOMOÍNE_PEMBE,34.954010052320086,-23.75585650680714,Mozambique,NOx,5.0582492278843265,220
0843,MOZAMBIQUE_INHAMBANE_INHARRIME_INHARRIME SEDE,35.0629320946627,-24.377713765160113,Mozambique,NOx,26.912808244155453,220
0844,MOZAMBIQUE_INHAMBANE_INHARRIME_MUCUMBI,34.57231599403387,-24.417768147569834,Mozambique,NOx,5.129266621176476,220
0845,MOZAMBIQUE_INHAMBANE_INHASSORO_BAZARUTO,35.465173197521,-21.65725826320277,Mozambique,NOx,0.046034870228832944,220
0846,MOZAMBIQUE_INHAMBANE_INHASSORO_INHASSORO,34.84605588804438,-21.753052479230316,Mozambique,NOx,17.29942909109189,220
0847,MOZAMBIQUE_INHAMBANE_JANGAMO_CUMBANA,35.150833362602604,-24.21294386364807,Mozambique,NOx,12.59587049929883,220
0848,MOZAMBIQUE_INHAMBANE_JANGAMO_JANGAMO,35.3828405134123,-24.118279758970523,Mozambique,NOx,10.065374310687217,220
0849,MOZAMBIQUE_INHAMBANE_MABOTE_MABOTE,34.1237933010753,-22.071272031528167,Mozambique,NOx,9.231357896884763,220
0850,MOZAMBIQUE_INHAMBANE_MABOTE_ZIMANE,33.53428838953659,-22.259421319452596,Mozambique,NOx,9.156613718264333,220
0851,MOZAMBIQUE_INHAMBANE_MABOTE_ZINAVE,33.78047603814595,-21.630829138429963,Mozambique,NOx,8.929388215593667,220
0852,MOZAMBIQUE_INHAMBANE_MASSINGA_CHICOMO,34.91593880649871,-22.694580178891357,Mozambique,NOx,34.491123569027344,220
0853,MOZAMBIQUE_INHAMBANE_MASSINGA_MASSINGA,35.28967211538618,-23.208309768202906,Mozambique,NOx,49.313501253508605,220
0854,MOZAMBIQUE_INHAMBANE_MORRUMBENE_MOCODUENE,35.03823145580892,-23.43542902200303,Mozambique,NOx,20.0663316190358,220
0855,MOZAMBIQUE_INHAMBANE_MORRUMBENE_MORRUMBENE,35.31512127790291,-23.62003628600982,Mozambique,NOx,10.280891070367915,220
0856,MOZAMBIQUE_INHAMBANE_PANDA_MAWAYELA,34.116370299409866,-24.001901283449012,Mozambique,NOx,9.626945253594492,220
0857,MOZAMBIQUE_INHAMBANE_PANDA_PANDA,34.5701782475298,-24.112499270772535,Mozambique,NOx,23.04091518042086,220
0858,MOZAMBIQUE_INHAMBANE_PANDA_URRENE,34.644908571251904,-23.83766104214481,Mozambique,NOx,5.6661960913774845,220
0859,MOZAMBIQUE_INHAMBANE_VILANKULO_MAPINHANE,35.04533061414311,-22.371051282087183,Mozambique,NOx,46.308744780766574,220
0860,MOZAMBIQUE_INHAMBANE_VILANKULO_VILANKULO,35.3062246160536,-22.14744435743396,Mozambique,NOx,31.30632200384691,220
0861,MOZAMBIQUE_INHAMBANE_ZAVALA_QUISSICO,34.83275046669489,-24.629624369539606,Mozambique,NOx,14.776986186218364,220
0862,MOZAMBIQUE_INHAMBANE_ZAVALA_ZANDAMELA,34.4860299379439,-24.67609745657631,Mozambique,NOx,13.391680418919327,220
0863,MOZAMBIQUE_LAKE MALAWI_LAKE MALAWI_LAKE MALAWI,34.66958894981475,-12.465931949774122,Mozambique,NOx,8.866147451372735,220
0864,MOZAMBIQUE_MANICA_BÁRUÈ_CATANDICA,33.30152827468673,-18.240536298661056,Mozambique,NOx,51.7959778013953,220
0865,MOZAMBIQUE_MANICA_BÁRUÈ_CHOA,33.04569434614779,-18.064104442461606,Mozambique,NOx,7.645303184004098,220
0866,MOZAMBIQUE_MANICA_BÁRUÈ_NHAMPASSA,33.184551019135135,-17.597094490855643,Mozambique,NOx,8.161335319208554,220
0867,MOZAMBIQUE_MANICA_CIDADE DE CHIMOIO_CHIMOIO,33.45536740007841,-19.127720352606506,Mozambique,NOx,75.16814772849973,220
0868,MOZAMBIQUE_MANICA_GONDOLA_AMATONGAS,33.81580808058416,-19.088843340895576,Mozambique,NOx,17.43200000254514,220
0869,MOZAMBIQUE_MANICA_GONDOLA_CAFUMPE,33.73252675700257,-18.96598115326139,Mozambique,NOx,20.44959142447674,220
0870,MOZAMBIQUE_MANICA_GONDOLA_GONDOLA,33.66706225815283,-19.067556713895804,Mozambique,NOx,5.1499184175432235,220
0871,MOZAMBIQUE_MANICA_GONDOLA_INCHOPE,33.855910359091254,-19.34910726017252,Mozambique,NOx,16.0007974180002,220
0872,MOZAMBIQUE_MANICA_GURO_GURO SEDE,33.28735962339221,-17.287981286704778,Mozambique,NOx,3.2228987411284047,220
0873,MOZAMBIQUE_MANICA_GURO_MANDIE,33.67962216440644,-16.54401479200918,Mozambique,NOx,12.024730468092223,220
0874,MOZAMBIQUE_MANICA_GURO_MUNGARI,33.54831007111624,-17.10496669776008,Mozambique,NOx,11.493721242188624,220
0875,MOZAMBIQUE_MANICA_GURO_NHAMASSONGE,33.596453539786765,-16.77407345471343,Mozambique,NOx,10.84253488843725,220
0876,MOZAMBIQUE_MANICA_MACATE_MACATE SEDE,33.58000277986244,-19.400692718644812,Mozambique,NOx,27.107673331067392,220
0877,MOZAMBIQUE_MANICA_MACATE_ZEMBE,33.35412342370635,-19.22767890720999,Mozambique,NOx,17.14849105090512,220
0878,MOZAMBIQUE_MANICA_MACHAZE_CHITOBE,33.306459347363266,-20.88553205985008,Mozambique,NOx,40.648959329559986,220
0879,MOZAMBIQUE_MANICA_MACHAZE_SAVE,33.21143246815166,-21.301458761861632,Mozambique,NOx,22.552305722783988,220
0880,MOZAMBIQUE_MANICA_MACOSSA_MACOSSA SEDE,33.93258269449586,-17.783133366418287,Mozambique,NOx,15.398904734522363,220
0881,MOZAMBIQUE_MANICA_MACOSSA_NGUAWALA,33.639533569018866,-18.34411311077633,Mozambique,NOx,4.366335665567974,220
0882,MOZAMBIQUE_MANICA_MACOSSA_NHAMAGUA,33.51483956167798,-17.75456736936627,Mozambique,NOx,7.433813301954001,220
0883,MOZAMBIQUE_MANICA_MANICA_MACHIPANDA,32.85545139808637,-18.879904801552133,Mozambique,NOx,23.645378317755224,220
