census_id,geo_name,lon,lat,country,poll,emis,eff_height
0001,ANGOLA_BENGO_AMBRIZ,13.500573856748415,-7.941839245075118,Angola,BC,185.92264161091052,10
0002,ANGOLA_BENGO_BULA ATUMBA,14.820908751789867,-8.634475645495783,Angola,BC,144.44575863518563,10
0003,ANGOLA_BENGO_DANDE,13.841710609854086,-8.53534736049627,Angola,BC,562.2061717204856,10
0004,ANGOLA_BENGO_DEMBOS,14.552452662474186,-8.506656679922113,Angola,BC,133.8845013841779,10
0005,ANGOLA_BENGO_NAMBUANGONGO,14.25926486683566,-8.047643790272277,Angola,BC,511.26785426566175,10
0006,ANGOLA_BENGO_PANGO ALUQUÉM,14.467187741962098,-8.753291428515478,Angola,BC,46.762860361253175,10
0007,ANGOLA_BENGUELA_BAÍA FARTA,13.110895429150032,-13.169353899832894,Angola,BC,125.06965398443818,10
0008,ANGOLA_BENGUELA_BALOMBO,14.785534807000774,-12.362142938317604,Angola,BC,411.42731040772765,10
0009,ANGOLA_BENGUELA_BENGUELA,13.613234701433782,-12.750903810317325,Angola,BC,74.51305065767228,10
0010,ANGOLA_BENGUELA_BOCOIO,14.273806030010297,-12.337517465231237,Angola,BC,695.5701964718415,10
0011,ANGOLA_BENGUELA_CAIMBAMBO,13.925466200463916,-13.103370379840863,Angola,BC,131.30184922401665,10
0012,ANGOLA_BENGUELA_CATUMBELA,13.680172800346687,-12.477296385532492,Angola,BC,30.20892509269997,10
0013,ANGOLA_BENGUELA_CHONGOROI,13.804725364547245,-13.596741410412521,Angola,BC,218.68056817987878,10
0014,ANGOLA_BENGUELA_CUBAL,14.349577634106108,-13.16149142143734,Angola,BC,245.29285278685248,10
0015,ANGOLA_BENGUELA_GANDA,14.733920867955561,-13.122131963632688,Angola,BC,564.0220721534118,10
0016,ANGOLA_BENGUELA_LOBITO,13.886545783996153,-12.092395259332209,Angola,BC,142.1818017609895,10
0017,ANGOLA_BIÉ_ANDULO,16.463299708517784,-11.274658946317146,Angola,BC,1371.033771179089,10
0018,ANGOLA_BIÉ_CAMACUPA,17.780227977541617,-12.451681506672221,Angola,BC,985.5236138808731,10
0019,ANGOLA_BIÉ_CATABOLA,17.254341809340623,-12.147939255129183,Angola,BC,289.9090207326603,10
0020,ANGOLA_BIÉ_CHINGUAR,16.57220235885333,-12.562961032395926,Angola,BC,391.51526709095936,10
0021,ANGOLA_BIÉ_CHITEMBO,17.2256685420672,-13.4761375683222,Angola,BC,2009.9868953735631,10
0022,ANGOLA_BIÉ_CUEMBA,18.450876402365434,-11.812583973776919,Angola,BC,1322.3948367736134,10
0023,ANGOLA_BIÉ_CUITO,17.0195337801636,-12.539053407735349,Angola,BC,573.8798761221916,10
0024,ANGOLA_BIÉ_CUNHINGA,16.806485043535446,-11.988245606222938,Angola,BC,242.3231305706188,10
0025,ANGOLA_BIÉ_NHAREA,17.157724905821997,-11.308602978499657,Angola,BC,846.6914900013321,10
0026,ANGOLA_CABINDA_BELIZE,12.84464336058737,-4.605790961567085,Angola,BC,36.720802797409874,10
0027,ANGOLA_CABINDA_BUCO ZAU,12.545868870473262,-4.802124175234638,Angola,BC,27.412019879177894,10
0028,ANGOLA_CABINDA_CABINDA,12.36403326270615,-5.461872414729606,Angola,BC,116.73201555714635,10
0029,ANGOLA_CABINDA_CACONGO,12.242228043574034,-5.043712430446504,Angola,BC,30.440937559820753,10
0030,ANGOLA_KUANDO KUBANGO_CALAI,19.414268804995988,-17.367954683212766,Angola,BC,460.481561087245,10
0031,ANGOLA_KUANDO KUBANGO_CUANGAR,18.15299180710266,-17.054777832805367,Angola,BC,979.291351176935,10
0032,ANGOLA_KUANDO KUBANGO_CUCHI,16.962579756983985,-14.692891199511664,Angola,BC,1122.1430220993416,10
0033,ANGOLA_KUANDO KUBANGO_CUITO CUANAVALE,18.841355039845936,-14.950150376556852,Angola,BC,2243.583768169522,10
0034,ANGOLA_KUANDO KUBANGO_DIRICO,20.825162039879295,-17.52729673830151,Angola,BC,1313.0319133070682,10
0035,ANGOLA_KUANDO KUBANGO_MAVINGA,20.292091111981065,-16.124977275218903,Angola,BC,3621.3455102935513,10
0036,ANGOLA_KUANDO KUBANGO_MENONGUE,17.745373647024998,-15.225709939331868,Angola,BC,1973.9586670478068,10
0037,ANGOLA_KUANDO KUBANGO_NANCOVA,18.73240828489362,-16.388826303005242,Angola,BC,732.9557816286411,10
0038,ANGOLA_KUANDO KUBANGO_RIVUNGO,21.95105197046031,-16.860900758284263,Angola,BC,2110.9634466633256,10
0039,ANGOLA_KWANZA NORTE_AMBACA,15.509119051943488,-8.223269097816729,Angola,BC,417.0421631008023,10
0040,ANGOLA_KWANZA NORTE_BANGA,15.153253461606287,-8.689616530469744,Angola,BC,154.2294680312001,10
0041,ANGOLA_KWANZA NORTE_BOLONGONGO,15.113302487330705,-8.382132376680488,Angola,BC,153.9717667828741,10
0042,ANGOLA_KWANZA NORTE_CAMBAMBE,14.521816633134614,-9.433964278230446,Angola,BC,444.1091899794701,10
0043,ANGOLA_KWANZA NORTE_CAZENGO,14.779870946066733,-9.320031680889498,Angola,BC,240.02339140679794,10
0044,ANGOLA_KWANZA NORTE_GOLUNGO ALTO,14.666387710001,-9.076507922069805,Angola,BC,158.67993050163292,10
0045,ANGOLA_KWANZA NORTE_LUCALA,15.238258650636386,-9.139267281380702,Angola,BC,212.65074480045783,10
0046,ANGOLA_KWANZA NORTE_NGONGUEMBO,14.901663408090647,-8.902563767131948,Angola,BC,148.80992307301756,10
0047,ANGOLA_KWANZA NORTE_QUICULUNGO,15.319625776448795,-8.49002907643525,Angola,BC,39.44782016764927,10
0048,ANGOLA_KWANZA NORTE_SAMBA CAJÚ,15.494620704324683,-8.808515207926657,Angola,BC,446.213413409245,10
0049,ANGOLA_KWANZA SUL_AMBOIM,14.409446053756277,-10.888247311555114,Angola,BC,207.94580844296826,10
0050,ANGOLA_KWANZA SUL_CASSONGUE,14.969245996228281,-11.823486279155278,Angola,BC,651.5896212447134,10
0051,ANGOLA_KWANZA SUL_CELA,15.327509138494797,-11.286611386444985,Angola,BC,795.6000715673301,10
0052,ANGOLA_KWANZA SUL_CONDA,14.457113187835018,-11.173469665594153,Angola,BC,309.7444393263217,10
0053,ANGOLA_KWANZA SUL_EBO,14.756355439021709,-10.954311333786544,Angola,BC,392.5749043555615,10
0054,ANGOLA_KWANZA SUL_LIBOLO,14.990540118658812,-10.063463539441377,Angola,BC,852.890185373283,10
0055,ANGOLA_KWANZA SUL_MUSSENDE,15.978658982493396,-10.268786589120642,Angola,BC,2213.013913432476,10
0056,ANGOLA_KWANZA SUL_PORTO AMBOIM,13.942283729197893,-10.627805552833145,Angola,BC,192.77097227749863,10
0057,ANGOLA_KWANZA SUL_QUIBALA,15.335713103750756,-10.699008506951671,Angola,BC,1673.7344593985144,10
0058,ANGOLA_KWANZA SUL_QUILENDA,14.370237419617364,-10.524491857097443,Angola,BC,343.12908919776964,10
0059,ANGOLA_KWANZA SUL_SELES,14.50091627350989,-11.457587720793851,Angola,BC,482.819029606555,10
0060,ANGOLA_KWANZA SUL_SUMBE,14.04934311345206,-11.49811492361192,Angola,BC,248.86832184526537,10
0061,ANGOLA_CUNENE_CAHAMA,14.247669093888437,-16.41710354139286,Angola,BC,109.83032456756209,10
0062,ANGOLA_CUNENE_CUANHAMA,16.320547599774045,-16.48223334568777,Angola,BC,424.2074356086071,10
0063,ANGOLA_CUNENE_CUROCA,13.788175609536145,-16.932294476395295,Angola,BC,19.683147742912475,10
0064,ANGOLA_CUNENE_CUVELAI,16.136146428177735,-15.746368160393057,Angola,BC,773.3715136692211,10
0065,ANGOLA_CUNENE_NAMACUNDE,16.606272115792553,-17.074018548021083,Angola,BC,106.35475255098851,10
0066,ANGOLA_CUNENE_OMBADJA,14.941895100531925,-16.768959146811532,Angola,BC,71.08342269837028,10
0067,ANGOLA_HUAMBO_BAILUNDO,15.850466201739053,-11.950050465566608,Angola,BC,675.809026951773,10
0068,ANGOLA_HUAMBO_CAÁLA,15.572188198073116,-13.27102876067493,Angola,BC,271.4036341949862,10
0069,ANGOLA_HUAMBO_CACHIUNGO,16.319644201016246,-12.759421533499594,Angola,BC,240.50432163645743,10
0070,ANGOLA_HUAMBO_ECUNHA,15.49134958273524,-12.53401934231182,Angola,BC,145.38187298798528,10
0071,ANGOLA_HUAMBO_HUAMBO,15.79536569507517,-12.819324307871682,Angola,BC,300.2227501407224,10
0072,ANGOLA_HUAMBO_LONDUIMBALI,15.292015045757923,-12.235996591708586,Angola,BC,265.93365089988583,10
0073,ANGOLA_HUAMBO_LONGONJO,15.22279516795389,-13.084757821818668,Angola,BC,133.98674535036574,10
0074,ANGOLA_HUAMBO_MUNGO,16.20588037491343,-11.755072951814116,Angola,BC,300.41305358705705,10
0075,ANGOLA_HUAMBO_CHICALA CHOLOHANGA,16.092706109508978,-12.95985009260693,Angola,BC,345.3168646700541,10
0076,ANGOLA_HUAMBO_CHINJENJE,14.940107561316543,-12.818781665594054,Angola,BC,160.4328099744944,10
0077,ANGOLA_HUAMBO_UCUMA,15.15058241504692,-12.745033355569538,Angola,BC,138.3145296501916,10
0078,ANGOLA_HUÍLA_CACONDA,15.158416365277283,-13.778376463063532,Angola,BC,193.57749500726467,10
0079,ANGOLA_HUÍLA_CACULA,14.291948368736596,-14.437668897988177,Angola,BC,62.88164822456368,10
0080,ANGOLA_HUÍLA_CALUQUEMBE,14.553605248971426,-13.943434135545042,Angola,BC,114.07914233960037,10
0081,ANGOLA_HUÍLA_CHIBIA,13.860963321337298,-15.220319449437994,Angola,BC,33.59732800454408,10
0082,ANGOLA_HUÍLA_CHICOMBA,15.019421703365952,-14.30430435864405,Angola,BC,58.97638582145135,10
0083,ANGOLA_HUÍLA_CHIPINDO,15.73591828652565,-13.88531948048917,Angola,BC,296.67491293157155,10
0084,ANGOLA_HUÍLA_CUVANGO,16.318716983084595,-14.2140670585581,Angola,BC,817.1749121912076,10
0085,ANGOLA_HUÍLA_GAMBOS,14.0555441801658,-15.836380299367216,Angola,BC,76.95044101625318,10
0086,ANGOLA_HUÍLA_HUMPATA,13.37340825793292,-15.07711619840059,Angola,BC,34.505568002352355,10
0087,ANGOLA_HUÍLA_JAMBA,15.84246469273556,-14.813136321719922,Angola,BC,886.9646129746911,10
0088,ANGOLA_HUÍLA_LUBANGO,13.74650625251509,-14.782265363665282,Angola,BC,102.97826195221988,10
0089,ANGOLA_HUÍLA_MATALA,15.162569522619448,-15.264035381319765,Angola,BC,605.8083484276176,10
0090,ANGOLA_HUÍLA_QUILENGUES,13.926712495367244,-14.10284606537322,Angola,BC,104.21721396092275,10
0091,ANGOLA_HUÍLA_QUIPUNGO,14.584346812183863,-15.11197852346331,Angola,BC,397.3513840897672,10
0092,ANGOLA_LUANDA_BELAS,13.174021473379,-9.08837444152561,Angola,BC,200.9343306805481,10
0093,ANGOLA_LUANDA_CACUACO,13.451339905381309,-8.81991357363531,Angola,BC,86.35880167021769,10
0094,ANGOLA_LUANDA_CAZENGA,13.300213504677842,-8.82313810517484,Angola,BC,13.356680802813186,10
0095,ANGOLA_LUANDA_ICOLO E BENGO,13.862681054977354,-9.152861347234415,Angola,BC,218.187164837416,10
0096,ANGOLA_LUANDA_LUANDA,13.252264930379923,-8.85095461326464,Angola,BC,56.57127459810621,10
0097,ANGOLA_LUANDA_QUISSAMA,13.850629524262196,-9.831116523016574,Angola,BC,583.2811561328023,10
0098,ANGOLA_LUANDA_VIANA,13.400581493461187,-9.003465052028048,Angola,BC,160.07936722260624,10
0099,ANGOLA_LUNDA NORTE_CAMBULO,21.496387269915466,-7.900107950052335,Angola,BC,1746.7793449591497,10
0100,ANGOLA_LUNDA NORTE_CAPENDA CAMULEMBA,18.86907773627034,-9.675389036317052,Angola,BC,1212.4768802012036,10
0101,ANGOLA_LUNDA NORTE_CAUNGULA,18.82247560938972,-8.340339422591542,Angola,BC,1766.9395539445572,10
0102,ANGOLA_LUNDA NORTE_CHITATO,20.86681232898085,-7.553523750605493,Angola,BC,1031.5666094127312,10
0103,ANGOLA_LUNDA NORTE_CUANGO,18.060888555716936,-8.601096909504287,Angola,BC,1189.2695450212977,10
0104,ANGOLA_LUNDA NORTE_CUILO,19.68851489115215,-8.128052490802382,Angola,BC,2881.815337279657,10
0105,ANGOLA_LUNDA NORTE_LÓVUA,20.13536631533787,-7.292391189166928,Angola,BC,2143.8657151593693,10
0106,ANGOLA_LUNDA NORTE_LUBALO,19.297321892350976,-9.188561260843436,Angola,BC,1976.3724666110243,10
0107,ANGOLA_LUNDA NORTE_LUCAPA,20.47673092828323,-8.42331409755646,Angola,BC,4026.7043837333704,10
0108,ANGOLA_LUNDA NORTE_XÁ-MUTEBA,17.85122654394,-9.277995251698849,Angola,BC,2141.150020084593,10
0109,ANGOLA_LUNDA SUL_CACOLO,19.178913301145815,-10.547328172202947,Angola,BC,1795.4079166497545,10
0110,ANGOLA_LUNDA SUL_DALA,20.352238837105524,-10.92405164265005,Angola,BC,2104.2194716541503,10
0111,ANGOLA_LUNDA SUL_MUCONDA,21.424847286291374,-10.154651759138405,Angola,BC,5340.314634133026,10
0112,ANGOLA_LUNDA SUL_SAURIMO,20.688380679682755,-9.477233643283244,Angola,BC,4082.885527450365,10
0113,ANGOLA_MALANJE_CACUSO,15.62849098111707,-9.490292469411429,Angola,BC,1166.0734180049917,10
0114,ANGOLA_MALANJE_CAHOMBO,16.66605389643875,-8.647102372057851,Angola,BC,713.3180453423191,10
0115,ANGOLA_MALANJE_CALANDULA,16.005245178381916,-8.695990183498342,Angola,BC,973.8835724113092,10
0116,ANGOLA_MALANJE_CAMBUNDI-CATEMBO,17.84709415122643,-10.125145503710968,Angola,BC,2033.533120737731,10
0117,ANGOLA_MALANJE_CANGANDALA,16.683252748189343,-9.952367021939013,Angola,BC,975.2039262700094,10
0118,ANGOLA_MALANJE_CUNDA-DIA-BAZE,17.352728983670623,-8.66125398022735,Angola,BC,583.513382330409,10
0119,ANGOLA_MALANJE_KIWABA NZOJI,16.45736622164412,-9.037971690115318,Angola,BC,353.0403231419164,10
0120,ANGOLA_MALANJE_LUQUEMBO,17.384986684590697,-10.792874181396483,Angola,BC,1859.5742014779316,10
0121,ANGOLA_MALANJE_MALANJE,16.35498305019854,-9.482474776585153,Angola,BC,354.22291815089994,10
0122,ANGOLA_MALANJE_MARIMBA,17.11151213033175,-8.168436018156713,Angola,BC,827.3135637114598,10
0123,ANGOLA_MALANJE_MASSANGO,16.599614024908476,-7.763456075510212,Angola,BC,1152.9571099821528,10
0124,ANGOLA_MALANJE_MUCARI,16.919365558811112,-9.481804740501817,Angola,BC,279.52157294164863,10
0125,ANGOLA_MALANJE_QUELA,17.28820754724371,-9.318539247011007,Angola,BC,849.2645890861968,10
0126,ANGOLA_MALANJE_QUIRIMA,18.2681837365498,-11.068909718662896,Angola,BC,1352.722982160337,10
0127,ANGOLA_MOXICO_ALTO ZAMBEZE,22.90799374709926,-12.209683357686718,Angola,BC,7021.847982260727,10
0128,ANGOLA_MOXICO_BUNDAS,21.31907325919521,-14.210473217747047,Angola,BC,3639.5099839475834,10
0129,ANGOLA_MOXICO_CAMANONGUE,20.234534061632754,-11.408959591622152,Angola,BC,252.05552149155886,10
0130,ANGOLA_MOXICO_CAMEIA,21.26339460023485,-11.838370789228382,Angola,BC,861.8920986372277,10
0131,ANGOLA_MOXICO_LÉUA,20.575562544579704,-11.74380358626066,Angola,BC,239.98741323610884,10
0132,ANGOLA_MOXICO_LUACANO,22.046284955949286,-11.669871723573195,Angola,BC,1674.768931021522,10
0133,ANGOLA_MOXICO_LUAU,21.997475474347006,-10.901812727972676,Angola,BC,678.4729000958869,10
0134,ANGOLA_MOXICO_LUCHAZES,19.530239402686032,-13.751962349149917,Angola,BC,4248.304584267965,10
0135,ANGOLA_MOXICO_LUENA,19.776770525882704,-12.327720581169427,Angola,BC,3631.6164367171637,10
0136,ANGOLA_NAMIBE_BIBALA,13.139576640553054,-14.685793467915335,Angola,BC,79.56976714908416,10
0137,ANGOLA_NAMIBE_CAMUCUIO,13.0324059676621,-14.003701587165244,Angola,BC,60.8127070286832,10
0138,ANGOLA_NAMIBE_NAMIBE,12.457905307074512,-14.720315334187738,Angola,BC,68.05481652380864,10
0139,ANGOLA_NAMIBE_TÔMBWA,12.359284305310362,-16.564898961646183,Angola,BC,14.898575711371079,10
0140,ANGOLA_NAMIBE_VIREI,12.94168325673447,-15.813548331274848,Angola,BC,20.3200515249661,10
0141,ANGOLA_UÍGE_AMBUILA,14.468179065511844,-7.587449047134571,Angola,BC,360.4302265286707,10
0142,ANGOLA_UÍGE_BEMBE,14.277664721920273,-7.052417289665407,Angola,BC,450.7216566688319,10
0143,ANGOLA_UÍGE_BUENGAS,15.825059286515511,-6.668373974646913,Angola,BC,351.0706735758946,10
0144,ANGOLA_UÍGE_BUNGO,15.447113463583449,-7.392017748161813,Angola,BC,284.2476976526838,10
0145,ANGOLA_UÍGE_CANGOLA,15.953541847191238,-7.839972087285049,Angola,BC,442.1988820877769,10
0146,ANGOLA_UÍGE_DAMBA,15.216117046210005,-6.730711730495686,Angola,BC,856.9589280778313,10
0147,ANGOLA_UÍGE_MAQUELA DO ZOMBO,15.504832114047753,-6.115762646049738,Angola,BC,865.8269450024674,10
0148,ANGOLA_UÍGE_SANTA CRUZ,16.58039852859364,-7.043057290518152,Angola,BC,810.1394347120279,10
0149,ANGOLA_UÍGE_MUCABA,15.044844983137867,-7.104479137048426,Angola,BC,142.84716020894004,10
0150,ANGOLA_UÍGE_NEGAGE,15.387803110685544,-7.82670187011252,Angola,BC,250.33323940864284,10
0151,ANGOLA_UÍGE_PURI,15.677588319493356,-7.6520448609471,Angola,BC,200.0621177277364,10
0152,ANGOLA_UÍGE_QUIMBELE,16.358827373391733,-6.339946266586419,Angola,BC,1114.7444240298648,10
0153,ANGOLA_UÍGE_QUITEXE,14.916309357718397,-8.05805649608166,Angola,BC,361.74420767661525,10
0154,ANGOLA_UÍGE_SANZA POMBO,16.05132046706061,-7.225080931426597,Angola,BC,762.8596464204225,10
0155,ANGOLA_UÍGE_SONGO,14.789371774574954,-7.15444085578491,Angola,BC,261.5115724392086,10
0156,ANGOLA_UÍGE_UÍGE,15.086269927234868,-7.569389383460002,Angola,BC,211.38959596637858,10
0157,ANGOLA_ZAIRE_CUIMBA,14.656648047034412,-6.211094387740501,Angola,BC,333.94959599392917,10
0158,ANGOLA_ZAIRE_MBANZA CONGO,14.17814621079705,-6.310144184559853,Angola,BC,515.1581016850266,10
0159,ANGOLA_ZAIRE_NZETO,13.396012085498478,-7.329332397443156,Angola,BC,461.80790748378337,10
0160,ANGOLA_ZAIRE_NÓQUI,13.505068524452918,-6.150797500748508,Angola,BC,331.3606302993084,10
0161,ANGOLA_ZAIRE_SOYO,12.72456320103429,-6.276748486180679,Angola,BC,236.8691932934803,10
0162,ANGOLA_ZAIRE_TOMBOCO,13.360813071321832,-6.70704141475642,Angola,BC,542.1835200096061,10
0163,BOTSWANA_CENTRAL_BOBONONG_BOBONONG,28.439270006020617,-21.904588768680572,Botswana,BC,9.707369323666377,10
0164,BOTSWANA_CENTRAL_BOBONONG_DAMOCHOJENA,27.46425717187249,-21.89586472598768,Botswana,BC,0.01854699214503231,10
0165,BOTSWANA_CENTRAL_BOBONONG_KOBOJANGO,28.763918196572497,-21.785636334108606,Botswana,BC,6.9785334277421995,10
0166,BOTSWANA_CENTRAL_BOBONONG_LENTSWELEMORITI,29.09263730127421,-22.126071452194022,Botswana,BC,1.6336736903872113,10
0167,BOTSWANA_CENTRAL_BOBONONG_LEPOKOLE,28.342120180879903,-21.78828871071267,Botswana,BC,0,10
0168,BOTSWANA_CENTRAL_BOBONONG_MABOLWE,28.93856360422732,-21.822911107503458,Botswana,BC,0.24475157273207526,10
0169,BOTSWANA_CENTRAL_BOBONONG_MATHATHANE,28.765707084954567,-22.164921148469332,Botswana,BC,6.512853959539534,10
0170,BOTSWANA_CENTRAL_BOBONONG_MMADINARE,27.61927099292336,-21.939530032971234,Botswana,BC,23.287702897032023,10
0171,BOTSWANA_CENTRAL_BOBONONG_MOLALATAU,28.546028057555482,-22.244047061148887,Botswana,BC,8.697782316118207,10
0172,BOTSWANA_CENTRAL_BOBONONG_MOLETEMANE,28.24551458680093,-22.49838952314233,Botswana,BC,0.00839619146689626,10
0173,BOTSWANA_CENTRAL_BOBONONG_MOTLHABANENG,28.847671161031595,-22.0878861675696,Botswana,BC,4.164961566981719,10
0174,BOTSWANA_CENTRAL_BOBONONG_ROBELELA,28.01614217627893,-21.606755627584164,Botswana,BC,0.07195099068388675,10
0175,BOTSWANA_CENTRAL_BOBONONG_SEFOPHE,28.010768080362112,-22.202415922887717,Botswana,BC,1.2115703951516528,10
0176,BOTSWANA_CENTRAL_BOBONONG_SEMOLALE,28.901373465716713,-21.94234612580183,Botswana,BC,0.26968701625139285,10
0177,BOTSWANA_CENTRAL_BOBONONG_TOBANE,28.034740456942973,-21.715331266156507,Botswana,BC,1.889324339495759,10
0178,BOTSWANA_CENTRAL_BOBONONG_TSETSEBJWE,28.261512057832615,-22.323234206617617,Botswana,BC,0.4317948787895498,10
0179,BOTSWANA_CENTRAL_BOBONONG_TSHOKWE,28.12020929554016,-21.7461736340543,Botswana,BC,0,10
0180,BOTSWANA_CENTRAL_BOBONONG_TULI,28.659593038222404,-22.426510831132365,Botswana,BC,5.5015907072367085,10
0181,BOTSWANA_CENTRAL_BOTETI_KEDIA,24.838048952453185,-21.403241698591675,Botswana,BC,1.9752674186665589,10
0182,BOTSWANA_CENTRAL_BOTETI_KHWEE,25.42160849963441,-21.949084316434682,Botswana,BC,0.16499024775326687,10
0183,BOTSWANA_CENTRAL_BOTETI_KUMAGA,24.694403521304178,-20.43709104783157,Botswana,BC,23.961099185383762,10
0184,BOTSWANA_CENTRAL_BOTETI_LETLHAKANE,25.324076768019342,-21.74281229869488,Botswana,BC,24.024427783905818,10
0185,BOTSWANA_CENTRAL_BOTETI_MAKALAMABEDI,24.027537186531372,-20.329731365780997,Botswana,BC,0.09413886722981556,10
0186,BOTSWANA_CENTRAL_BOTETI_MMADIKOLA,24.505648562137157,-21.04540148259183,Botswana,BC,0.6628137568634271,10
0187,BOTSWANA_CENTRAL_BOTETI_MMATSHUMO,25.608635534616877,-21.055357574481494,Botswana,BC,2.101649282731838,10
0188,BOTSWANA_CENTRAL_BOTETI_MOKOBOXANE,25.01278736428241,-21.374661912697718,Botswana,BC,0.8081982809825249,10
0189,BOTSWANA_CENTRAL_BOTETI_MOPIPI,25.06130611972133,-20.957019464880865,Botswana,BC,2.7021968644617234,10
0190,BOTSWANA_CENTRAL_BOTETI_MOREOMAOTO,24.225653269651804,-20.326805973885744,Botswana,BC,1.144683329303132,10
0191,BOTSWANA_CENTRAL_BOTETI_MOSU,26.096038009772478,-21.108931183794436,Botswana,BC,3.8115469665314956,10
0192,BOTSWANA_CENTRAL_BOTETI_MOTOPI,24.143658950831586,-20.239487705166916,Botswana,BC,0.2945525460533789,10
0193,BOTSWANA_CENTRAL_BOTETI_TOROMOJA,24.68875163244386,-21.028858930681245,Botswana,BC,1.473077849218825,10
0194,BOTSWANA_CENTRAL_BOTETI_TSIENYANE/RAKOPS,24.297459830504376,-20.770824097320627,Botswana,BC,5.798051015289545,10
0195,BOTSWANA_CENTRAL_BOTETI_XERE,23.995091776720663,-21.05103701376487,Botswana,BC,0.004989292387134819,10
0196,BOTSWANA_CENTRAL_BOTETI_XHUMO,24.543580068860226,-21.43138653458584,Botswana,BC,8.791625406343123,10
0197,BOTSWANA_CENTRAL_MAHALAPYE_BONWAPITSE,26.696499319837177,-23.016977775399745,Botswana,BC,0.26718074618994764,10
0198,BOTSWANA_CENTRAL_MAHALAPYE_BOROTSI,27.574845464339035,-23.03787815480758,Botswana,BC,0.978902549005897,10
0199,BOTSWANA_CENTRAL_MAHALAPYE_CHADIBE,27.653472614061975,-23.04213517690895,Botswana,BC,0.2509368822828529,10
0200,BOTSWANA_CENTRAL_MAHALAPYE_DIBETE STATION,26.60466673565762,-23.712578892238895,Botswana,BC,5.367309398532179,10
0201,BOTSWANA_CENTRAL_MAHALAPYE_DOVEDALE,27.0584095397386,-23.43747251689984,Botswana,BC,0.2106969855986789,10
0202,BOTSWANA_CENTRAL_MAHALAPYE_IKONGWE,26.42368516567563,-23.133332920110572,Botswana,BC,0.00586842203515923,10
0203,BOTSWANA_CENTRAL_MAHALAPYE_KALAMARE,26.676800027450167,-22.85145869530537,Botswana,BC,2.11300919334446,10
0204,BOTSWANA_CENTRAL_MAHALAPYE_KODIBELENG,25.8565320473089,-23.06990009465882,Botswana,BC,0.3047234363473572,10
0205,BOTSWANA_CENTRAL_MAHALAPYE_KUDUMATSE,27.163558620828415,-23.343825570073967,Botswana,BC,0.260958247918791,10
0206,BOTSWANA_CENTRAL_MAHALAPYE_MAAPE,27.298633726872115,-22.801071310840364,Botswana,BC,2.905136057666556,10
0207,BOTSWANA_CENTRAL_MAHALAPYE_MACHANENG,27.430989788355014,-23.17527950233516,Botswana,BC,1.0873577127462726,10
0208,BOTSWANA_CENTRAL_MAHALAPYE_MAHALAPYE,26.92364672437042,-23.059367128880574,Botswana,BC,53.67770525822304,10
0209,BOTSWANA_CENTRAL_MAHALAPYE_MAKWATE,27.289572829578482,-23.25066866242674,Botswana,BC,0.14468557384798836,10
0210,BOTSWANA_CENTRAL_MAHALAPYE_MATLHAKO,27.57730747946278,-23.092868816729595,Botswana,BC,1.1253412968587335,10
0211,BOTSWANA_CENTRAL_MAHALAPYE_MHALAPITSA,27.241670153565362,-22.750141129591885,Botswana,BC,1.7426385338612742,10
0212,BOTSWANA_CENTRAL_MAHALAPYE_MMAPHASHALALA,26.85959307803958,-23.525191663403213,Botswana,BC,0.5698420976944358,10
0213,BOTSWANA_CENTRAL_MAHALAPYE_MMUTLANA,26.603632318980285,-22.97161859276938,Botswana,BC,0.37128459977434736,10
0214,BOTSWANA_CENTRAL_MAHALAPYE_MOKGENENE,26.039953432163163,-23.53987260084274,Botswana,BC,0.00798772807933882,10
0215,BOTSWANA_CENTRAL_MAHALAPYE_MOKOBENG,27.693890294840614,-22.97362584906358,Botswana,BC,0.08698809322862043,10
0216,BOTSWANA_CENTRAL_MAHALAPYE_MOKOSWANE,26.94190877928232,-23.316220505173856,Botswana,BC,0.11123951259723767,10
0217,BOTSWANA_CENTRAL_MAHALAPYE_MOOKANE,26.698166386924417,-23.694975957356803,Botswana,BC,1.0095197688843653,10
0218,BOTSWANA_CENTRAL_MAHALAPYE_MORALANE,26.215414450162044,-22.936420739953075,Botswana,BC,0.03194532953460654,10
0219,BOTSWANA_CENTRAL_MAHALAPYE_MOSHOPHA,27.314662802995976,-22.947407012331485,Botswana,BC,0.43068254226076264,10
0220,BOTSWANA_CENTRAL_MAHALAPYE_MOSOLOTSHANE,26.428423160167153,-22.91931594278049,Botswana,BC,2.936898614235203,10
0221,BOTSWANA_CENTRAL_MAHALAPYE_NGWAPA,27.77944253096159,-22.919703336193177,Botswana,BC,0.9422440717360338,10
0222,BOTSWANA_CENTRAL_MAHALAPYE_OTSE,25.946626364668234,-23.32358945282839,Botswana,BC,1.464321534035796,10
0223,BOTSWANA_CENTRAL_MAHALAPYE_PALLA ROAD/DINOKWE,26.77659555732254,-23.360515846147123,Botswana,BC,2.657158193026674,10
0224,BOTSWANA_CENTRAL_MAHALAPYE_PILIKWE,27.12830992169561,-22.797803953113785,Botswana,BC,0.957775502865743,10
0225,BOTSWANA_CENTRAL_MAHALAPYE_POLOKA,26.288048197015442,-23.601986580637178,Botswana,BC,0.28354353331060683,10
0226,BOTSWANA_CENTRAL_MAHALAPYE_RAMOKGONAMI,27.427775976491716,-22.856906588140728,Botswana,BC,2.348588982120241,10
0227,BOTSWANA_CENTRAL_MAHALAPYE_SEFHARE,27.497480197007754,-23.01846757513452,Botswana,BC,3.6434011927160657,10
0228,BOTSWANA_CENTRAL_MAHALAPYE_SELEKA,27.541179586978274,-22.862211127370156,Botswana,BC,0.7519323196579873,10
0229,BOTSWANA_CENTRAL_MAHALAPYE_SHAKWE,27.285868545141952,-23.098563338666022,Botswana,BC,0.09580238509071168,10
0230,BOTSWANA_CENTRAL_MAHALAPYE_SHOSHONG,26.387666419486898,-23.28181618855284,Botswana,BC,16.47946542619564,10
0231,BOTSWANA_CENTRAL_MAHALAPYE_TAUPYE,27.086389543341017,-23.181122303718336,Botswana,BC,0.7043189035553028,10
0232,BOTSWANA_CENTRAL_MAHALAPYE_TEWANE,26.8808106284804,-22.855065985054686,Botswana,BC,0.4822582995044147,10
0233,BOTSWANA_CENTRAL_MAHALAPYE_TULI,27.376483753636418,-23.358300442845334,Botswana,BC,9.19769293179227,10
0234,BOTSWANA_CENTRAL_MAHALAPYE_TUMASERA,27.625135322324592,-22.873322197159712,Botswana,BC,6.306168480880544,10
0235,BOTSWANA_CENTRAL_SEROWE PALAPYE_DILORO,27.615763781482226,-22.42069872982587,Botswana,BC,0.7226568240220234,10
0236,BOTSWANA_CENTRAL_SEROWE PALAPYE_DIMAJWE,26.75499325012916,-21.701835892951095,Botswana,BC,0.017159257146517143,10
0237,BOTSWANA_CENTRAL_SEROWE PALAPYE_GAMABUO,26.34887363421504,-22.621942368691556,Botswana,BC,0.0183632876148765,10
0238,BOTSWANA_CENTRAL_SEROWE PALAPYE_GOJWANE,27.274583799149916,-21.783314177365938,Botswana,BC,0.502933319382608,10
0239,BOTSWANA_CENTRAL_SEROWE PALAPYE_GOO-SEKGWENG,27.378852556607093,-22.684458968010347,Botswana,BC,0.9205803912549236,10
0240,BOTSWANA_CENTRAL_SEROWE PALAPYE_GOOTAU,27.424470969841263,-22.695172167140004,Botswana,BC,0.1616257983080782,10
0241,BOTSWANA_CENTRAL_SEROWE PALAPYE_KGAGODI,27.50339317555218,-22.29477672423486,Botswana,BC,0.8181453250323867,10
0242,BOTSWANA_CENTRAL_SEROWE PALAPYE_LECHENG,27.185275817151037,-22.673190570584637,Botswana,BC,3.983643089795502,10
0243,BOTSWANA_CENTRAL_SEROWE PALAPYE_LERALA,27.844813325817267,-22.74868745754991,Botswana,BC,2.368483710098078,10
0244,BOTSWANA_CENTRAL_SEROWE PALAPYE_LESENEPOLE/MATOLWANE,27.57647005773152,-22.540521067100062,Botswana,BC,0.26059651572108167,10
0245,BOTSWANA_CENTRAL_SEROWE PALAPYE_MABELEAPUDI,26.825166966464483,-22.128040644255414,Botswana,BC,0.4695905948121486,10
0246,BOTSWANA_CENTRAL_SEROWE PALAPYE_MAJWANAADIPITSE,27.005264767504467,-21.94020945810498,Botswana,BC,0.14022050733427288,10
0247,BOTSWANA_CENTRAL_SEROWE PALAPYE_MAJWANENG,27.649493814512812,-22.75586221108769,Botswana,BC,0.1870828583905802,10
0248,BOTSWANA_CENTRAL_SEROWE PALAPYE_MALAKA,27.34590226161426,-22.592437093749382,Botswana,BC,0.07429409245205669,10
0249,BOTSWANA_CENTRAL_SEROWE PALAPYE_MALATSWAI,26.22277867959262,-21.857375536824936,Botswana,BC,12.954953549770302,10
0250,BOTSWANA_CENTRAL_SEROWE PALAPYE_MANALEDI,27.5051048457668,-22.739538071182494,Botswana,BC,0.5616611775059633,10
0251,BOTSWANA_CENTRAL_SEROWE PALAPYE_MATLHAKOLA,27.317001132592853,-22.71429972506726,Botswana,BC,0.1765883238999381,10
0252,BOTSWANA_CENTRAL_SEROWE PALAPYE_MAUNATLALA,27.815623496542926,-22.549960915979852,Botswana,BC,0.7805936791309521,10
0253,BOTSWANA_CENTRAL_SEROWE PALAPYE_MMASHORO,26.545528327992464,-21.913528088466634,Botswana,BC,5.9892400082153054,10
0254,BOTSWANA_CENTRAL_SEROWE PALAPYE_MOENG,27.61182691600207,-22.684247954870994,Botswana,BC,0.0709419565166727,10
0255,BOTSWANA_CENTRAL_SEROWE PALAPYE_MOGAPI,27.90355332352727,-22.400536057043198,Botswana,BC,0.5985616329882313,10
0256,BOTSWANA_CENTRAL_SEROWE PALAPYE_MOGAPINYANA,27.656777003289175,-22.30921854076872,Botswana,BC,0.6769876699287234,10
0257,BOTSWANA_CENTRAL_SEROWE PALAPYE_MOGOME,26.8788884869847,-22.780246290758782,Botswana,BC,0.0532985454889242,10
0258,BOTSWANA_CENTRAL_SEROWE PALAPYE_MOGOROSI,26.50681705808967,-22.435754433322103,Botswana,BC,4.82931141023722,10
0259,BOTSWANA_CENTRAL_SEROWE PALAPYE_MOIYABANA,25.735420719204132,-22.568416950895624,Botswana,BC,1.899844259214434,10
0260,BOTSWANA_CENTRAL_SEROWE PALAPYE_MOKGWARE,26.78655204288414,-22.77384105120242,Botswana,BC,0.07715830991847251,10
0261,BOTSWANA_CENTRAL_SEROWE PALAPYE_MOKHUNGWANA,27.306318999794403,-22.66250272126858,Botswana,BC,0.6908966858138802,10
0262,BOTSWANA_CENTRAL_SEROWE PALAPYE_MOKOKWANA,27.68970066181251,-22.615814171525756,Botswana,BC,0.43981737985021996,10
0263,BOTSWANA_CENTRAL_SEROWE PALAPYE_MOREMI,27.48231653767836,-22.53631545317506,Botswana,BC,0.4482591087697188,10
0264,BOTSWANA_CENTRAL_SEROWE PALAPYE_MOREOMABELE,27.19509262463396,-21.997866632985815,Botswana,BC,0.734366116370771,10
0265,BOTSWANA_CENTRAL_SEROWE PALAPYE_MOSWEU,27.643842814290796,-22.648861924159835,Botswana,BC,0.10477964339194268,10
0266,BOTSWANA_CENTRAL_SEROWE PALAPYE_MOTSHEGALETAU,26.39728909838941,-22.561009612981003,Botswana,BC,0.041102637320189775,10
0267,BOTSWANA_CENTRAL_SEROWE PALAPYE_PAJE,26.816328935481604,-22.26070768401234,Botswana,BC,0.3492953654234534,10
0268,BOTSWANA_CENTRAL_SEROWE PALAPYE_PALAPYE,27.16786344665423,-22.55497413257865,Botswana,BC,37.93364155277891,10
0269,BOTSWANA_CENTRAL_SEROWE PALAPYE_RADISELE,26.988408471288807,-22.81090444695215,Botswana,BC,0.14987930573077307,10
0270,BOTSWANA_CENTRAL_SEROWE PALAPYE_RATHOLO,27.53938699821314,-22.68681419937455,Botswana,BC,0.9963054776036312,10
0271,BOTSWANA_CENTRAL_SEROWE PALAPYE_SEHUNOU,26.385003835935297,-22.59514869100243,Botswana,BC,0.011511180080968285,10
0272,BOTSWANA_CENTRAL_SEROWE PALAPYE_SEOLWANE,27.762620325390287,-22.666448768729584,Botswana,BC,0.8849494766813976,10
0273,BOTSWANA_CENTRAL_SEROWE PALAPYE_SEROWE,26.50285991859318,-21.991307902066985,Botswana,BC,73.18243691520306,10
0274,BOTSWANA_CENTRAL_SEROWE PALAPYE_SERULE,27.237798390462725,-21.890009585678992,Botswana,BC,1.096645289375434,10
0275,BOTSWANA_CENTRAL_SEROWE PALAPYE_TAMASANE,27.396841887713986,-22.3814578521284,Botswana,BC,0.01884881653542353,10
0276,BOTSWANA_CENTRAL_SEROWE PALAPYE_THABALA,26.421061666211095,-22.511119340536165,Botswana,BC,0.9392078996492457,10
0277,BOTSWANA_CENTRAL_SEROWE PALAPYE_TOPISI,27.22337506343467,-22.227424247307294,Botswana,BC,1.1773084389046962,10
0278,BOTSWANA_CENTRAL_SEROWE PALAPYE_TSHIMOYAPULA,27.019142014452218,-22.119432295799754,Botswana,BC,0.15998381203767417,10
0279,BOTSWANA_CENTRAL_SEROWE PALAPYE_TULI,28.061256491221307,-22.727203098241798,Botswana,BC,2.531820232961541,10
0280,BOTSWANA_CENTRAL_TUTUME_BOROLONG,27.32637665560921,-21.091395459266185,Botswana,BC,0.36947183703095854,10
0281,BOTSWANA_CENTRAL_TUTUME_BOROTSI,27.251654267811457,-21.026993493948527,Botswana,BC,1.133714848625486,10
0282,BOTSWANA_CENTRAL_TUTUME_CHADIBE,27.342256409557447,-21.066229746391034,Botswana,BC,0.38801979403511716,10
0283,BOTSWANA_CENTRAL_TUTUME_CHANGATE,27.246529169011538,-20.323681695475976,Botswana,BC,0.6880140008338101,10
0284,BOTSWANA_CENTRAL_TUTUME_DAGWI,27.24543111493109,-20.205531255072483,Botswana,BC,1.1285405272414946,10
0285,BOTSWANA_CENTRAL_TUTUME_DUKWI,26.284620970093016,-20.67546283807841,Botswana,BC,8.01718540135711,10
0286,BOTSWANA_CENTRAL_TUTUME_GOSHWE,27.21557874997618,-20.535609785786193,Botswana,BC,0.19708611350225305,10
0287,BOTSWANA_CENTRAL_TUTUME_GWETA,25.591976234675478,-19.905319536886395,Botswana,BC,29.33130443886792,10
0288,BOTSWANA_CENTRAL_TUTUME_JAMATAKA,27.15547496011975,-21.068951470145485,Botswana,BC,0.03451024066404709,10
0289,BOTSWANA_CENTRAL_TUTUME_KUTAMOGREE,26.880512190693914,-20.75110495387822,Botswana,BC,0.6157497725347296,10
0290,BOTSWANA_CENTRAL_TUTUME_LEPASHE,26.66685337113433,-20.812417757916798,Botswana,BC,0.129211236960983,10
0291,BOTSWANA_CENTRAL_TUTUME_MABESEKWA,26.832739428334428,-21.176734877732674,Botswana,BC,0.5625910698981621,10
0292,BOTSWANA_CENTRAL_TUTUME_MAFONGO/HOBONA,27.235943246400137,-20.94573521021701,Botswana,BC,0.36627856877049936,10
0293,BOTSWANA_CENTRAL_TUTUME_MAITENGWE,27.011808968202775,-20.116667928999114,Botswana,BC,4.658140159958127,10
0294,BOTSWANA_CENTRAL_TUTUME_MAKOBO,27.107677079222814,-21.02576555193948,Botswana,BC,0.050961475468756554,10
0295,BOTSWANA_CENTRAL_TUTUME_MAKUTA,26.936411463806042,-20.611020613663403,Botswana,BC,5.702932909479437,10
0296,BOTSWANA_CENTRAL_TUTUME_MANDUNYANE,27.164838306199922,-21.29997484522961,Botswana,BC,1.0615999413914992,10
0297,BOTSWANA_CENTRAL_TUTUME_MAPOSA,26.227831043889193,-20.105672557073913,Botswana,BC,4.297212534452642,10
0298,BOTSWANA_CENTRAL_TUTUME_MARAPONG,27.060904032209528,-20.875646900092942,Botswana,BC,0.4236064426316476,10
0299,BOTSWANA_CENTRAL_TUTUME_MAROBELA,27.22684904528886,-20.86226718353111,Botswana,BC,0.42817334435896975,10
0300,BOTSWANA_CENTRAL_TUTUME_MATHANGWANE,27.301597561179328,-20.96526881266621,Botswana,BC,1.5106926999578196,10
0301,BOTSWANA_CENTRAL_TUTUME_MATOBO,27.07410815569497,-20.55396589314004,Botswana,BC,5.990878961493757,10
0302,BOTSWANA_CENTRAL_TUTUME_MATSITAMA,26.795600326944548,-20.91574597947195,Botswana,BC,0.375123555890198,10
0303,BOTSWANA_CENTRAL_TUTUME_MMANXOTAE,26.39231628230285,-20.11189737769122,Botswana,BC,1.3066226291256475,10
0304,BOTSWANA_CENTRAL_TUTUME_MMEYA,26.45632418802842,-20.83403038639063,Botswana,BC,0.9494842319299003,10
0305,BOTSWANA_CENTRAL_TUTUME_MOKUBILO,26.522301620359478,-21.211068795354347,Botswana,BC,0.8090804739010606,10
0306,BOTSWANA_CENTRAL_TUTUME_MOSETSE,26.717225408615494,-20.61414488681695,Botswana,BC,9.351962724843325,10
0307,BOTSWANA_CENTRAL_TUTUME_NATA,26.421106250465357,-20.364015464327988,Botswana,BC,12.528351481239326,10
0308,BOTSWANA_CENTRAL_TUTUME_NATALE,27.13819661363051,-21.12190933916731,Botswana,BC,0.9751499557424559,10
0309,BOTSWANA_CENTRAL_TUTUME_NKANGE,27.150899768186317,-20.292280125711056,Botswana,BC,1.3875280307923916,10
0310,BOTSWANA_CENTRAL_TUTUME_NSHAKASHOKWE,27.19448164625436,-20.800715019251136,Botswana,BC,0.3170955069812388,10
0311,BOTSWANA_CENTRAL_TUTUME_NSWAZWI,27.11079707796551,-20.717051379328918,Botswana,BC,9.11465855860097,10
0312,BOTSWANA_CENTRAL_TUTUME_SEBINA,27.212125328697905,-20.8229088309246,Botswana,BC,0.3741013562155941,10
0313,BOTSWANA_CENTRAL_TUTUME_SEMITWE,27.057568754807466,-20.9304846145358,Botswana,BC,1.6412395206856623,10
0314,BOTSWANA_CENTRAL_TUTUME_SENETE,27.061521930586494,-20.338940466599496,Botswana,BC,3.5723500206271614,10
0315,BOTSWANA_CENTRAL_TUTUME_SEPAKO,26.42176865500974,-19.91292710159379,Botswana,BC,17.207596798824753,10
0316,BOTSWANA_CENTRAL_TUTUME_SHASHE-MOOKE,27.294622390104607,-21.200689259821715,Botswana,BC,2.2867375639162137,10
0317,BOTSWANA_CENTRAL_TUTUME_SHASHE/SEMOTSWANE,27.353975033981698,-21.4004850680266,Botswana,BC,2.8248742150264166,10
0318,BOTSWANA_CENTRAL_TUTUME_TONOTA,27.390007578405545,-21.56581687363627,Botswana,BC,4.0813301219102955,10
0319,BOTSWANA_CENTRAL_TUTUME_TSHOKATSHAA,25.411457316681155,-20.073274987651395,Botswana,BC,0.4541586240461317,10
0320,BOTSWANA_CENTRAL_TUTUME_TUTUME,26.93343318392142,-20.358110222677443,Botswana,BC,21.979725794680753,10
0321,BOTSWANA_CENTRAL_TUTUME_ZOROGA,25.931132083826565,-20.225947339100205,Botswana,BC,4.898305793600452,10
0322,BOTSWANA_CHOBE_CHOBE_KACHIKAU,24.593403269312077,-18.19955337118612,Botswana,BC,6.636683609055006,10
0323,BOTSWANA_CHOBE_CHOBE_KASANE,25.053605518831368,-17.95621200218165,Botswana,BC,62.98318925398852,10
0324,BOTSWANA_CHOBE_CHOBE_KATABA,24.208556915615702,-18.516556039211913,Botswana,BC,69.85932494067343,10
0325,BOTSWANA_CHOBE_CHOBE_KAVIMBA,24.673787397731,-18.131513519062572,Botswana,BC,28.688181048614062,10
0326,BOTSWANA_CHOBE_CHOBE_KAZUNGULA,25.239551399880288,-17.81715309318576,Botswana,BC,2.0781401386206717,10
0327,BOTSWANA_CHOBE_CHOBE_LESOMA,25.22616409411994,-17.924922498851625,Botswana,BC,3.516667985705054,10
0328,BOTSWANA_CHOBE_CHOBE_MUCHINJE/MABELE,24.80594102179805,-18.000000788213598,Botswana,BC,39.54225774004276,10
0329,BOTSWANA_CHOBE_CHOBE_NUMBER SEVEN,25.091530617419757,-18.628521496100262,Botswana,BC,527.5616786292463,10
0330,BOTSWANA_CHOBE_CHOBE_PANDAMATENGA,25.62991931175742,-18.55507084642917,Botswana,BC,1.935030538044491,10
0331,BOTSWANA_CHOBE_CHOBE_PARAKARUNGU,24.3003425097673,-18.078920152986736,Botswana,BC,15.582222068459778,10
0332,BOTSWANA_CHOBE_CHOBE_SATAU,24.4229631549193,-18.021010667013208,Botswana,BC,6.47844390802681,10
0333,BOTSWANA_GABORONE_GABORONE_GABORONE,25.88095190745218,-24.686452843134287,Botswana,BC,66.6637359461341,10
0334,BOTSWANA_GHANZI_CENTRAL KGALAGADI GAME RESERVE_CENTRAL KGALAGADI GAME RESERVE,23.84354631529824,-22.32227292696922,Botswana,BC,117.02180067873239,10
0335,BOTSWANA_GHANZI_GHANZI_B. VISSER,22.55838233704724,-21.32992655115972,Botswana,BC,0.11278862218609359,10
0336,BOTSWANA_GHANZI_GHANZI_BERE,21.79557213181817,-22.740271290335002,Botswana,BC,17.09218179423594,10
0337,BOTSWANA_GHANZI_GHANZI_CHARLES HILL,20.07849051397565,-22.30448292484571,Botswana,BC,3.4001747758349055,10
0338,BOTSWANA_GHANZI_GHANZI_CHARLES SHELDON,22.10987199508711,-21.572165997131027,Botswana,BC,0.05777026316160221,10
0339,BOTSWANA_GHANZI_GHANZI_CHOBOKWANE,21.24948179474576,-22.480947513304624,Botswana,BC,8.737180547645782,10
0340,BOTSWANA_GHANZI_GHANZI_DECT ETIN,21.87694726048196,-21.572322965589386,Botswana,BC,2.2955544908028047,10
0341,BOTSWANA_GHANZI_GHANZI_DEKAR,22.065436232878568,-21.366520787607246,Botswana,BC,0.061175218499747275,10
0342,BOTSWANA_GHANZI_GHANZI_EAST HANAHAI,22.296004965831617,-22.138606212752848,Botswana,BC,6.674062839303817,10
0343,BOTSWANA_GHANZI_GHANZI_GHANZI,21.636172818729325,-21.69600936266415,Botswana,BC,5.485173952716505,10
0344,BOTSWANA_GHANZI_GHANZI_GROOTE LAAGTE,21.349883074115542,-21.38859908504291,Botswana,BC,17.546238311997435,10
0345,BOTSWANA_GHANZI_GHANZI_HANS METZLER,20.164337868142784,-22.12061746486461,Botswana,BC,4.562318455751398,10
0346,BOTSWANA_GHANZI_GHANZI_J. RANSALL,20.422333298998613,-22.140780374743333,Botswana,BC,0.09828388947461696,10
0347,BOTSWANA_GHANZI_GHANZI_JANKI JANKI,21.346606317490824,-23.123137224643713,Botswana,BC,15.001519587120615,10
0348,BOTSWANA_GHANZI_GHANZI_JERUNG,22.462289483631174,-21.771073127188487,Botswana,BC,0.003575699053995845,10
0349,BOTSWANA_GHANZI_GHANZI_JOHN FARM,22.325500764273656,-21.113654988029502,Botswana,BC,1.4362540191087732,10
0350,BOTSWANA_GHANZI_GHANZI_KACGAE,22.25670639051408,-22.78108355380457,Botswana,BC,29.720877995103834,10
0351,BOTSWANA_GHANZI_GHANZI_KARAKOBIS,20.69787418591688,-22.076318449477853,Botswana,BC,2.9757126498109665,10
0352,BOTSWANA_GHANZI_GHANZI_KULE,20.25485884411168,-22.82990220520822,Botswana,BC,6.483839433790674,10
0353,BOTSWANA_GHANZI_GHANZI_MAGONO MAGONO,20.74295662591417,-23.122989899939387,Botswana,BC,8.093364643992352,10
0354,BOTSWANA_GHANZI_GHANZI_MAKUNDA,20.356137474087205,-22.403140017753746,Botswana,BC,7.353431160475867,10
0355,BOTSWANA_GHANZI_GHANZI_MASIRE'S FARM,21.364735361374258,-21.90738889293877,Botswana,BC,8.384222861800227,10
0356,BOTSWANA_GHANZI_GHANZI_NCOJANE,20.259249043024266,-23.18993344999315,Botswana,BC,7.63905011073101,10
0357,BOTSWANA_GHANZI_GHANZI_NEW XADE,22.47638609723249,-22.059709596306462,Botswana,BC,1.1238538662244206,10
0358,BOTSWANA_GHANZI_GHANZI_NEW XANAGAS,20.800274167066778,-22.572525810989912,Botswana,BC,14.143319970140244,10
0359,BOTSWANA_GHANZI_GHANZI_QABO,21.72658991626723,-21.05161346564646,Botswana,BC,0.02485128094255406,10
0360,BOTSWANA_GHANZI_GHANZI_TSOOTSHA,20.91109497610415,-22.075747207834585,Botswana,BC,2.7534431475736483,10
0361,BOTSWANA_GHANZI_GHANZI_WEST HANAHAI,21.65082272869238,-22.135855131778566,Botswana,BC,3.340064082078694,10
0362,BOTSWANA_JWANENG_JWANENG_JWANENG,24.757853176422884,-24.58932918017088,Botswana,BC,0.8225004724711262,10
0363,BOTSWANA_KGALAGADI_KGALAGADI NORTH_HUKUNTSI,21.663906534181816,-23.998763591814352,Botswana,BC,4.808392441209345,10
0364,BOTSWANA_KGALAGADI_KGALAGADI NORTH_HUNHUKWE,21.77076341928267,-23.455768999361656,Botswana,BC,8.685963059316418,10
0365,BOTSWANA_KGALAGADI_KGALAGADI NORTH_INALEGOLO,22.658513508974664,-24.45585560542118,Botswana,BC,29.67267785466115,10
0366,BOTSWANA_KGALAGADI_KGALAGADI NORTH_KANG,22.631383747199003,-23.529403386876705,Botswana,BC,13.010640620276265,10
0367,BOTSWANA_KGALAGADI_KGALAGADI NORTH_LEHUTUTU,22.00790879280739,-23.84360826239536,Botswana,BC,0.26562196298313984,10
0368,BOTSWANA_KGALAGADI_KGALAGADI NORTH_LOKGWABE,21.7851453687414,-24.07867771129318,Botswana,BC,1.9028874242304883,10
0369,BOTSWANA_KGALAGADI_KGALAGADI NORTH_MAKE,21.994205625425362,-23.680770428270183,Botswana,BC,3.9275595212446857,10
0370,BOTSWANA_KGALAGADI_KGALAGADI NORTH_MONONG,21.544688834846603,-23.73920927317219,Botswana,BC,17.725308092391504,10
0371,BOTSWANA_KGALAGADI_KGALAGADI NORTH_NCAANG,21.1223824590204,-23.44041697965504,Botswana,BC,19.40320039514072,10
0372,BOTSWANA_KGALAGADI_KGALAGADI NORTH_NGWATLE,21.117355141120534,-23.647886311201248,Botswana,BC,25.616344119074228,10
0373,BOTSWANA_KGALAGADI_KGALAGADI NORTH_PHUDUHUDU,22.580063911251433,-23.93036127904691,Botswana,BC,1.0804404581411973,10
0374,BOTSWANA_KGALAGADI_KGALAGADI NORTH_TSHANE,22.009218648598967,-23.97480857848694,Botswana,BC,0.8247559489308757,10
0375,BOTSWANA_KGALAGADI_KGALAGADI NORTH_UKWI,20.54965855676176,-23.64224465777984,Botswana,BC,36.53948847435038,10
0376,BOTSWANA_KGALAGADI_KGALAGADI NORTH_ZUTSWA,21.06879673283048,-24.378159867529472,Botswana,BC,25.396361997868393,10
0377,BOTSWANA_KGALAGADI_KGALAGADI SOUTH_BOGOGOBO,21.939941061820672,-26.643776855439175,Botswana,BC,0,10
0378,BOTSWANA_KGALAGADI_KGALAGADI SOUTH_BOKSPITS,21.314513491670507,-25.52305062333103,Botswana,BC,19.341137448958122,10
0379,BOTSWANA_KGALAGADI_KGALAGADI SOUTH_BRAY,23.752155151918004,-25.314612046817558,Botswana,BC,1.0900311007704064,10
0380,BOTSWANA_KGALAGADI_KGALAGADI SOUTH_GACHIBANA,21.318615947145076,-26.76135876855932,Botswana,BC,0.07399866582569131,10
0381,BOTSWANA_KGALAGADI_KGALAGADI SOUTH_KHISA,22.627311790636153,-25.661301014142644,Botswana,BC,7.164729149945151,10
0382,BOTSWANA_KGALAGADI_KGALAGADI SOUTH_KHUIS,21.778745594602643,-26.61621321259511,Botswana,BC,0.06262319880049066,10
0383,BOTSWANA_KGALAGADI_KGALAGADI SOUTH_KHWAWA,21.536389504618732,-26.33146231350371,Botswana,BC,0.2129938989680918,10
0384,BOTSWANA_KGALAGADI_KGALAGADI SOUTH_KOKOTSHA,23.282665786747692,-24.952596354252385,Botswana,BC,6.385334332491155,10
0385,BOTSWANA_KGALAGADI_KGALAGADI SOUTH_KOLONKWANE,21.998886440804885,-26.46695305601831,Botswana,BC,0.009385781814772919,10
0386,BOTSWANA_KGALAGADI_KGALAGADI SOUTH_MAKOPONG,23.00557554126552,-25.279785016029198,Botswana,BC,2.6831340869703744,10
0387,BOTSWANA_KGALAGADI_KGALAGADI SOUTH_MALESHE,22.578885408820124,-25.861705230970156,Botswana,BC,3.1251624597295864,10
0388,BOTSWANA_KGALAGADI_KGALAGADI SOUTH_MARALALENG,22.68707487230088,-25.784682276497044,Botswana,BC,1.6223038151515796,10
0389,BOTSWANA_KGALAGADI_KGALAGADI SOUTH_MAUBELO,22.38337590834033,-25.32060395255863,Botswana,BC,2.2419810502028983,10
0390,BOTSWANA_KGALAGADI_KGALAGADI SOUTH_MIDDLEPITS,21.88965522829646,-26.64510622003729,Botswana,BC,0.02392798556749044,10
0391,BOTSWANA_KGALAGADI_KGALAGADI SOUTH_MOLOPO FARMS,23.901539179894392,-25.218667431791786,Botswana,BC,6.68444971099926,10
0392,BOTSWANA_KGALAGADI_KGALAGADI SOUTH_OMAWENENO,22.58460683893281,-25.787109823452095,Botswana,BC,1.3332863111951239,10
0393,BOTSWANA_KGALAGADI_KGALAGADI SOUTH_PHEPHENG/DRAAIHOEK,22.78105010135853,-25.353110330504997,Botswana,BC,18.62305879196061,10
0394,BOTSWANA_KGALAGADI_KGALAGADI SOUTH_RAPPLES PAN,21.008575646663,-26.638159980643096,Botswana,BC,0.004753332833935851,10
0395,BOTSWANA_KGALAGADI_KGALAGADI SOUTH_STRUIZENDAM,20.634736317115014,-26.674011578479416,Botswana,BC,0.03368848085321781,10
0396,BOTSWANA_KGALAGADI_KGALAGADI SOUTH_TSABONG,22.533675678870342,-26.03261068358875,Botswana,BC,7.751361517403601,10
0397,BOTSWANA_KGALAGADI_KGALAGADI SOUTH_VAALHOEK,20.899174768893236,-26.63085165782585,Botswana,BC,0.0037543779371365486,10
0398,BOTSWANA_KGALAGADI_KGALAGADI SOUTH_WERDA,23.074307700309763,-25.079935228446647,Botswana,BC,18.906531003350423,10
0399,BOTSWANA_KGATLENG_KGATLENG_ARTISIA,26.329598045283216,-24.01646307301413,Botswana,BC,0.17920260272959893,10
0400,BOTSWANA_KGATLENG_KGATLENG_BOKAA,25.97195065976654,-24.450230086407068,Botswana,BC,9.147236317764719,10
0401,BOTSWANA_KGATLENG_KGATLENG_DIKGONNYE,26.029703255813914,-24.096171191247226,Botswana,BC,0.04926433870857217,10
0402,BOTSWANA_KGATLENG_KGATLENG_DIKWIDIDI,26.17999949757091,-24.55666835671585,Botswana,BC,0.42581959806041253,10
0403,BOTSWANA_KGATLENG_KGATLENG_KGOMODIATSHABA,26.269863148495805,-23.959055603855354,Botswana,BC,2.3427627741644903,10
0404,BOTSWANA_KGATLENG_KGATLENG_KHURUTSHE,26.132859344771337,-23.690545327799267,Botswana,BC,0.013681715174686842,10
0405,BOTSWANA_KGATLENG_KGATLENG_LESHIBITSE,26.406165055796965,-23.83651089330935,Botswana,BC,0.1709178406547637,10
0406,BOTSWANA_KGATLENG_KGATLENG_MABALANE,26.28893676301754,-24.621655976454754,Botswana,BC,1.5132591142520162,10
0407,BOTSWANA_KGATLENG_KGATLENG_MALOLWANE,26.430380010494872,-24.457842437404707,Botswana,BC,0.6925893916091799,10
0408,BOTSWANA_KGATLENG_KGATLENG_MALOTWANA SIDING,26.151012846299633,-24.29179457997145,Botswana,BC,2.725120816054682,10
0409,BOTSWANA_KGATLENG_KGATLENG_MATEBELENG,26.04953135972325,-24.525143676862136,Botswana,BC,3.848473502039636,10
0410,BOTSWANA_KGATLENG_KGATLENG_MMATHUBUDUKWANE,26.402194016452356,-24.58953432239364,Botswana,BC,0.537939886417195,10
0411,BOTSWANA_KGATLENG_KGATLENG_MOCHUDI,26.47677571716603,-24.23454264974918,Botswana,BC,21.17521324363332,10
0412,BOTSWANA_KGATLENG_KGATLENG_MODIPANE,26.172106866832117,-24.61311568769224,Botswana,BC,1.074597230959854,10
0413,BOTSWANA_KGATLENG_KGATLENG_MORWA,26.089564160859158,-24.467876815246445,Botswana,BC,8.510718514338421,10
0414,BOTSWANA_KGATLENG_KGATLENG_OLIPHANTS DRIFT,26.833613302849894,-24.18652011472838,Botswana,BC,0.31185061671702646,10
0415,BOTSWANA_KGATLENG_KGATLENG_OODI,26.09229785618965,-24.566777150464368,Botswana,BC,3.2449438827105266,10
0416,BOTSWANA_KGATLENG_KGATLENG_PILANE STATION,26.10483646643129,-24.415535218505003,Botswana,BC,2.6468853427977064,10
0417,BOTSWANA_KGATLENG_KGATLENG_RAMONAKA,26.446902425513134,-24.542320856771433,Botswana,BC,0.638193527088608,10
0418,BOTSWANA_KGATLENG_KGATLENG_RAMOTLABAKI,26.871752159032944,-23.894065124338375,Botswana,BC,2.5599499814950923,10
0419,BOTSWANA_KGATLENG_KGATLENG_RASESA,26.029082284030856,-24.334812008927873,Botswana,BC,14.091153219235242,10
0420,BOTSWANA_KGATLENG_KGATLENG_SIKWANE,26.40976832130963,-24.631382480577347,Botswana,BC,0.12679141661866888,10
0421,BOTSWANA_KWENENG_KWENENG EAST_BDF MOGODITSHANE,25.866597567365684,-24.60177989688917,Botswana,BC,1.5301212590934734,10
0422,BOTSWANA_KWENENG_KWENENG EAST_BOATLANAME,25.90698626304365,-23.603697827888347,Botswana,BC,1.0047787267073243,10
0423,BOTSWANA_KWENENG_KWENENG EAST_DIKGATLHONG,25.890773108192004,-24.22990108004598,Botswana,BC,0.7335961120559787,10
0424,BOTSWANA_KWENENG_KWENENG EAST_DITSHUKUDU,25.79018424903999,-24.31657903586985,Botswana,BC,4.5200674528827,10
0425,BOTSWANA_KWENENG_KWENENG EAST_GABANE,25.724856086362443,-24.625622432889752,Botswana,BC,19.1804216223486,10
0426,BOTSWANA_KWENENG_KWENENG EAST_GAKGATLA,25.558388738489484,-24.555893651556392,Botswana,BC,0.005635705137886743,10
0427,BOTSWANA_KWENENG_KWENENG EAST_GAKUTLO,25.795893008492364,-24.485500847618265,Botswana,BC,3.6344412524742893,10
0428,BOTSWANA_KWENENG_KWENENG EAST_GAMODUBU,25.71707045103724,-24.50745373492028,Botswana,BC,0.28315019957032816,10
0429,BOTSWANA_KWENENG_KWENENG EAST_HATSALATLADI,25.655128743903163,-24.053036283307804,Botswana,BC,2.881908232583277,10
0430,BOTSWANA_KWENENG_KWENENG EAST_KGOPE,25.90730765578967,-24.309697924278826,Botswana,BC,2.5523607655829594,10
0431,BOTSWANA_KWENENG_KWENENG EAST_KOPONG,25.870465764300775,-24.444158127481042,Botswana,BC,7.329372128664963,10
0432,BOTSWANA_KWENENG_KWENENG EAST_KUBUNG,25.360366076259005,-24.614971635386656,Botswana,BC,0.10124986619767017,10
0433,BOTSWANA_KWENENG_KWENENG EAST_KUMAKWANE,25.672697196778568,-24.673575670712168,Botswana,BC,4.069784767402758,10
0434,BOTSWANA_KWENENG_KWENENG EAST_KWENENG,25.828354177294415,-23.852566021088684,Botswana,BC,3.7431875338918474,10
0435,BOTSWANA_KWENENG_KWENENG EAST_LENTSWELETAU,25.870136138465416,-24.167826671475748,Botswana,BC,8.53885709881165,10
0436,BOTSWANA_KWENENG_KWENENG EAST_LEOLOGANE,25.64433800339369,-23.434433772014575,Botswana,BC,2.6008778889428377,10
0437,BOTSWANA_KWENENG_KWENENG EAST_LEPHEPHE,25.894174284633333,-23.40765559827626,Botswana,BC,1.3004410046385424,10
0438,BOTSWANA_KWENENG_KWENENG EAST_LOSILAKGOKONG,25.34988894663335,-24.571135771940597,Botswana,BC,0.0023006275088151237,10
0439,BOTSWANA_KWENENG_KWENENG EAST_MAHETLWE,25.665185137212088,-24.23905297400607,Botswana,BC,22.881216681801902,10
0440,BOTSWANA_KWENENG_KWENENG EAST_MEDIE,25.874565240962703,-24.031116366980243,Botswana,BC,0.4538807014685552,10
0441,BOTSWANA_KWENENG_KWENENG EAST_METSIMOTLHABE,25.814813747961594,-24.57843758628985,Botswana,BC,6.9800839836051285,10
0442,BOTSWANA_KWENENG_KWENENG EAST_MMANKGODI,25.623117562536567,-24.72944762315122,Botswana,BC,2.614585739310829,10
0443,BOTSWANA_KWENENG_KWENENG EAST_MMANOKO,25.64934009640395,-24.42250311648915,Botswana,BC,2.4113347427307206,10
0444,BOTSWANA_KWENENG_KWENENG EAST_MMATSETA,25.85895904561137,-24.512431056468085,Botswana,BC,0.9388505172063816,10
0445,BOTSWANA_KWENENG_KWENENG EAST_MMOPANE,25.831916673401516,-24.543107056933852,Botswana,BC,20.042652895538943,10
0446,BOTSWANA_KWENENG_KWENENG EAST_MOGODITSHANE,25.85842184630358,-24.60738400491993,Botswana,BC,16.254882387156627,10
0447,BOTSWANA_KWENENG_KWENENG EAST_MOGONONO,25.577935957073354,-24.234385269062876,Botswana,BC,3.4341572475238342,10
0448,BOTSWANA_KWENENG_KWENENG EAST_MOKOLODI,25.81603234528639,-24.697241109077822,Botswana,BC,1.718655522934662,10
0449,BOTSWANA_KWENENG_KWENENG EAST_MOLEPOLOLE,25.5497055386965,-24.395542548425816,Botswana,BC,45.835435300309136,10
0450,BOTSWANA_KWENENG_KWENENG EAST_RAMAPHATLE,25.61446897045962,-24.70394371590776,Botswana,BC,1.043264439858826,10
0451,BOTSWANA_KWENENG_KWENENG EAST_SHADISHADI,25.6542773445706,-23.631687537826256,Botswana,BC,4.259775269175228,10
0452,BOTSWANA_KWENENG_KWENENG EAST_SOJWE,25.81060306743436,-23.447805731300946,Botswana,BC,6.627502179281491,10
0453,BOTSWANA_KWENENG_KWENENG EAST_THAMAGA,25.512202536353346,-24.636709032733712,Botswana,BC,6.214534458430092,10
0454,BOTSWANA_KWENENG_KWENENG EAST_TLOANENG,25.718436819740113,-24.748830124610986,Botswana,BC,0.5950508625907085,10
0455,BOTSWANA_KWENENG_KWENENG WEST_BOTLHAPATLOU,25.49433742402101,-23.950964377275472,Botswana,BC,0.32887472923797095,10
0456,BOTSWANA_KWENENG_KWENENG WEST_DIPHUDUHUDU,25.361313831639055,-23.66424037279965,Botswana,BC,0.43720481843077974,10
0457,BOTSWANA_KWENENG_KWENENG WEST_DITSHEGWANE,24.967494356636315,-24.325453739104706,Botswana,BC,1.4488413970853644,10
0458,BOTSWANA_KWENENG_KWENENG WEST_DUTLWE,24.010209606049106,-24.0766543302552,Botswana,BC,6.930586418846924,10
0459,BOTSWANA_KWENENG_KWENENG WEST_KAUDWANE,24.659436878890112,-23.367661970601763,Botswana,BC,0.03160601717205601,10
0460,BOTSWANA_KWENENG_KWENENG WEST_KHUDUMELAPYE,25.170144578603114,-23.791371348563107,Botswana,BC,1.0146866015042424,10
0461,BOTSWANA_KWENENG_KWENENG WEST_KOTOLANAME,25.344981106952105,-24.426360101349005,Botswana,BC,3.883986473907197,10
0462,BOTSWANA_KWENENG_KWENENG WEST_LETLHAKENG,25.055504504543418,-24.07736578153483,Botswana,BC,21.12968978805372,10
0463,BOTSWANA_KWENENG_KWENENG WEST_MABOANE,24.62981126929652,-24.01531720256432,Botswana,BC,10.667256115982788,10
0464,BOTSWANA_KWENENG_KWENENG WEST_MALWELWE,25.388569305562967,-24.124123864830562,Botswana,BC,0.04361658912043422,10
0465,BOTSWANA_KWENENG_KWENENG WEST_MANTSHWABISI,25.20948564723073,-24.090430074502226,Botswana,BC,1.5061254480041868,10
0466,BOTSWANA_KWENENG_KWENENG WEST_MARATSHWANE,25.27943300340971,-24.00543002229499,Botswana,BC,0.2058191270479185,10
0467,BOTSWANA_KWENENG_KWENENG WEST_METSIBOTLHOKO,24.88334535341407,-24.02100921043726,Botswana,BC,0.8675166519997982,10
0468,BOTSWANA_KWENENG_KWENENG WEST_MONWANE,25.208167783087692,-24.31675483950471,Botswana,BC,0.014837903088555534,10
0469,BOTSWANA_KWENENG_KWENENG WEST_MOSHAWENG,25.126758323030916,-24.50223959697767,Botswana,BC,0.2560445071249682,10
0470,BOTSWANA_KWENENG_KWENENG WEST_MOTOKWE,23.393326314118752,-23.949217767767472,Botswana,BC,16.95022249590721,10
0471,BOTSWANA_KWENENG_KWENENG WEST_NGWARE,25.472317051558928,-23.407189666362918,Botswana,BC,6.778802641521157,10
0472,BOTSWANA_KWENENG_KWENENG WEST_SALAJWE,24.700069233188845,-23.586968168257275,Botswana,BC,11.316717266063186,10
0473,BOTSWANA_KWENENG_KWENENG WEST_SERINANE,25.19951548113084,-24.18969812658127,Botswana,BC,0.2781534343583549,10
0474,BOTSWANA_KWENENG_KWENENG WEST_SESUNG,24.920484389582054,-24.098764991625394,Botswana,BC,0.19222333851099457,10
0475,BOTSWANA_KWENENG_KWENENG WEST_SORILATHOLO,25.06367528301778,-23.48111009752001,Botswana,BC,1.4141674312222428,10
0476,BOTSWANA_KWENENG_KWENENG WEST_TAKATOKWANE,24.333986142124967,-23.897263235861104,Botswana,BC,165.26380974626252,10
0477,BOTSWANA_KWENENG_KWENENG WEST_THEBEPHATSHWA,25.33911813426609,-24.229770927348877,Botswana,BC,2.5440847582242196,10
0478,BOTSWANA_KWENENG_KWENENG WEST_TSETSENG,23.346608409362428,-23.556625874898454,Botswana,BC,186.7277393794685,10
0479,BOTSWANA_KWENENG_KWENENG WEST_TSWAANE,23.844303310573697,-23.677953470418096,Botswana,BC,159.85873851431336,10
0480,BOTSWANA_LOBATSE_LOBATSE_LOBATSE,25.680222039240462,-25.21156716052995,Botswana,BC,1.4471644635585894,10
0481,BOTSWANA_NORTH EAST_NORTH EAST_BOTALAOTE,27.23593919430158,-20.74011790617292,Botswana,BC,0.05753397751606813,10
0482,BOTSWANA_NORTH EAST_NORTH EAST_BUTALE,27.676071500645865,-20.656116388620305,Botswana,BC,0.49764615720782096,10
0483,BOTSWANA_NORTH EAST_NORTH EAST_DITLADI,27.593853189898606,-21.357392846398774,Botswana,BC,12.95339065002978,10
0484,BOTSWANA_NORTH EAST_NORTH EAST_GAMBULE,27.39900708699297,-20.563127167228444,Botswana,BC,0.22903581177726473,10
0485,BOTSWANA_NORTH EAST_NORTH EAST_GULUBANE,27.31358281638026,-20.901873558761327,Botswana,BC,0.8888341109249746,10
0486,BOTSWANA_NORTH EAST_NORTH EAST_GUNGWE,27.38271596277986,-20.484327285782342,Botswana,BC,0.15454372869599126,10
0487,BOTSWANA_NORTH EAST_NORTH EAST_HASKINS FARM,27.53856707842432,-20.942088468645853,Botswana,BC,2.6790223729213776,10
0488,BOTSWANA_NORTH EAST_NORTH EAST_JACKALAS 1,27.70190501415433,-20.551898920198756,Botswana,BC,2.435444661003338,10
0489,BOTSWANA_NORTH EAST_NORTH EAST_JACKALAS 2,27.684263288454705,-20.943529822684937,Botswana,BC,0.20767357873336906,10
0490,BOTSWANA_NORTH EAST_NORTH EAST_JOHANNES KACHEJOHN,27.416370017173527,-21.032990996945774,Botswana,BC,17.443078821504894,10
0491,BOTSWANA_NORTH EAST_NORTH EAST_KALAKAMATI,27.325085093746505,-20.616599567778596,Botswana,BC,0.054530893065002604,10
0492,BOTSWANA_NORTH EAST_NORTH EAST_KGARI,27.62095491247424,-20.59772226024511,Botswana,BC,0.16697530588115142,10
0493,BOTSWANA_NORTH EAST_NORTH EAST_LETSHOLATHEBE,27.42289424926035,-20.718374886141437,Botswana,BC,2.0099375027210717,10
0494,BOTSWANA_NORTH EAST_NORTH EAST_MABUDZANE,27.65030964853915,-20.906207513366976,Botswana,BC,0.7032485097173427,10
0495,BOTSWANA_NORTH EAST_NORTH EAST_MAKALENG,27.285094240822392,-20.79040562603129,Botswana,BC,0.5411583770880654,10
0496,BOTSWANA_NORTH EAST_NORTH EAST_MAMBO,27.339806500913884,-20.78191758239405,Botswana,BC,0.143551337206702,10
0497,BOTSWANA_NORTH EAST_NORTH EAST_MAPOKA,27.583403081931646,-20.534321559571424,Botswana,BC,0.936791204005625,10
0498,BOTSWANA_NORTH EAST_NORTH EAST_MASINGWANENG,27.31796380391279,-20.837868143226277,Botswana,BC,0.5705858796444352,10
0499,BOTSWANA_NORTH EAST_NORTH EAST_MASUKWANE,27.54938882946871,-20.590964331617293,Botswana,BC,0.06726565195738801,10
0500,BOTSWANA_NORTH EAST_NORTH EAST_MASUNGA,27.434400286669504,-20.627325508955153,Botswana,BC,1.3158125867018255,10
0501,BOTSWANA_NORTH EAST_NORTH EAST_MATENGE,27.243163563094196,-20.824890359812834,Botswana,BC,1.038854391667697,10
0502,BOTSWANA_NORTH EAST_NORTH EAST_MATSHELAGABEDI,27.625910201894996,-21.12872037207013,Botswana,BC,22.10246813004826,10
0503,BOTSWANA_NORTH EAST_NORTH EAST_MATSILOJE,27.79748603303526,-21.272615331495285,Botswana,BC,10.288041403238623,10
0504,BOTSWANA_NORTH EAST_NORTH EAST_MBALAMBI,27.339335713407475,-20.51403109309788,Botswana,BC,0.8238876550675454,10
0505,BOTSWANA_NORTH EAST_NORTH EAST_MOROKA,27.64533883665974,-20.526246843989444,Botswana,BC,0.7754056043777073,10
0506,BOTSWANA_NORTH EAST_NORTH EAST_MOSOJANE,27.510648322475955,-20.605682710993673,Botswana,BC,0.999877458159146,10
0507,BOTSWANA_NORTH EAST_NORTH EAST_MOWANA,27.63647955779588,-20.777830273205144,Botswana,BC,0.6187237917051013,10
0508,BOTSWANA_NORTH EAST_NORTH EAST_MULAMBAKWENA,27.46594067350093,-20.57301251814986,Botswana,BC,0.37659108201842545,10
0509,BOTSWANA_NORTH EAST_NORTH EAST_NLAKHWANE,27.517632990383536,-20.518539158214796,Botswana,BC,1.040996878195377,10
0510,BOTSWANA_NORTH EAST_NORTH EAST_PATAYAMATEBELE,27.737992823316166,-21.4643350004061,Botswana,BC,1.6376816359465372,10
0511,BOTSWANA_NORTH EAST_NORTH EAST_POLE,27.574132779023316,-20.610493660531436,Botswana,BC,0.1597494154427042,10
0512,BOTSWANA_NORTH EAST_NORTH EAST_RAMOKGWEBANA,27.662924110656288,-20.583729469679355,Botswana,BC,0.38438426975909845,10
0513,BOTSWANA_NORTH EAST_NORTH EAST_SECHELE,27.38485539651099,-20.797350422844442,Botswana,BC,0.8746444358042361,10
0514,BOTSWANA_NORTH EAST_NORTH EAST_SEKAKANGWE,27.324905899544337,-20.566292847964146,Botswana,BC,0.051701185230363655,10
0515,BOTSWANA_NORTH EAST_NORTH EAST_SENYAWE,27.6781087349486,-20.734971000867784,Botswana,BC,2.2146625795579364,10
0516,BOTSWANA_NORTH EAST_NORTH EAST_SHASHE BRIDGE,27.441314891279994,-21.258844535487142,Botswana,BC,13.089786716653327,10
0517,BOTSWANA_NORTH EAST_NORTH EAST_SIVIYA,27.69697685871457,-20.82969467830003,Botswana,BC,1.3348094310579672,10
0518,BOTSWANA_NORTH EAST_NORTH EAST_TATI SIDING,27.46845579652601,-21.26452617148856,Botswana,BC,1.1016299867127965,10
0519,BOTSWANA_NORTH EAST_NORTH EAST_THEMASHANGA,27.55069700154272,-20.72636426785868,Botswana,BC,4.174528527528512,10
0520,BOTSWANA_NORTH EAST_NORTH EAST_TOTENG,27.270345176482714,-20.719997560519936,Botswana,BC,0.4925463038665464,10
0521,BOTSWANA_NORTH EAST_NORTH EAST_TSAMAYA,27.65197854641795,-20.83445747757975,Botswana,BC,0.49030295459629214,10
0522,BOTSWANA_NORTH EAST_NORTH EAST_TSHESEBE,27.60488659969322,-20.718620239818698,Botswana,BC,0.34438389660168306,10
0523,BOTSWANA_NORTH EAST_NORTH EAST_VUKWI,27.38708622858749,-20.607139935771677,Botswana,BC,0.1063026164439696,10
0524,BOTSWANA_NORTH EAST_NORTH EAST_ZWENSHAMBE,27.448183551665426,-20.504176199278817,Botswana,BC,2.308217513812973,10
0525,BOTSWANA_NORTH WEST_NGAMILAND DELTA_NGAMILAND DELTA,22.960336814344046,-19.43828751092393,Botswana,BC,226.51030816172883,10
0526,BOTSWANA_NORTH WEST_NGAMILAND EAST_BODIBENG,22.600564390842983,-20.54248828687454,Botswana,BC,1.1143724363245553,10
0527,BOTSWANA_NORTH WEST_NGAMILAND EAST_BOTLHATLOGO,22.726763405990695,-20.74674723011069,Botswana,BC,7.282859979983396,10
0528,BOTSWANA_NORTH WEST_NGAMILAND EAST_CHANOGA,23.67422168898431,-20.16363542170472,Botswana,BC,0.08999581115629653,10
0529,BOTSWANA_NORTH WEST_NGAMILAND EAST_HABU,22.399450144071537,-19.835986974771608,Botswana,BC,0,10
0530,BOTSWANA_NORTH WEST_NGAMILAND EAST_KARENG,22.300472651793307,-20.754601900098116,Botswana,BC,5.212767551975861,10
0531,BOTSWANA_NORTH WEST_NGAMILAND EAST_KGAKGE/MAKAKUNG,22.500435832111794,-20.540049424101177,Botswana,BC,0.39152830021225254,10
0532,BOTSWANA_NORTH WEST_NGAMILAND EAST_KOMANA,23.23556501767629,-20.197324460737033,Botswana,BC,0.10544352067801442,10
0533,BOTSWANA_NORTH WEST_NGAMILAND EAST_MABABE,23.997011922196286,-19.182027762406623,Botswana,BC,0.2644026367116408,10
0534,BOTSWANA_NORTH WEST_NGAMILAND EAST_MAKALAMABEDI,23.41521287773188,-20.67081042197008,Botswana,BC,0.22064754530377426,10
0535,BOTSWANA_NORTH WEST_NGAMILAND EAST_MATLAPANA,23.546036955690333,-19.921555467159827,Botswana,BC,1.994548012818545,10
0536,BOTSWANA_NORTH WEST_NGAMILAND EAST_MATSAUDI/SAKAPNAE,23.675283205409393,-19.806194245710948,Botswana,BC,0.1712907369239972,10
0537,BOTSWANA_NORTH WEST_NGAMILAND EAST_MAUN,24.199903111118402,-19.619553541252102,Botswana,BC,61.01602072072264,10
0538,BOTSWANA_NORTH WEST_NGAMILAND EAST_PHUDUHUDU,24.645957266286953,-20.051304523225582,Botswana,BC,32.94397779211796,10
0539,BOTSWANA_NORTH WEST_NGAMILAND EAST_SANKUYO,23.881724902731463,-19.421659901868495,Botswana,BC,0.20621416230402356,10
0540,BOTSWANA_NORTH WEST_NGAMILAND EAST_SEHITHWA,22.677793302639653,-20.237066774603015,Botswana,BC,3.68471140844793,10
0541,BOTSWANA_NORTH WEST_NGAMILAND EAST_SEMBOYO,22.27649485221952,-20.354376077745215,Botswana,BC,2.595153362753993,10
0542,BOTSWANA_NORTH WEST_NGAMILAND EAST_SHOROBE,23.712796248799126,-19.11296691544541,Botswana,BC,58.16108250619501,10
0543,BOTSWANA_NORTH WEST_NGAMILAND EAST_TOTENG,22.999306808598018,-20.32082005396448,Botswana,BC,7.34927946787299,10
0544,BOTSWANA_NORTH WEST_NGAMILAND EAST_TSAO,22.28659245098526,-20.02090488822863,Botswana,BC,0.7799405660028419,10
0545,BOTSWANA_NORTH WEST_NGAMILAND WEST_BEETSHA,22.953920477145694,-18.380166226946653,Botswana,BC,156.58124537775132,10
0546,BOTSWANA_NORTH WEST_NGAMILAND WEST_CHUKUMUCHU,21.598703917965935,-18.74824397962615,Botswana,BC,49.44233637475886,10
0547,BOTSWANA_NORTH WEST_NGAMILAND WEST_ERETSHA,22.86584821151028,-18.79052805025673,Botswana,BC,6.56202879890091,10
0548,BOTSWANA_NORTH WEST_NGAMILAND WEST_ETSHA 1,22.224044369783737,-19.242642574470672,Botswana,BC,66.44884019556274,10
0549,BOTSWANA_NORTH WEST_NGAMILAND WEST_ETSHA 13,22.229743070714033,-19.017116669937373,Botswana,BC,49.09959853804541,10
0550,BOTSWANA_NORTH WEST_NGAMILAND WEST_ETSHA 6,22.229066360329956,-19.108258691269373,Botswana,BC,64.46306551867441,10
0551,BOTSWANA_NORTH WEST_NGAMILAND WEST_GANI,21.444696927418082,-18.405419080628068,Botswana,BC,36.14632045331089,10
0552,BOTSWANA_NORTH WEST_NGAMILAND WEST_GONUTSUGA,22.59253926092765,-18.87801840211525,Botswana,BC,14.54572522327675,10
0553,BOTSWANA_NORTH WEST_NGAMILAND WEST_GUDINGWA,22.905784262247845,-18.563529796191204,Botswana,BC,0.39403232577668096,10
0554,BOTSWANA_NORTH WEST_NGAMILAND WEST_GUMARE,22.131570836874936,-19.394550571792966,Botswana,BC,2.4666020826387647,10
0555,BOTSWANA_NORTH WEST_NGAMILAND WEST_IKOGA,22.218249775302052,-18.888300198172978,Botswana,BC,17.756899635239545,10
0556,BOTSWANA_NORTH WEST_NGAMILAND WEST_KAJAJA,21.992248859877353,-18.703015404036154,Botswana,BC,3.225995697006599,10
0557,BOTSWANA_NORTH WEST_NGAMILAND WEST_KAUXWHI,21.93273566781973,-18.270501890330234,Botswana,BC,6.302903227523697,10
0558,BOTSWANA_NORTH WEST_NGAMILAND WEST_MOGOMOTHO,22.252300749707768,-18.492510662073524,Botswana,BC,10.524411842472912,10
0559,BOTSWANA_NORTH WEST_NGAMILAND WEST_MOHEMBO EAST,21.802957716080922,-18.266524959816728,Botswana,BC,0.9169636751705549,10
0560,BOTSWANA_NORTH WEST_NGAMILAND WEST_MOHEMBO WEST,21.66725143544976,-18.312119665836942,Botswana,BC,6.558873220954084,10
0561,BOTSWANA_NORTH WEST_NGAMILAND WEST_MOKGACHA,22.28535493171085,-18.701773297683296,Botswana,BC,1.5128565636504745,10
0562,BOTSWANA_NORTH WEST_NGAMILAND WEST_NGARANGE,22.04454772324353,-18.490470871633665,Botswana,BC,4.392748891810914,10
0563,BOTSWANA_NORTH WEST_NGAMILAND WEST_NOKANENG,22.21151988099178,-19.64313399653268,Botswana,BC,0.8120666271523672,10
0564,BOTSWANA_NORTH WEST_NGAMILAND WEST_NXAMASERE,21.95986197574487,-18.61796345462013,Botswana,BC,1.9543575471721502,10
0565,BOTSWANA_NORTH WEST_NGAMILAND WEST_NXAUNXAU,21.351524290127983,-18.90359537023587,Botswana,BC,131.24085275412452,10
0566,BOTSWANA_NORTH WEST_NGAMILAND WEST_QANGWA,21.56450523279803,-19.49744243797423,Botswana,BC,83.05441371386259,10
0567,BOTSWANA_NORTH WEST_NGAMILAND WEST_SAMOCHEMA,21.807530849136374,-18.491110966045003,Botswana,BC,1.8194498359368114,10
0568,BOTSWANA_NORTH WEST_NGAMILAND WEST_SEKONDOMBORO,22.116154551020507,-18.31395834682349,Botswana,BC,5.981080144807643,10
0569,BOTSWANA_NORTH WEST_NGAMILAND WEST_SEPOPA,22.058884839789098,-18.787426270755017,Botswana,BC,7.815087464053333,10
0570,BOTSWANA_NORTH WEST_NGAMILAND WEST_SERONGA,22.432137134077763,-18.68657047380979,Botswana,BC,16.588253012149323,10
0571,BOTSWANA_NORTH WEST_NGAMILAND WEST_SHAKAWE,21.734262044931864,-18.42525466967516,Botswana,BC,13.705853946466522,10
0572,BOTSWANA_NORTH WEST_NGAMILAND WEST_TUBU,22.343676013963407,-19.42290273539071,Botswana,BC,1.5569254847432867,10
0573,BOTSWANA_NORTH WEST_NGAMILAND WEST_XAKAO,21.89184146965982,-18.35122741006872,Botswana,BC,10.949228227791524,10
0574,BOTSWANA_NORTH WEST_NGAMILAND WEST_XAXA,21.481474650920102,-20.367126109392327,Botswana,BC,127.5119997849342,10
0575,BOTSWANA_NORTH WEST_NGAMILAND WEST_XHAUGA,21.8600876919785,-18.555460050065392,Botswana,BC,2.271048001412864,10
0576,BOTSWANA_ORAPA_ORAPA_ORAPA,25.3996206036354,-21.263370671233456,Botswana,BC,4.048322344149263,10
0577,BOTSWANA_SELIBE PHIKWE_SELIBE PHIKWE_SELIBE PHIKWE,27.837207638783738,-21.958685691075345,Botswana,BC,16.554071091851505,10
0578,BOTSWANA_SOUTH EAST_SOUTH EAST_DOORN LAAGTE,25.651786031535003,-25.28255683886919,Botswana,BC,5.525549869779438,10
0579,BOTSWANA_SOUTH EAST_SOUTH EAST_HILDAVALE,25.616656741956373,-25.403085615302597,Botswana,BC,4.624343470375823,10
0580,BOTSWANA_SOUTH EAST_SOUTH EAST_LOBATSE ESTATES,25.699833727272946,-25.141969237065187,Botswana,BC,2.8173163595796358,10
0581,BOTSWANA_SOUTH EAST_SOUTH EAST_MOGOBANE,25.702998989332475,-24.943145974483425,Botswana,BC,3.4250441415060284,10
0582,BOTSWANA_SOUTH EAST_SOUTH EAST_OTSE,25.756324039083623,-25.045000276937234,Botswana,BC,5.630759531864013,10
0583,BOTSWANA_SOUTH EAST_SOUTH EAST_RAMOTSWA,25.829789056966593,-24.901951101856636,Botswana,BC,5.707860413458512,10
0584,BOTSWANA_SOUTH EAST_SOUTH EAST_RAMOTSWA STATION/TAUNG,25.770154438973417,-24.815461657589147,Botswana,BC,2.290405374826421,10
0585,BOTSWANA_SOUTH EAST_SOUTH EAST_TLOKWENG,26.035546995861406,-24.647763400719953,Botswana,BC,45.27855865464673,10
0586,BOTSWANA_SOUTHERN_BAROLONG_BETHEL,25.523180210457173,-25.455324991549087,Botswana,BC,0.4013893992667018,10
0587,BOTSWANA_SOUTHERN_BAROLONG_BOROBADILEPE,25.45763854772069,-25.624399960180156,Botswana,BC,0.8137354487969838,10
0588,BOTSWANA_SOUTHERN_BAROLONG_DIGAWANA,25.554337853260883,-25.336847733509767,Botswana,BC,0.6566683300035147,10
0589,BOTSWANA_SOUTHERN_BAROLONG_DIKHUKHUNG,24.885447065593745,-25.800063981646993,Botswana,BC,0.04442943666935965,10
0590,BOTSWANA_SOUTHERN_BAROLONG_DINATSHANA,25.561032468363326,-25.459552008174736,Botswana,BC,0.6994041292150954,10
0591,BOTSWANA_SOUTHERN_BAROLONG_DITLHARAPA,25.26534775604463,-25.74503088773403,Botswana,BC,0.8485152697001289,10
0592,BOTSWANA_SOUTHERN_BAROLONG_GAMAJALELA,25.422867167043186,-25.383535663638526,Botswana,BC,0.8646622801161568,10
0593,BOTSWANA_SOUTHERN_BAROLONG_GATHWANE,25.50825122582933,-25.39225799661276,Botswana,BC,0.27032635840387076,10
0594,BOTSWANA_SOUTHERN_BAROLONG_GOOD HOPE,25.425540411603592,-25.474044252271263,Botswana,BC,3.110204088149002,10
0595,BOTSWANA_SOUTHERN_BAROLONG_HEBRON,25.41118276541949,-25.696194884502404,Botswana,BC,1.0375335023205854,10
0596,BOTSWANA_SOUTHERN_BAROLONG_KANGWE,25.079061936844482,-25.406209192834304,Botswana,BC,0.01664354520552833,10
0597,BOTSWANA_SOUTHERN_BAROLONG_KGORO,25.486735775180065,-25.453486474188907,Botswana,BC,1.7586828614350964,10
0598,BOTSWANA_SOUTHERN_BAROLONG_LEJWANA,25.53432726709042,-25.415801471703258,Botswana,BC,0.2544253995212083,10
0599,BOTSWANA_SOUTHERN_BAROLONG_LEPORUNG,25.008424229579703,-25.672891074188268,Botswana,BC,2.425951330582406,10
0600,BOTSWANA_SOUTHERN_BAROLONG_LOGAGANE,25.398915672259538,-25.611615010488325,Botswana,BC,1.0220110802480353,10
0601,BOTSWANA_SOUTHERN_BAROLONG_LORWANA,25.502074910123632,-25.286996269753118,Botswana,BC,0.6995534666969809,10
0602,BOTSWANA_SOUTHERN_BAROLONG_MABULE,24.537508834961965,-25.73692702390118,Botswana,BC,1.504435818587268,10
0603,BOTSWANA_SOUTHERN_BAROLONG_MADINGWANA,25.481261650329014,-25.576730325456165,Botswana,BC,2.127813556586277,10
0604,BOTSWANA_SOUTHERN_BAROLONG_MAGORIAPITSE,25.27977947866948,-25.44137079227652,Botswana,BC,0.8366117034409184,10
0605,BOTSWANA_SOUTHERN_BAROLONG_MAKOKWE,25.475459011292934,-25.66937770824479,Botswana,BC,0.5702253750773963,10
0606,BOTSWANA_SOUTHERN_BAROLONG_MALOKAGANYANE,25.488358562103294,-25.502299871489452,Botswana,BC,2.4673575210851277,10
0607,BOTSWANA_SOUTHERN_BAROLONG_MAROJANE,25.341901927422153,-25.73640142441916,Botswana,BC,0.3995893659954446,10
0608,BOTSWANA_SOUTHERN_BAROLONG_METLOBO,25.124348846065626,-25.39253659443453,Botswana,BC,0.02083184920729731,10
0609,BOTSWANA_SOUTHERN_BAROLONG_METLOJANE,25.375187769980677,-25.552026515853672,Botswana,BC,4.716155564472171,10
0610,BOTSWANA_SOUTHERN_BAROLONG_MMAKGORI,24.800927173643334,-25.789358109184104,Botswana,BC,0.16718277130086506,10
0611,BOTSWANA_SOUTHERN_BAROLONG_MMATHETHE,25.16245192169214,-25.332818623646105,Botswana,BC,6.042643736767534,10
0612,BOTSWANA_SOUTHERN_BAROLONG_MOGOJOGOJO,25.472237292279374,-25.35846674488226,Botswana,BC,5.292961954887943,10
0613,BOTSWANA_SOUTHERN_BAROLONG_MOGWALALE,25.3618167413177,-25.480322244471722,Botswana,BC,2.1918047751626824,10
0614,BOTSWANA_SOUTHERN_BAROLONG_MOKATAKO,25.21324864044004,-25.72876284416883,Botswana,BC,1.4144375912888094,10
0615,BOTSWANA_SOUTHERN_BAROLONG_MOKGOMANE,25.21261347084866,-25.518245387897743,Botswana,BC,3.045199999759868,10
0616,BOTSWANA_SOUTHERN_BAROLONG_MOLETE,25.308791189937068,-25.671084438672697,Botswana,BC,0.5615436419210369,10
0617,BOTSWANA_SOUTHERN_BAROLONG_MOTSENTSHE,25.375726428046065,-25.379180264622413,Botswana,BC,0.14695745095615179,10
0618,BOTSWANA_SOUTHERN_BAROLONG_MUSI,25.08334912114238,-25.688286393457503,Botswana,BC,1.441955660801058,10
0619,BOTSWANA_SOUTHERN_BAROLONG_NGWATSAU,25.540401017789634,-25.553981728114238,Botswana,BC,1.3176673625581816,10
0620,BOTSWANA_SOUTHERN_BAROLONG_PAPATLO,25.50091785142035,-25.65156471920203,Botswana,BC,0.8852059700635228,10
0621,BOTSWANA_SOUTHERN_BAROLONG_PHIHITSHWANE,25.414087664638753,-25.65601906088651,Botswana,BC,0.5410048502499456,10
0622,BOTSWANA_SOUTHERN_BAROLONG_PITSANA-POTOKWE,25.556580548078113,-25.50806204359263,Botswana,BC,1.2995237404808133,10
0623,BOTSWANA_SOUTHERN_BAROLONG_PITSANE SIDING,25.604250914974468,-25.46943866185844,Botswana,BC,0.8636986473583174,10
0624,BOTSWANA_SOUTHERN_BAROLONG_PITSHANE MOLOPO,25.119834443362777,-25.744597939849236,Botswana,BC,0.5226792652937473,10
0625,BOTSWANA_SOUTHERN_BAROLONG_RAKHUNA,25.578883997684116,-25.582003199973805,Botswana,BC,2.1903026992063506,10
0626,BOTSWANA_SOUTHERN_BAROLONG_RAMATLABAMA,25.542590563183143,-25.63663806930263,Botswana,BC,2.6750118370332556,10
0627,BOTSWANA_SOUTHERN_BAROLONG_SEDIBENG,25.16840936243981,-25.684656039464652,Botswana,BC,2.5966088024858998,10
0628,BOTSWANA_SOUTHERN_BAROLONG_SEKHUTLANE,24.48911487032339,-25.502857393367236,Botswana,BC,0.41109717534317913,10
0629,BOTSWANA_SOUTHERN_BAROLONG_SHEEP FARM,25.494453226915,-25.550549245917278,Botswana,BC,0.5508537675657318,10
0630,BOTSWANA_SOUTHERN_BAROLONG_TLHARESELEELE,25.6164016549552,-25.509947342258574,Botswana,BC,1.464770845251561,10
0631,BOTSWANA_SOUTHERN_BAROLONG_TSHIDILAMOLOMO,24.680774921105087,-25.71938467094859,Botswana,BC,1.6607228920238528,10
0632,BOTSWANA_SOUTHERN_BAROLONG_TSWAANENG,24.874731933296207,-25.481179488719636,Botswana,BC,0.49590500232859847,10
0633,BOTSWANA_SOUTHERN_BAROLONG_TSWAGARE/LOTHOJE/LOKALANA,25.32250003507171,-25.608673297419177,Botswana,BC,0.9784998070480999,10
0634,BOTSWANA_SOUTHERN_BAROLONG_TSWANYANENG,25.26289447863055,-25.6163734983762,Botswana,BC,0.9142001806752531,10
0635,BOTSWANA_SOUTHERN_NGWAKETSE WEST_ITHOLOKE,23.49754475940133,-24.802379212464427,Botswana,BC,0.743999289146363,10
0636,BOTSWANA_SOUTHERN_NGWAKETSE WEST_KANAKU,23.536569449983585,-24.292118077279163,Botswana,BC,1.281787072026016,10
0637,BOTSWANA_SOUTHERN_NGWAKETSE WEST_KENG,23.822720476728055,-24.619062130504958,Botswana,BC,2.8038590144630304,10
0638,BOTSWANA_SOUTHERN_NGWAKETSE WEST_KHAKHEA,23.52876267152225,-24.69951083983683,Botswana,BC,37.45297472841811,10
0639,BOTSWANA_SOUTHERN_NGWAKETSE WEST_KHONKHWA,23.935454133373597,-24.46012666914766,Botswana,BC,1.8876007083267434,10
0640,BOTSWANA_SOUTHERN_NGWAKETSE WEST_KOKONG,23.160513999524845,-24.39362019765512,Botswana,BC,0.7372846196429887,10
0641,BOTSWANA_SOUTHERN_NGWAKETSE WEST_KUTUKU,23.639126946319017,-24.680282589894166,Botswana,BC,1.3983939214865293,10
0642,BOTSWANA_SOUTHERN_NGWAKETSE WEST_MABUTSANE,23.705699680104797,-24.459760111464377,Botswana,BC,0.8499679034610982,10
0643,BOTSWANA_SOUTHERN_NGWAKETSE WEST_MAHOTSHWANE,24.187255352450173,-24.38400662626752,Botswana,BC,0,10
0644,BOTSWANA_SOUTHERN_NGWAKETSE WEST_MORWAMOSU,23.122520350392715,-24.153854514850522,Botswana,BC,0.08727280187322702,10
0645,BOTSWANA_SOUTHERN_NGWAKETSE WEST_SEKOMA,24.02445527149606,-24.579997053681147,Botswana,BC,2.3344518580704428,10
0646,BOTSWANA_SOUTHERN_SOUTHERN_BETESANKWE,24.8941696227703,-24.719678878206103,Botswana,BC,1.771125225344593,10
0647,BOTSWANA_SOUTHERN_SOUTHERN_DIABO,25.365536715216567,-25.223190983743812,Botswana,BC,2.8083518267732877,10
0648,BOTSWANA_SOUTHERN_SOUTHERN_DIPOTSANA,25.446292913079866,-25.212561776849554,Botswana,BC,2.1975188701124413,10
0649,BOTSWANA_SOUTHERN_SOUTHERN_GASITA,24.82803541943543,-25.124083589756676,Botswana,BC,0.5085643410584829,10
0650,BOTSWANA_SOUTHERN_SOUTHERN_KANYE,25.289267678855026,-25.048656911618565,Botswana,BC,29.105789306633017,10
0651,BOTSWANA_SOUTHERN_SOUTHERN_KGOMOKASITWA,25.611112091400322,-25.09686032652438,Botswana,BC,1.3128426076303958,10
0652,BOTSWANA_SOUTHERN_SOUTHERN_LEFOKO,24.690111852640598,-24.8470312136434,Botswana,BC,0.5139362674804969,10
0653,BOTSWANA_SOUTHERN_SOUTHERN_LEKGOLOBOTLO,25.61615083241098,-24.885307065481175,Botswana,BC,0.40600476930539453,10
0654,BOTSWANA_SOUTHERN_SOUTHERN_LOROLWANA,24.459937704580028,-25.2535967198016,Botswana,BC,0.11730121706906967,10
0655,BOTSWANA_SOUTHERN_SOUTHERN_LOTLHAKANE,25.435707774440367,-25.08771727806122,Botswana,BC,1.814279397951969,10
0656,BOTSWANA_SOUTHERN_SOUTHERN_LOTLHAKANE WEST,25.295371153997333,-24.784930431562245,Botswana,BC,0.6907460949958933,10
0657,BOTSWANA_SOUTHERN_SOUTHERN_MAGOTLHWANE,25.599116726068054,-24.996853415826646,Botswana,BC,0.2056174128767007,10
0658,BOTSWANA_SOUTHERN_SOUTHERN_MANYANA,25.574934396304805,-24.79875482887838,Botswana,BC,3.5441685407674597,10
0659,BOTSWANA_SOUTHERN_SOUTHERN_MAOKANE,24.649164740852807,-24.988391174828216,Botswana,BC,0.016341796741931536,10
0660,BOTSWANA_SOUTHERN_SOUTHERN_MOGONYE,25.67857687556797,-24.842313481878563,Botswana,BC,0.07482248083478556,10
0661,BOTSWANA_SOUTHERN_SOUTHERN_MOKHOMBA,24.61814743618357,-24.716762968297573,Botswana,BC,6.674706792536097,10
0662,BOTSWANA_SOUTHERN_SOUTHERN_MOLAPOWABOJANG,25.545639385657516,-25.196418239986023,Botswana,BC,4.75160207972928,10
0663,BOTSWANA_SOUTHERN_SOUTHERN_MOSHANENG,25.208444254843652,-24.835326824262772,Botswana,BC,1.808356095417923,10
0664,BOTSWANA_SOUTHERN_SOUTHERN_MOSHUPA,25.42468410253782,-24.802239950537796,Botswana,BC,9.53164028907767,10
0665,BOTSWANA_SOUTHERN_SOUTHERN_NTLHANTLHE,25.563433827213757,-25.01680148927233,Botswana,BC,2.3553808134503282,10
0666,BOTSWANA_SOUTHERN_SOUTHERN_PITSENG,25.026961859107356,-24.671811025950742,Botswana,BC,0.2765906248024844,10
0667,BOTSWANA_SOUTHERN_SOUTHERN_RALEKGETHO,25.153983418889254,-24.651674927885143,Botswana,BC,0.06185350501347349,10
0668,BOTSWANA_SOUTHERN_SOUTHERN_RANAKA,25.49210433716248,-24.953019551938723,Botswana,BC,2.22976501140048,10
0669,BOTSWANA_SOUTHERN_SOUTHERN_SEGWAGWA,25.154246986825143,-25.20370107041337,Botswana,BC,4.201024613123707,10
0670,BOTSWANA_SOUTHERN_SOUTHERN_SEHERELELA,24.966365412487043,-24.85255338029039,Botswana,BC,0.15941998599158927,10
0671,BOTSWANA_SOUTHERN_SOUTHERN_SELOKOLELA,25.08619153157018,-25.012511421456256,Botswana,BC,0.14780822340557492,10
0672,BOTSWANA_SOUTHERN_SOUTHERN_SEMANE,24.36060822534978,-24.5838070534333,Botswana,BC,4.973398598687121,10
0673,BOTSWANA_SOUTHERN_SOUTHERN_SESE,24.837457767676273,-24.623316789302145,Botswana,BC,15.051978862503633,10
0674,BOTSWANA_SOUTHERN_SOUTHERN_SESUNG,25.085978537640155,-24.864295490303654,Botswana,BC,0.02178816033554755,10
0675,BOTSWANA_SOUTHERN_SOUTHERN_TLHANKANE,24.375461207737164,-24.957536336747538,Botswana,BC,0.005400874637940487,10
0676,BOTSWANA_SOUTHERN_SOUTHERN_TSHWAANE,25.273421585713766,-24.711641454327474,Botswana,BC,0.7525319522119243,10
0677,BOTSWANA_SOUTHERN_SOUTHERN_TSONYANE,24.813855404067922,-24.839469110997843,Botswana,BC,11.277026543424336,10
0678,BOTSWANA_SOWA TOWN_SOWA TOWN_SOWA TOWN,26.205474065724133,-20.525655504329873,Botswana,BC,3.4309245077200528,10
0679,BOTSWANA_NORTH WEST_NGAMILAND WEST_TOBERE,22.060761168763293,-18.2277220943275,Botswana,BC,1.489088691708886,10
0680,BOTSWANA_FRANCISTOWN_FRANCISTOWN_FRANCISTOWN,27.527173396825056,-21.15325240029203,Botswana,BC,13.525759176677886,10
0681,BOTSWANA_NORTH EAST_NORTH EAST_MATOPI,27.91115579539766,-21.482192037003767,Botswana,BC,1.0428837994965168,10
0682,LESOTHO_BEREA,27.916543179927878,-29.196133964322186,Lesotho,BC,260.06210261655076,10
0683,LESOTHO_BUTHA-BUTHE,28.564194113912084,-28.80291309387294,Lesotho,BC,112.68779481699028,10
0684,LESOTHO_LERIBE,28.262778693785734,-29.01811492119529,Lesotho,BC,291.5363298543879,10
0685,LESOTHO_MAFETENG,27.392581280663943,-29.77903326417238,Lesotho,BC,155.83053063430253,10
0686,LESOTHO_MASERU,27.818410139103523,-29.578708001027245,Lesotho,BC,328.93146278289186,10
0687,LESOTHO_MOHALE'S HOEK,27.81073935217726,-30.05732318594617,Lesotho,BC,92.78232809780569,10
0688,LESOTHO_MOKHOTLONG,29.030965902973236,-29.219387585513097,Lesotho,BC,54.59024493920319,10
0689,LESOTHO_QACHA'S NEK,28.738216934631595,-29.96551989191937,Lesotho,BC,28.101980062242127,10
0690,LESOTHO_QUTHING,27.985860217458367,-30.361098997601832,Lesotho,BC,44.29575750493693,10
0691,LESOTHO_THABA-TSEKA,28.592501565541635,-29.5707462455164,Lesotho,BC,74.46958713707986,10
0692,MALAWI_SOUTHERN REGION_BALAKA,35.057010057789576,-15.035291543995603,Malawi,BC,118.5662639665798,10
0693,MALAWI_SOUTHERN REGION_BLANTYRE,34.93215294645478,-15.653521070374605,Malawi,BC,107.15978532616336,10
0694,MALAWI_SOUTHERN REGION_BLANTYRE CITY,35.049846087604834,-15.788155512634402,Malawi,BC,17.687934376602083,10
0695,MALAWI_SOUTHERN REGION_CHIKWAWA,34.70903689510921,-16.164449793446956,Malawi,BC,229.03588872751726,10
0696,MALAWI_SOUTHERN REGION_CHIRADZULU,35.21401510212054,-15.74504273186666,Malawi,BC,82.21571171035174,10
0697,MALAWI_NORTHERN REGION_CHITIPA,33.50075697273936,-9.961323805951439,Malawi,BC,184.3953256859995,10
0698,MALAWI_CENTRAL REGION_DEDZA,34.227546152785884,-14.26666414364504,Malawi,BC,227.19848746033617,10
0699,MALAWI_CENTRAL REGION_DOWA,33.7882007354298,-13.568943726666408,Malawi,BC,181.44955827039936,10
0700,MALAWI_NORTHERN REGION_KARONGA,33.88286491576761,-10.085628973711133,Malawi,BC,144.55783344850386,10
0701,MALAWI_CENTRAL REGION_KASUNGU,33.38591920703449,-12.984592469489298,Malawi,BC,383.4433403423101,10
0702,MALAWI_LAKE MALAWI_LAKE MALAWI,34.46342187078561,-11.83542210532386,Malawi,BC,193.46964342429055,10
0703,MALAWI_NORTHERN REGION_LIKOMA,34.68456952933858,-12.049251389757782,Malawi,BC,5.702648530362104,10
0704,MALAWI_CENTRAL REGION_LILONGWE,33.678384246204125,-14.02262845680586,Malawi,BC,427.4109325184023,10
0705,MALAWI_CENTRAL REGION_LILONGWE CITY,33.777412227707195,-13.917060812410538,Malawi,BC,33.05769766350873,10
0706,MALAWI_SOUTHERN REGION_MACHINGA,35.56621569203856,-14.939743540640112,Malawi,BC,258.32531609246,10
0707,MALAWI_SOUTHERN REGION_MANGOCHI,35.188672100825926,-14.35745673152043,Malawi,BC,361.1456128520877,10
0708,MALAWI_CENTRAL REGION_MCHINJI,33.05678421553763,-13.693204790303813,Malawi,BC,174.09383235355625,10
0709,MALAWI_SOUTHERN REGION_MULANJE,35.510601697456494,-15.937493088013312,Malawi,BC,162.80115411510204,10
0710,MALAWI_SOUTHERN REGION_MWANZA,34.51070572282828,-15.653498412560298,Malawi,BC,50.64445567314093,10
0711,MALAWI_NORTHERN REGION_MZIMBA,33.63357391674036,-11.774662616846621,Malawi,BC,427.83381281127004,10
0712,MALAWI_NORTHERN REGION_MZUZU CITY,34.008085621399474,-11.435033136665401,Malawi,BC,8.528577633247721,10
0713,MALAWI_SOUTHERN REGION_NENO,34.69511229098429,-15.46855436212607,Malawi,BC,75.8548260659137,10
0714,MALAWI_NORTHERN REGION_NKHATA BAY,34.04155946420708,-11.671744085857307,Malawi,BC,293.5067559215767,10
0715,MALAWI_CENTRAL REGION_NKHOTAKOTA,34.088412143637505,-12.844968406478515,Malawi,BC,265.16269507675065,10
0716,MALAWI_SOUTHERN REGION_NSANJE,35.14256102689594,-16.7458281066411,Malawi,BC,143.9608204586101,10
0717,MALAWI_CENTRAL REGION_NTCHEU,34.7150219403129,-14.809209532624244,Malawi,BC,162.57984324242986,10
0718,MALAWI_CENTRAL REGION_NTCHISI,33.919435671123914,-13.29729664939087,Malawi,BC,82.9978656797337,10
0719,MALAWI_SOUTHERN REGION_PHALOMBE,35.69103908738544,-15.669471595035306,Malawi,BC,95.69630684368086,10
0720,MALAWI_NORTHERN REGION_RUMPHI,33.814313155835954,-10.819178535708213,Malawi,BC,300.4535859289987,10
0721,MALAWI_CENTRAL REGION_SALIMA,34.38342391012431,-13.73580013859686,Malawi,BC,128.7973516920402,10
0722,MALAWI_SOUTHERN REGION_THYOLO,35.14513805866104,-16.103293124272504,Malawi,BC,186.4929591096627,10
0723,MALAWI_SOUTHERN REGION_ZOMBA,35.431720494463534,-15.397965042950926,Malawi,BC,198.9339291280005,10
0724,MALAWI_SOUTHERN REGION_ZOMBA CITY,35.32958370864326,-15.389038184748701,Malawi,BC,3.368264698243817,10
0725,MOZAMBIQUE_CABO DELGADO_ANCUABE_ANCUABE SEDE,39.81250434636672,-12.844910167361961,Mozambique,BC,207.27963897838308,10
0726,MOZAMBIQUE_CABO DELGADO_ANCUABE_METORO,39.98166464165771,-13.123343510947777,Mozambique,BC,148.03727129701193,10
0727,MOZAMBIQUE_CABO DELGADO_ANCUABE_MEZA,39.50077329178648,-13.002763030349875,Mozambique,BC,139.22764778850842,10
0728,MOZAMBIQUE_CABO DELGADO_BALAMA_BALAMA SEDE,38.60741548928212,-13.34632445565341,Mozambique,BC,117.0869924442544,10
0729,MOZAMBIQUE_CABO DELGADO_BALAMA_IMPIRE,38.234370073203195,-13.36117175168839,Mozambique,BC,94.06913406651823,10
0730,MOZAMBIQUE_CABO DELGADO_BALAMA_KWEKWE,38.360631459274536,-13.719258906829074,Mozambique,BC,227.75215864744956,10
0731,MOZAMBIQUE_CABO DELGADO_BALAMA_MAVALA,38.44433858639442,-13.127397794272662,Mozambique,BC,110.61536195355477,10
0732,MOZAMBIQUE_CABO DELGADO_CHIÚRE_CHIÚRE SEDE,39.78631866112433,-13.334949533035196,Mozambique,BC,42.78641860310411,10
0733,MOZAMBIQUE_CABO DELGADO_CHIÚRE_CHIÚRE VELHO,39.9790643743911,-13.394863091288299,Mozambique,BC,29.783847900674914,10
0734,MOZAMBIQUE_CABO DELGADO_CHIÚRE_KATAPUA,39.46036839056145,-13.3790182741743,Mozambique,BC,196.89388036632886,10
0735,MOZAMBIQUE_CABO DELGADO_CHIÚRE_MAZEZE,40.26493789258037,-13.394800824078336,Mozambique,BC,44.75606360185158,10
0736,MOZAMBIQUE_CABO DELGADO_CHIÚRE_NAMOGELIA,39.39543595419324,-13.73917584393942,Mozambique,BC,87.07085490733799,10
0737,MOZAMBIQUE_CABO DELGADO_CHIÚRE_OCUA,39.70712436514545,-13.593555718225081,Mozambique,BC,81.11675496809168,10
0738,MOZAMBIQUE_CABO DELGADO_CIDADE DE PEMBA_CIDADE DE PEMBA,40.5301137002399,-13.01866368362211,Mozambique,BC,6.141942403409034,10
0739,MOZAMBIQUE_CABO DELGADO_IBO_IBO SEDE,40.58966660854597,-12.296434453801252,Mozambique,BC,0.17867176337100282,10
0740,MOZAMBIQUE_CABO DELGADO_IBO_QUIRIMBA,40.60573197983616,-12.436621233927731,Mozambique,BC,0.07224590621559977,10
0741,MOZAMBIQUE_CABO DELGADO_MACOMIA_CHAI,40.09939009869904,-11.975771317344952,Mozambique,BC,99.78800235038719,10
0742,MOZAMBIQUE_CABO DELGADO_MACOMIA_MACOMIA SEDE,40.00966789367028,-12.185963022208076,Mozambique,BC,139.90189068414992,10
0743,MOZAMBIQUE_CABO DELGADO_MACOMIA_MUCOJO,40.39838621183561,-12.132019600349427,Mozambique,BC,106.47532672179925,10
0744,MOZAMBIQUE_CABO DELGADO_MACOMIA_QUITERAJO,40.34862064188187,-11.822248596272631,Mozambique,BC,18.131800288681827,10
0745,MOZAMBIQUE_CABO DELGADO_MECÚFI_MECÚFI SEDE,40.44136931989843,-13.314578160765912,Mozambique,BC,38.57638530991999,10
0746,MOZAMBIQUE_CABO DELGADO_MECÚFI_MURREBUE,40.3621691122671,-13.16275211422268,Mozambique,BC,45.947441371160046,10
0747,MOZAMBIQUE_CABO DELGADO_MELUCO_MELUCO,39.519008675605434,-12.466558692060977,Mozambique,BC,334.03901837031657,10
0748,MOZAMBIQUE_CABO DELGADO_MELUCO_MUAGUIDE,40.006147820712634,-12.461564676608146,Mozambique,BC,130.05348165450116,10
0749,MOZAMBIQUE_CABO DELGADO_METUGE_METUGE SEDE,40.30149518097115,-12.881110538127228,Mozambique,BC,117.42439719523699,10
0750,MOZAMBIQUE_CABO DELGADO_METUGE_MIEZE,40.42604082004337,-13.071741165509883,Mozambique,BC,12.904518912981278,10
0751,MOZAMBIQUE_CABO DELGADO_MOCÍMBOA DA PRAIA_DIACA,39.98361766384434,-11.50941232931751,Mozambique,BC,127.54043056568574,10
0752,MOZAMBIQUE_CABO DELGADO_MOCÍMBOA DA PRAIA_MBAU,40.264033426645,-11.61011746355292,Mozambique,BC,41.20339034284231,10
0753,MOZAMBIQUE_CABO DELGADO_MOCÍMBOA DA PRAIA_MOCÍMBOA DA PRAIA SEDE,40.221732345886586,-11.307039802847223,Mozambique,BC,127.83380613032038,10
0754,MOZAMBIQUE_CABO DELGADO_MONTEPUEZ_CIDADE DE MONTEPUEZ,39.10336496633387,-13.155831594194833,Mozambique,BC,108.56944738810621,10
0755,MOZAMBIQUE_CABO DELGADO_MONTEPUEZ_MAPUPULO,38.85156103637511,-13.296202609826898,Mozambique,BC,59.48319901724753,10
0756,MOZAMBIQUE_CABO DELGADO_MONTEPUEZ_MIRATE SEDE,38.889102884866084,-12.858163088415916,Mozambique,BC,237.6821376003921,10
0757,MOZAMBIQUE_CABO DELGADO_MONTEPUEZ_NAIROTO,38.60846512227451,-12.417692004693443,Mozambique,BC,1403.4269389832334,10
0758,MOZAMBIQUE_CABO DELGADO_MONTEPUEZ_NAMANHUMBIR,39.29331479236441,-13.03734599713965,Mozambique,BC,60.71825134346024,10
0759,MOZAMBIQUE_CABO DELGADO_MUEDA_CHAPA,39.300669871212165,-11.933739048526274,Mozambique,BC,164.00604457223875,10
0760,MOZAMBIQUE_CABO DELGADO_MUEDA_IMBUHO SEDE,39.71330104587685,-11.492354708140468,Mozambique,BC,25.30982343933966,10
0761,MOZAMBIQUE_CABO DELGADO_MUEDA_MUEDA SEDE,39.52799055312814,-11.615490131717069,Mozambique,BC,143.3117851478246,10
0762,MOZAMBIQUE_CABO DELGADO_MUEDA_NAMAUA,39.71135420448486,-11.578853289361819,Mozambique,BC,34.03044776611843,10
0763,MOZAMBIQUE_CABO DELGADO_MUEDA_NEGOMANO,38.68032202017621,-11.555132251334204,Mozambique,BC,366.7344236081152,10
0764,MOZAMBIQUE_CABO DELGADO_MUEDA_NGAPA,39.181606916419916,-11.449464889051079,Mozambique,BC,438.208589304203,10
0765,MOZAMBIQUE_CABO DELGADO_MUIDUMBE_CHITUNDA,40.02853944757149,-11.798368536527168,Mozambique,BC,50.984774040038644,10
0766,MOZAMBIQUE_CABO DELGADO_MUIDUMBE_MITEDA,39.64749196598334,-11.853991027094667,Mozambique,BC,44.31422202457352,10
0767,MOZAMBIQUE_CABO DELGADO_MUIDUMBE_MUAMBULA,39.82130488684691,-11.841747965829844,Mozambique,BC,108.06115943795085,10
0768,MOZAMBIQUE_CABO DELGADO_NAMUNO_HUCULA,39.027034408935776,-13.807982550463722,Mozambique,BC,76.95936657179355,10
0769,MOZAMBIQUE_CABO DELGADO_NAMUNO_MACHOCA,38.9025822941826,-13.935861472055366,Mozambique,BC,84.20169492531379,10
0770,MOZAMBIQUE_CABO DELGADO_NAMUNO_MELOCO,39.16332069555443,-13.55331427408594,Mozambique,BC,175.98685128914053,10
0771,MOZAMBIQUE_CABO DELGADO_NAMUNO_NAMUNO SEDE,38.85042931380327,-13.571803785012364,Mozambique,BC,90.16910007037183,10
0772,MOZAMBIQUE_CABO DELGADO_NAMUNO_NCUMPE,38.64829661522544,-13.759868655212932,Mozambique,BC,42.72817757273475,10
0773,MOZAMBIQUE_CABO DELGADO_NAMUNO_PAPAI,38.6112488248292,-14.01083078018285,Mozambique,BC,97.17921425913582,10
0774,MOZAMBIQUE_CABO DELGADO_NANGADE_NANGADE SEDE,39.74862940454096,-11.083424646974992,Mozambique,BC,167.42491033363754,10
0775,MOZAMBIQUE_CABO DELGADO_NANGADE_NTAMBA,39.82186362422569,-11.298924991205137,Mozambique,BC,122.48425609148437,10
0776,MOZAMBIQUE_CABO DELGADO_PALMA_OLUMBE,40.37722280987631,-11.022253412786055,Mozambique,BC,55.610584180793204,10
0777,MOZAMBIQUE_CABO DELGADO_PALMA_PALMA,40.36752760276333,-10.781107321340652,Mozambique,BC,42.33645023714609,10
0778,MOZAMBIQUE_CABO DELGADO_PALMA_PUNDANHAR,40.10649223692033,-10.915061660907167,Mozambique,BC,98.45816351303047,10
0779,MOZAMBIQUE_CABO DELGADO_PALMA_QUIONGA,40.39832171975072,-10.605188674355327,Mozambique,BC,29.305142091777043,10
0780,MOZAMBIQUE_CABO DELGADO_QUISSANGA_BILIBIZA,40.19654727032573,-12.609796456581662,Mozambique,BC,89.3225366811761,10
0781,MOZAMBIQUE_CABO DELGADO_QUISSANGA_MAHATE,40.41919917872787,-12.635885089192568,Mozambique,BC,81.44403011410155,10
0782,MOZAMBIQUE_CIDADE DE MAPUTO_KAMAVOTA_KAMAVOTA,32.634886641291224,-25.887693649593853,Mozambique,BC,12.213786456823454,10
0783,MOZAMBIQUE_CIDADE DE MAPUTO_KAMAXAKENI_KAMAXAKENI,32.59944117113847,-25.93889789948286,Mozambique,BC,2.964393428810123,10
0784,MOZAMBIQUE_CIDADE DE MAPUTO_KAMPFUMO_KAMPFUMO,32.586471991569425,-25.963392495074924,Mozambique,BC,4.492170927017432,10
0785,MOZAMBIQUE_CIDADE DE MAPUTO_KAMUBUKWANA_KAMUBUKWANA,32.57628175378329,-25.874280175789803,Mozambique,BC,8.788350042089856,10
0786,MOZAMBIQUE_CIDADE DE MAPUTO_KANYAKA_KANYAKA,32.942792473320985,-26.019854398302623,Mozambique,BC,0.6832906907620389,10
0787,MOZAMBIQUE_CIDADE DE MAPUTO_KATEMBE_KATEMBE,32.52558521951384,-26.037162300504427,Mozambique,BC,13.188782766666845,10
0788,MOZAMBIQUE_CIDADE DE MAPUTO_NHLAMANKULO_NHLAMANKULO,32.557337897173184,-25.94748667088231,Mozambique,BC,4.035469116945618,10
0789,MOZAMBIQUE_GAZA_BILENE_BILENE MACIA,33.12170844184735,-25.024345210123222,Mozambique,BC,10.77141200633594,10
0790,MOZAMBIQUE_GAZA_BILENE_INCAIA,33.23389036385305,-24.972836632632283,Mozambique,BC,14.418082456760363,10
0791,MOZAMBIQUE_GAZA_BILENE_MACUANE,33.16406911785151,-25.13186013405694,Mozambique,BC,57.79946864008645,10
0792,MOZAMBIQUE_GAZA_BILENE_MAZIVILA,33.15771945972996,-24.86159285857413,Mozambique,BC,19.285741743231107,10
0793,MOZAMBIQUE_GAZA_BILENE_MESSANO,32.994801638202425,-24.9711864826169,Mozambique,BC,20.56829145405442,10
0794,MOZAMBIQUE_GAZA_BILENE_PRAIA DE BILENE,33.22313026811176,-25.268200454905273,Mozambique,BC,15.38568836559162,10
0795,MOZAMBIQUE_GAZA_CHIBUTO_ALTO CHANGANE,33.532709699998925,-24.239915954397528,Mozambique,BC,29.090598568862053,10
0796,MOZAMBIQUE_GAZA_CHIBUTO_CHANGANINE,33.78000414254853,-24.004994838500192,Mozambique,BC,6.8518307332071675,10
0797,MOZAMBIQUE_GAZA_CHIBUTO_CIDADE DE CHIBUTO,33.56479821975432,-24.69579299181594,Mozambique,BC,1.6838409662004334,10
0798,MOZAMBIQUE_GAZA_CHIBUTO_GODIDE,33.664009941160174,-24.59383871859075,Mozambique,BC,13.327534370988158,10
0799,MOZAMBIQUE_GAZA_CHIBUTO_MALEHICE,33.68651799951757,-24.751639870695612,Mozambique,BC,24.12156443293808,10
0800,MOZAMBIQUE_GAZA_CHIBUTO_TCHAIMITE,33.40913649471263,-24.6274038248804,Mozambique,BC,16.348893091521244,10
0801,MOZAMBIQUE_GAZA_CHICUALACUALA_EDUARDO MONDLANE,31.90283759038279,-22.22474259936432,Mozambique,BC,126.51886676769361,10
0802,MOZAMBIQUE_GAZA_CHICUALACUALA_PAFURI,31.839636613036426,-23.062508500431342,Mozambique,BC,59.79340527100828,10
0803,MOZAMBIQUE_GAZA_CHIGUBO_CHIGUBO SEDE,33.28327880896511,-22.55689162530508,Mozambique,BC,168.52106622486153,10
0804,MOZAMBIQUE_GAZA_CHIGUBO_NDINDIZA,33.50940091714144,-23.45508178763895,Mozambique,BC,236.47628659940978,10
0805,MOZAMBIQUE_GAZA_CHÓKWÈ_CIDADE DE CHÓKWÈ,32.99328794506374,-24.520208875238563,Mozambique,BC,4.160875308140421,10
0806,MOZAMBIQUE_GAZA_CHÓKWÈ_LIONDE,33.00856327547369,-24.690277510511446,Mozambique,BC,32.55346068098501,10
0807,MOZAMBIQUE_GAZA_CHÓKWÈ_MACARRETANE,32.75708982206706,-24.37253995423536,Mozambique,BC,26.548557034117806,10
0808,MOZAMBIQUE_GAZA_CHÓKWÈ_XILEMBENE,33.295896826319776,-24.740800650273098,Mozambique,BC,20.88269653876771,10
0809,MOZAMBIQUE_GAZA_CHONGOENE_CHONGOENE,33.78738388968989,-24.95612324064541,Mozambique,BC,30.254901978478447,10
0810,MOZAMBIQUE_GAZA_CHONGOENE_MAZUCANE,33.94816589854456,-24.75078182642919,Mozambique,BC,12.062673823552593,10
0811,MOZAMBIQUE_GAZA_CHONGOENE_NGUZENE,33.99174761296743,-24.900424006547656,Mozambique,BC,10.05095880855568,10
0812,MOZAMBIQUE_GAZA_CIDADE DE XAI-XAI_CIDADE DE XAI-XAI,33.6238199287902,-25.095602356591947,Mozambique,BC,7.137578245983999,10
0813,MOZAMBIQUE_GAZA_GUIJÁ_CHIVONGOENE,33.233221538781685,-24.47489638296496,Mozambique,BC,9.299994230081928,10
0814,MOZAMBIQUE_GAZA_GUIJÁ_MUBANGOENE,32.95074527970149,-24.269396021473018,Mozambique,BC,20.988278631653504,10
0815,MOZAMBIQUE_GAZA_GUIJÁ_NALAZI,33.17804626234287,-24.007141668394482,Mozambique,BC,10.123849977306087,10
0816,MOZAMBIQUE_GAZA_GUIJÁ_VILA CANIÇADO,33.03370976279583,-24.496154209395023,Mozambique,BC,1.7938924350205996,10
0817,MOZAMBIQUE_GAZA_LIMPOPO_CHICUMBANE,33.50935105307376,-24.95521044053618,Mozambique,BC,27.10253808531388,10
0818,MOZAMBIQUE_GAZA_LIMPOPO_CHISSANO,33.36595620036372,-24.917774625636756,Mozambique,BC,17.29768867131952,10
0819,MOZAMBIQUE_GAZA_LIMPOPO_ZONGOENE,33.41768385775187,-25.15027705143945,Mozambique,BC,19.28462829171263,10
0820,MOZAMBIQUE_GAZA_MABALANE_COMBOMUNE,32.76206527578445,-23.248510922783225,Mozambique,BC,24.96755717000038,10
0821,MOZAMBIQUE_GAZA_MABALANE_MABALANE,32.830014386359615,-23.86472905225202,Mozambique,BC,10.683644863646743,10
0822,MOZAMBIQUE_GAZA_MABALANE_NTLHAVENE,32.55611135942274,-23.700477308848008,Mozambique,BC,8.572972898943506,10
0823,MOZAMBIQUE_GAZA_MANDLAKAZE_CHALALA,33.898816970795764,-24.62204362818058,Mozambique,BC,6.171556308953988,10
0824,MOZAMBIQUE_GAZA_MANDLAKAZE_CHIBONDZANE,34.20993805079586,-24.617150832754188,Mozambique,BC,15.089358885431562,10
0825,MOZAMBIQUE_GAZA_MANDLAKAZE_CHIDENGUELE,34.222185883991216,-24.846464693637397,Mozambique,BC,23.599681633045478,10
0826,MOZAMBIQUE_GAZA_MANDLAKAZE_MACUACUA,33.93793587874184,-24.351855632078426,Mozambique,BC,19.141335658348048,10
0827,MOZAMBIQUE_GAZA_MANDLAKAZE_MANDLAKAZE SEDE,33.881734623458314,-24.717454952391012,Mozambique,BC,6.0791490463020015,10
0828,MOZAMBIQUE_GAZA_MAPAI_MACHAILA,32.8972792264127,-22.46107250918086,Mozambique,BC,80.88336320431146,10
0829,MOZAMBIQUE_GAZA_MAPAI_MAPAI,32.340153357812774,-22.66221263505515,Mozambique,BC,111.10024356345883,10
0830,MOZAMBIQUE_GAZA_MASSANGENA_MASSANGENA,33.024968092166,-21.76228030255321,Mozambique,BC,98.47826602073253,10
0831,MOZAMBIQUE_GAZA_MASSANGENA_MAVUE,32.44873445655671,-21.74455920732843,Mozambique,BC,273.69067044007767,10
0832,MOZAMBIQUE_GAZA_MASSINGIR_MASSINGIR SEDE,32.14188192707758,-24.083427448323647,Mozambique,BC,5.17707522151842,10
0833,MOZAMBIQUE_GAZA_MASSINGIR_MAVODZE,31.957192936094224,-23.682084241320673,Mozambique,BC,8.865491645752488,10
0834,MOZAMBIQUE_GAZA_MASSINGIR_ZULO,32.44746940415907,-24.081905716979545,Mozambique,BC,5.283634296283392,10
0835,MOZAMBIQUE_INHAMBANE_CIDADE DA MAXIXE_CIDADE DA MAXIXE,35.30847837373539,-23.88280148067849,Mozambique,BC,6.970763923008176,10
0836,MOZAMBIQUE_INHAMBANE_CIDADE DE INHAMBANE_CIDADE DE INHAMBANE,35.4669344326235,-23.887608905915176,Mozambique,BC,6.813981652816953,10
0837,MOZAMBIQUE_INHAMBANE_FUNHALOURO_FUNHALOURO,34.40493526211412,-23.279005264339535,Mozambique,BC,728.8073052606037,10
0838,MOZAMBIQUE_INHAMBANE_FUNHALOURO_TOME,34.123107711970896,-22.6492454413369,Mozambique,BC,142.71125027154594,10
0839,MOZAMBIQUE_INHAMBANE_GOVURO_NOVA MAMBONE,34.91124864499755,-21.24838028736193,Mozambique,BC,155.38601873316577,10
0840,MOZAMBIQUE_INHAMBANE_GOVURO_SAVE,34.50273875747384,-21.372352488268987,Mozambique,BC,152.25923955552753,10
0841,MOZAMBIQUE_INHAMBANE_HOMOÍNE_HOMOÍNE SEDE,35.11348463085394,-23.979574815302524,Mozambique,BC,22.022779785399486,10
0842,MOZAMBIQUE_INHAMBANE_HOMOÍNE_PEMBE,34.954010052320086,-23.75585650680714,Mozambique,BC,29.1825433220858,10
0843,MOZAMBIQUE_INHAMBANE_INHARRIME_INHARRIME SEDE,35.0629320946627,-24.377713765160113,Mozambique,BC,14.066363014938926,10
0844,MOZAMBIQUE_INHAMBANE_INHARRIME_MUCUMBI,34.57231599403387,-24.417768147569834,Mozambique,BC,45.14512480031332,10
0845,MOZAMBIQUE_INHAMBANE_INHASSORO_BAZARUTO,35.465173197521,-21.65725826320277,Mozambique,BC,0.36254989534363585,10
0846,MOZAMBIQUE_INHAMBANE_INHASSORO_INHASSORO,34.84605588804438,-21.753052479230316,Mozambique,BC,231.65747462824984,10
0847,MOZAMBIQUE_INHAMBANE_JANGAMO_CUMBANA,35.150833362602604,-24.21294386364807,Mozambique,BC,4.152247951348202,10
0848,MOZAMBIQUE_INHAMBANE_JANGAMO_JANGAMO,35.3828405134123,-24.118279758970523,Mozambique,BC,10.29215261938738,10
0849,MOZAMBIQUE_INHAMBANE_MABOTE_MABOTE,34.1237933010753,-22.071272031528167,Mozambique,BC,152.7082454640209,10
0850,MOZAMBIQUE_INHAMBANE_MABOTE_ZIMANE,33.53428838953659,-22.259421319452596,Mozambique,BC,263.3989828022255,10
0851,MOZAMBIQUE_INHAMBANE_MABOTE_ZINAVE,33.78047603814595,-21.630829138429963,Mozambique,BC,149.92736779207206,10
0852,MOZAMBIQUE_INHAMBANE_MASSINGA_CHICOMO,34.91593880649871,-22.694580178891357,Mozambique,BC,281.87289097657083,10
0853,MOZAMBIQUE_INHAMBANE_MASSINGA_MASSINGA,35.28967211538618,-23.208309768202906,Mozambique,BC,76.93087023054036,10
0854,MOZAMBIQUE_INHAMBANE_MORRUMBENE_MOCODUENE,35.03823145580892,-23.43542902200303,Mozambique,BC,190.55629355470592,10
0855,MOZAMBIQUE_INHAMBANE_MORRUMBENE_MORRUMBENE,35.31512127790291,-23.62003628600982,Mozambique,BC,8.74768055475292,10
0856,MOZAMBIQUE_INHAMBANE_PANDA_MAWAYELA,34.116370299409866,-24.001901283449012,Mozambique,BC,78.64006943998497,10
0857,MOZAMBIQUE_INHAMBANE_PANDA_PANDA,34.5701782475298,-24.112499270772535,Mozambique,BC,81.98103344455599,10
0858,MOZAMBIQUE_INHAMBANE_PANDA_URRENE,34.644908571251904,-23.83766104214481,Mozambique,BC,42.83533445539433,10
0859,MOZAMBIQUE_INHAMBANE_VILANKULO_MAPINHANE,35.04533061414311,-22.371051282087183,Mozambique,BC,220.54317578282075,10
0860,MOZAMBIQUE_INHAMBANE_VILANKULO_VILANKULO,35.3062246160536,-22.14744435743396,Mozambique,BC,83.09539126033295,10
0861,MOZAMBIQUE_INHAMBANE_ZAVALA_QUISSICO,34.83275046669489,-24.629624369539606,Mozambique,BC,9.171347065657447,10
0862,MOZAMBIQUE_INHAMBANE_ZAVALA_ZANDAMELA,34.4860299379439,-24.67609745657631,Mozambique,BC,21.11508218963617,10
0863,MOZAMBIQUE_LAKE MALAWI_LAKE MALAWI_LAKE MALAWI,34.66958894981475,-12.465931949774122,Mozambique,BC,32.73663110662888,10
0864,MOZAMBIQUE_MANICA_BÁRUÈ_CATANDICA,33.30152827468673,-18.240536298661056,Mozambique,BC,471.38383302236184,10
0865,MOZAMBIQUE_MANICA_BÁRUÈ_CHOA,33.04569434614779,-18.064104442461606,Mozambique,BC,70.18494550339318,10
0866,MOZAMBIQUE_MANICA_BÁRUÈ_NHAMPASSA,33.184551019135135,-17.597094490855643,Mozambique,BC,238.05524725939594,10
0867,MOZAMBIQUE_MANICA_CIDADE DE CHIMOIO_CHIMOIO,33.45536740007841,-19.127720352606506,Mozambique,BC,22.74038917850058,10
0868,MOZAMBIQUE_MANICA_GONDOLA_AMATONGAS,33.81580808058416,-19.088843340895576,Mozambique,BC,111.18146608733421,10
0869,MOZAMBIQUE_MANICA_GONDOLA_CAFUMPE,33.73252675700257,-18.96598115326139,Mozambique,BC,123.60000044597882,10
0870,MOZAMBIQUE_MANICA_GONDOLA_GONDOLA,33.66706225815283,-19.067556713895804,Mozambique,BC,4.778407681175878,10
0871,MOZAMBIQUE_MANICA_GONDOLA_INCHOPE,33.855910359091254,-19.34910726017252,Mozambique,BC,144.50686685178482,10
0872,MOZAMBIQUE_MANICA_GURO_GURO SEDE,33.28735962339221,-17.287981286704778,Mozambique,BC,89.66901980486425,10
0873,MOZAMBIQUE_MANICA_GURO_MANDIE,33.67962216440644,-16.54401479200918,Mozambique,BC,27.401374890386933,10
0874,MOZAMBIQUE_MANICA_GURO_MUNGARI,33.54831007111624,-17.10496669776008,Mozambique,BC,168.24375067594548,10
0875,MOZAMBIQUE_MANICA_GURO_NHAMASSONGE,33.596453539786765,-16.77407345471343,Mozambique,BC,38.43026439099845,10
0876,MOZAMBIQUE_MANICA_MACATE_MACATE SEDE,33.58000277986244,-19.400692718644812,Mozambique,BC,224.75602465712836,10
0877,MOZAMBIQUE_MANICA_MACATE_ZEMBE,33.35412342370635,-19.22767890720999,Mozambique,BC,27.28446413772943,10
0878,MOZAMBIQUE_MANICA_MACHAZE_CHITOBE,33.306459347363266,-20.88553205985008,Mozambique,BC,592.2319706405798,10
0879,MOZAMBIQUE_MANICA_MACHAZE_SAVE,33.21143246815166,-21.301458761861632,Mozambique,BC,199.56640824350876,10
0880,MOZAMBIQUE_MANICA_MACOSSA_MACOSSA SEDE,33.93258269449586,-17.783133366418287,Mozambique,BC,564.8951983831477,10
0881,MOZAMBIQUE_MANICA_MACOSSA_NGUAWALA,33.639533569018866,-18.34411311077633,Mozambique,BC,404.0811388828719,10
0882,MOZAMBIQUE_MANICA_MACOSSA_NHAMAGUA,33.51483956167798,-17.75456736936627,Mozambique,BC,270.09804920721007,10
0883,MOZAMBIQUE_MANICA_MANICA_MACHIPANDA,32.85545139808637,-18.879904801552133,Mozambique,BC,32.03281191489586,10
0884,MOZAMBIQUE_MANICA_MANICA_MAVONDE,33.05466930685875,-18.601929350510918,Mozambique,BC,124.58969233857664,10
0885,MOZAMBIQUE_MANICA_MANICA_MESSICA,33.034928611751994,-19.04617280907505,Mozambique,BC,58.38177390554211,10
0886,MOZAMBIQUE_MANICA_MANICA_MUNICIPIO DE MANICA,32.87567656092327,-18.944254944375942,Mozambique,BC,9.191758712815437,10
0887,MOZAMBIQUE_MANICA_MOSSURIZE_CHIURAIRUE,32.81274306891318,-20.739522288509274,Mozambique,BC,194.02725860453748,10
0888,MOZAMBIQUE_MANICA_MOSSURIZE_DACATA,33.08962587563526,-20.311252884140636,Mozambique,BC,382.52174667281656,10
0889,MOZAMBIQUE_MANICA_MOSSURIZE_ESPUNGABERA,32.802896674454466,-20.52340497291208,Mozambique,BC,46.90756937655582,10
0890,MOZAMBIQUE_MANICA_SUSSUNDENGA_DOMBE,33.398614696729936,-19.90088894894896,Mozambique,BC,534.8088394989064,10
0891,MOZAMBIQUE_MANICA_SUSSUNDENGA_MUOHA,33.124555743177076,-19.350567086646706,Mozambique,BC,108.01229201665718,10
0892,MOZAMBIQUE_MANICA_SUSSUNDENGA_ROTANDA,32.98367765963056,-19.498315171914083,Mozambique,BC,191.42805927887576,10
