census_id,geo_name,lon,lat,country,poll,emis,eff_height
0001,ANGOLA_BENGO_AMBRIZ,13.500573856748415,-7.941839245075118,Angola,NMVOC,78.99662821528304,220
0002,ANGOLA_BENGO_BULA ATUMBA,14.820908751789867,-8.634475645495783,Angola,NMVOC,97.85805016604242,220
0003,ANGOLA_BENGO_DANDE,13.841710609854086,-8.53534736049627,Angola,NMVOC,2954.0609303297574,220
0004,ANGOLA_BENGO_DEMBOS,14.552452662474186,-8.506656679922113,Angola,NMVOC,179.34790507435744,220
0005,ANGOLA_BENGO_NAMBUANGONGO,14.25926486683566,-8.047643790272277,Angola,NMVOC,362.1813659300985,220
0006,ANGOLA_BENGO_PANGO ALUQUÉM,14.467187741962098,-8.753291428515478,Angola,NMVOC,37.17554542609324,220
0007,ANGOLA_BENGUELA_BAÍA FARTA,13.110895429150032,-13.169353899832894,Angola,NMVOC,575.8220002041326,220
0008,ANGOLA_BENGUELA_BALOMBO,14.785534807000774,-12.362142938317604,Angola,NMVOC,828.4371748202661,220
0009,ANGOLA_BENGUELA_BENGUELA,13.613234701433782,-12.750903810317325,Angola,NMVOC,3001.377589635672,220
0010,ANGOLA_BENGUELA_BOCOIO,14.273806030010297,-12.337517465231237,Angola,NMVOC,1088.3058676372411,220
0011,ANGOLA_BENGUELA_CAIMBAMBO,13.925466200463916,-13.103370379840863,Angola,NMVOC,602.2307023515873,220
0012,ANGOLA_BENGUELA_CATUMBELA,13.680172800346687,-12.477296385532492,Angola,NMVOC,491.9637190867854,220
0013,ANGOLA_BENGUELA_CHONGOROI,13.804725364547245,-13.596741410412521,Angola,NMVOC,558.6002869850037,220
0014,ANGOLA_BENGUELA_CUBAL,14.349577634106108,-13.16149142143734,Angola,NMVOC,2378.3697511705236,220
0015,ANGOLA_BENGUELA_GANDA,14.733920867955561,-13.122131963632688,Angola,NMVOC,2068.988813231927,220
0016,ANGOLA_BENGUELA_LOBITO,13.886545783996153,-12.092395259332209,Angola,NMVOC,2778.985311514009,220
0017,ANGOLA_BIÉ_ANDULO,16.463299708517784,-11.274658946317146,Angola,NMVOC,1995.1614268144815,220
0018,ANGOLA_BIÉ_CAMACUPA,17.780227977541617,-12.451681506672221,Angola,NMVOC,1146.9542891046601,220
0019,ANGOLA_BIÉ_CATABOLA,17.254341809340623,-12.147939255129183,Angola,NMVOC,1025.116844142315,220
0020,ANGOLA_BIÉ_CHINGUAR,16.57220235885333,-12.562961032395926,Angola,NMVOC,838.7718318123972,220
0021,ANGOLA_BIÉ_CHITEMBO,17.2256685420672,-13.4761375683222,Angola,NMVOC,540.6434056165292,220
0022,ANGOLA_BIÉ_CUEMBA,18.450876402365434,-11.812583973776919,Angola,NMVOC,332.71306268565684,220
0023,ANGOLA_BIÉ_CUITO,17.0195337801636,-12.539053407735349,Angola,NMVOC,3952.0794793394903,220
0024,ANGOLA_BIÉ_CUNHINGA,16.806485043535446,-11.988245606222938,Angola,NMVOC,295.002534737499,220
0025,ANGOLA_BIÉ_NHAREA,17.157724905821997,-11.308602978499657,Angola,NMVOC,743.9612458074176,220
0026,ANGOLA_CABINDA_BELIZE,12.84464336058737,-4.605790961567085,Angola,NMVOC,190.8895634798237,220
0027,ANGOLA_CABINDA_BUCO ZAU,12.545868870473262,-4.802124175234638,Angola,NMVOC,246.26565024387924,220
0028,ANGOLA_CABINDA_CABINDA,12.36403326270615,-5.461872414729606,Angola,NMVOC,3010.3864219352336,220
0029,ANGOLA_CABINDA_CACONGO,12.242228043574034,-5.043712430446504,Angola,NMVOC,286.05472668398687,220
0030,ANGOLA_KUANDO KUBANGO_CALAI,19.414268804995988,-17.367954683212766,Angola,NMVOC,401.54453248748183,220
0031,ANGOLA_KUANDO KUBANGO_CUANGAR,18.15299180710266,-17.054777832805367,Angola,NMVOC,252.80310175388087,220
0032,ANGOLA_KUANDO KUBANGO_CUCHI,16.962579756983985,-14.692891199511664,Angola,NMVOC,349.3269560856274,220
0033,ANGOLA_KUANDO KUBANGO_CUITO CUANAVALE,18.841355039845936,-14.950150376556852,Angola,NMVOC,308.8220326195761,220
0034,ANGOLA_KUANDO KUBANGO_DIRICO,20.825162039879295,-17.52729673830151,Angola,NMVOC,205.45716665622584,220
0035,ANGOLA_KUANDO KUBANGO_MAVINGA,20.292091111981065,-16.124977275218903,Angola,NMVOC,222.110450686642,220
0036,ANGOLA_KUANDO KUBANGO_MENONGUE,17.745373647024998,-15.225709939331868,Angola,NMVOC,2669.1571995065906,220
0037,ANGOLA_KUANDO KUBANGO_NANCOVA,18.73240828489362,-16.388826303005242,Angola,NMVOC,31.43714038302348,220
0038,ANGOLA_KUANDO KUBANGO_RIVUNGO,21.95105197046031,-16.860900758284263,Angola,NMVOC,302.1626890317258,220
0039,ANGOLA_KWANZA NORTE_AMBACA,15.509119051943488,-8.223269097816729,Angola,NMVOC,371.1746238244869,220
0040,ANGOLA_KWANZA NORTE_BANGA,15.153253461606287,-8.689616530469744,Angola,NMVOC,56.49339676078047,220
0041,ANGOLA_KWANZA NORTE_BOLONGONGO,15.113302487330705,-8.382132376680488,Angola,NMVOC,54.060059852316,220
0042,ANGOLA_KWANZA NORTE_CAMBAMBE,14.521816633134614,-9.433964278230446,Angola,NMVOC,615.5526196069095,220
0043,ANGOLA_KWANZA NORTE_CAZENGO,14.779870946066733,-9.320031680889498,Angola,NMVOC,1367.3114407346754,220
0044,ANGOLA_KWANZA NORTE_GOLUNGO ALTO,14.666387710001,-9.076507922069805,Angola,NMVOC,285.6648001061472,220
0045,ANGOLA_KWANZA NORTE_LUCALA,15.238258650636386,-9.139267281380702,Angola,NMVOC,141.50817894128565,220
0046,ANGOLA_KWANZA NORTE_NGONGUEMBO,14.901663408090647,-8.902563767131948,Angola,NMVOC,36.56753573094712,220
0047,ANGOLA_KWANZA NORTE_QUICULUNGO,15.319625776448795,-8.49002907643525,Angola,NMVOC,35.25844458535395,220
0048,ANGOLA_KWANZA NORTE_SAMBA CAJÚ,15.494620704324683,-8.808515207926657,Angola,NMVOC,165.79786104942258,220
0049,ANGOLA_KWANZA SUL_AMBOIM,14.409446053756277,-10.888247311555114,Angola,NMVOC,2010.6280446815497,220
0050,ANGOLA_KWANZA SUL_CASSONGUE,14.969245996228281,-11.823486279155278,Angola,NMVOC,978.3782921703302,220
0051,ANGOLA_KWANZA SUL_CELA,15.327509138494797,-11.286611386444985,Angola,NMVOC,1678.8733351075243,220
0052,ANGOLA_KWANZA SUL_CONDA,14.457113187835018,-11.173469665594153,Angola,NMVOC,730.4502881543583,220
0053,ANGOLA_KWANZA SUL_EBO,14.756355439021709,-10.954311333786544,Angola,NMVOC,1375.0455074001084,220
0054,ANGOLA_KWANZA SUL_LIBOLO,14.990540118658812,-10.063463539441377,Angola,NMVOC,640.250462936996,220
0055,ANGOLA_KWANZA SUL_MUSSENDE,15.978658982493396,-10.268786589120642,Angola,NMVOC,582.6588576460925,220
0056,ANGOLA_KWANZA SUL_PORTO AMBOIM,13.942283729197893,-10.627805552833145,Angola,NMVOC,790.8304054261794,220
0057,ANGOLA_KWANZA SUL_QUIBALA,15.335713103750756,-10.699008506951671,Angola,NMVOC,930.9588263951114,220
0058,ANGOLA_KWANZA SUL_QUILENDA,14.370237419617364,-10.524491857097443,Angola,NMVOC,710.5055753192377,220
0059,ANGOLA_KWANZA SUL_SELES,14.50091627350989,-11.457587720793851,Angola,NMVOC,1349.1280010645119,220
0060,ANGOLA_KWANZA SUL_SUMBE,14.04934311345206,-11.49811492361192,Angola,NMVOC,1456.2946561123044,220
0061,ANGOLA_CUNENE_CAHAMA,14.247669093888437,-16.41710354139286,Angola,NMVOC,675.0145704499863,220
0062,ANGOLA_CUNENE_CUANHAMA,16.320547599774045,-16.48223334568777,Angola,NMVOC,3524.7434265930356,220
0063,ANGOLA_CUNENE_CUROCA,13.788175609536145,-16.932294476395295,Angola,NMVOC,195.1658534224669,220
0064,ANGOLA_CUNENE_CUVELAI,16.136146428177735,-15.746368160393057,Angola,NMVOC,585.224770496733,220
0065,ANGOLA_CUNENE_NAMACUNDE,16.606272115792553,-17.074018548021083,Angola,NMVOC,2037.0119463084354,220
0066,ANGOLA_CUNENE_OMBADJA,14.941895100531925,-16.768959146811532,Angola,NMVOC,2857.5501581527787,220
0067,ANGOLA_HUAMBO_BAILUNDO,15.850466201739053,-11.950050465566608,Angola,NMVOC,2285.47148395676,220
0068,ANGOLA_HUAMBO_CAÁLA,15.572188198073116,-13.27102876067493,Angola,NMVOC,2219.8094638693433,220
0069,ANGOLA_HUAMBO_CACHIUNGO,16.319644201016246,-12.759421533499594,Angola,NMVOC,1144.398141493927,220
0070,ANGOLA_HUAMBO_ECUNHA,15.49134958273524,-12.53401934231182,Angola,NMVOC,593.3425366029063,220
0071,ANGOLA_HUAMBO_HUAMBO,15.79536569507517,-12.819324307871682,Angola,NMVOC,5972.098346545208,220
0072,ANGOLA_HUAMBO_LONDUIMBALI,15.292015045757923,-12.235996591708586,Angola,NMVOC,969.269577943718,220
0073,ANGOLA_HUAMBO_LONGONJO,15.22279516795389,-13.084757821818668,Angola,NMVOC,750.0763723639703,220
0074,ANGOLA_HUAMBO_MUNGO,16.20588037491343,-11.755072951814116,Angola,NMVOC,944.3566452386771,220
0075,ANGOLA_HUAMBO_CHICALA CHOLOHANGA,16.092706109508978,-12.95985009260693,Angola,NMVOC,936.9682719857406,220
0076,ANGOLA_HUAMBO_CHINJENJE,14.940107561316543,-12.818781665594054,Angola,NMVOC,356.86112955442934,220
0077,ANGOLA_HUAMBO_UCUMA,15.15058241504692,-12.745033355569538,Angola,NMVOC,276.0956780794721,220
0078,ANGOLA_HUÍLA_CACONDA,15.158416365277283,-13.778376463063532,Angola,NMVOC,1440.1571771214992,220
0079,ANGOLA_HUÍLA_CACULA,14.291948368736596,-14.437668897988177,Angola,NMVOC,1154.5999526656572,220
0080,ANGOLA_HUÍLA_CALUQUEMBE,14.553605248971426,-13.943434135545042,Angola,NMVOC,1400.7333925193147,220
0081,ANGOLA_HUÍLA_CHIBIA,13.860963321337298,-15.220319449437994,Angola,NMVOC,1497.3108656836673,220
0082,ANGOLA_HUÍLA_CHICOMBA,15.019421703365952,-14.30430435864405,Angola,NMVOC,1204.84761349913,220
0083,ANGOLA_HUÍLA_CHIPINDO,15.73591828652565,-13.88531948048917,Angola,NMVOC,505.00982393762024,220
0084,ANGOLA_HUÍLA_CUVANGO,16.318716983084595,-14.2140670585581,Angola,NMVOC,773.8352825766068,220
0085,ANGOLA_HUÍLA_GAMBOS,14.0555441801658,-15.836380299367216,Angola,NMVOC,780.0651404497064,220
0086,ANGOLA_HUÍLA_HUMPATA,13.37340825793292,-15.07711619840059,Angola,NMVOC,2584.2771889239907,220
0087,ANGOLA_HUÍLA_JAMBA,15.84246469273556,-14.813136321719922,Angola,NMVOC,933.1573522035037,220
0088,ANGOLA_HUÍLA_LUBANGO,13.74650625251509,-14.782265363665282,Angola,NMVOC,5378.20578957991,220
0089,ANGOLA_HUÍLA_MATALA,15.162569522619448,-15.264035381319765,Angola,NMVOC,2376.1828290834865,220
0090,ANGOLA_HUÍLA_QUILENGUES,13.926712495367244,-14.10284606537322,Angola,NMVOC,745.8769538546674,220
0091,ANGOLA_HUÍLA_QUIPUNGO,14.584346812183863,-15.11197852346331,Angola,NMVOC,1335.4524037678293,220
0092,ANGOLA_LUANDA_BELAS,13.174021473379,-9.08837444152561,Angola,NMVOC,11911.281739415066,220
0093,ANGOLA_LUANDA_CACUACO,13.451339905381309,-8.81991357363531,Angola,NMVOC,9449.125813870447,220
0094,ANGOLA_LUANDA_CAZENGA,13.300213504677842,-8.82313810517484,Angola,NMVOC,4485.444041422098,220
0095,ANGOLA_LUANDA_ICOLO E BENGO,13.862681054977354,-9.152861347234415,Angola,NMVOC,996.1070369227141,220
0096,ANGOLA_LUANDA_LUANDA,13.252264930379923,-8.85095461326464,Angola,NMVOC,16826.139001209554,220
0097,ANGOLA_LUANDA_QUISSAMA,13.850629524262196,-9.831116523016574,Angola,NMVOC,246.57127507322656,220
0098,ANGOLA_LUANDA_VIANA,13.400581493461187,-9.003465052028048,Angola,NMVOC,17292.908625978813,220
0099,ANGOLA_LUNDA NORTE_CAMBULO,21.496387269915466,-7.900107950052335,Angola,NMVOC,776.0669560972204,220
0100,ANGOLA_LUNDA NORTE_CAPENDA CAMULEMBA,18.86907773627034,-9.675389036317052,Angola,NMVOC,482.1932827761941,220
0101,ANGOLA_LUNDA NORTE_CAUNGULA,18.82247560938972,-8.340339422591542,Angola,NMVOC,175.08871424480714,220
0102,ANGOLA_LUNDA NORTE_CHITATO,20.86681232898085,-7.553523750605493,Angola,NMVOC,1724.3906111427673,220
0103,ANGOLA_LUNDA NORTE_CUANGO,18.060888555716936,-8.601096909504287,Angola,NMVOC,1159.671987781211,220
0104,ANGOLA_LUNDA NORTE_CUILO,19.68851489115215,-8.128052490802382,Angola,NMVOC,139.7627391944108,220
0105,ANGOLA_LUNDA NORTE_LÓVUA,20.13536631533787,-7.292391189166928,Angola,NMVOC,31.18207239309819,220
0106,ANGOLA_LUNDA NORTE_LUBALO,19.297321892350976,-9.188561260843436,Angola,NMVOC,117.29399859654234,220
0107,ANGOLA_LUNDA NORTE_LUCAPA,20.47673092828323,-8.42331409755646,Angola,NMVOC,1104.8631610654768,220
0108,ANGOLA_LUNDA NORTE_XÁ-MUTEBA,17.85122654394,-9.277995251698849,Angola,NMVOC,651.7784001290705,220
0109,ANGOLA_LUNDA SUL_CACOLO,19.178913301145815,-10.547328172202947,Angola,NMVOC,238.60915961317957,220
0110,ANGOLA_LUNDA SUL_DALA,20.352238837105524,-10.92405164265005,Angola,NMVOC,169.0820864249431,220
0111,ANGOLA_LUNDA SUL_MUCONDA,21.424847286291374,-10.154651759138405,Angola,NMVOC,322.49774083156734,220
0112,ANGOLA_LUNDA SUL_SAURIMO,20.688380679682755,-9.477233643283244,Angola,NMVOC,3769.706294561442,220
0113,ANGOLA_MALANJE_CACUSO,15.62849098111707,-9.490292469411429,Angola,NMVOC,572.6719314714034,220
0114,ANGOLA_MALANJE_CAHOMBO,16.66605389643875,-8.647102372057851,Angola,NMVOC,101.44797572128472,220
0115,ANGOLA_MALANJE_CALANDULA,16.005245178381916,-8.695990183498342,Angola,NMVOC,533.2585779511004,220
0116,ANGOLA_MALANJE_CAMBUNDI-CATEMBO,17.84709415122643,-10.125145503710968,Angola,NMVOC,291.1305675966697,220
0117,ANGOLA_MALANJE_CANGANDALA,16.683252748189343,-9.952367021939013,Angola,NMVOC,351.8605579266519,220
0118,ANGOLA_MALANJE_CUNDA-DIA-BAZE,17.352728983670623,-8.66125398022735,Angola,NMVOC,58.96597514954086,220
0119,ANGOLA_MALANJE_KIWABA NZOJI,16.45736622164412,-9.037971690115318,Angola,NMVOC,37.128042211622606,220
0120,ANGOLA_MALANJE_LUQUEMBO,17.384986684590697,-10.792874181396483,Angola,NMVOC,391.5718918632508,220
0121,ANGOLA_MALANJE_MALANJE,16.35498305019854,-9.482474776585153,Angola,NMVOC,4409.347726790478,220
0122,ANGOLA_MALANJE_MARIMBA,17.11151213033175,-8.168436018156713,Angola,NMVOC,184.81837491358976,220
0123,ANGOLA_MALANJE_MASSANGO,16.599614024908476,-7.763456075510212,Angola,NMVOC,146.9947342856232,220
0124,ANGOLA_MALANJE_MUCARI,16.919365558811112,-9.481804740501817,Angola,NMVOC,188.1894183566143,220
0125,ANGOLA_MALANJE_QUELA,17.28820754724371,-9.318539247011007,Angola,NMVOC,95.08413654217513,220
0126,ANGOLA_MALANJE_QUIRIMA,18.2681837365498,-11.068909718662896,Angola,NMVOC,157.96574289716395,220
0127,ANGOLA_MOXICO_ALTO ZAMBEZE,22.90799374709926,-12.209683357686718,Angola,NMVOC,921.9765346944797,220
0128,ANGOLA_MOXICO_BUNDAS,21.31907325919521,-14.210473217747047,Angola,NMVOC,643.8385056198496,220
0129,ANGOLA_MOXICO_CAMANONGUE,20.234534061632754,-11.408959591622152,Angola,NMVOC,291.6689712971637,220
0130,ANGOLA_MOXICO_CAMEIA,21.26339460023485,-11.838370789228382,Angola,NMVOC,171.45665538280852,220
0131,ANGOLA_MOXICO_LÉUA,20.575562544579704,-11.74380358626066,Angola,NMVOC,322.7270693814214,220
0132,ANGOLA_MOXICO_LUACANO,22.046284955949286,-11.669871723573195,Angola,NMVOC,128.43794138973095,220
0133,ANGOLA_MOXICO_LUAU,21.997475474347006,-10.901812727972676,Angola,NMVOC,801.3870524164467,220
0134,ANGOLA_MOXICO_LUCHAZES,19.530239402686032,-13.751962349149917,Angola,NMVOC,134.88816107666264,220
0135,ANGOLA_MOXICO_LUENA,19.776770525882704,-12.327720581169427,Angola,NMVOC,3422.0400614911136,220
0136,ANGOLA_NAMIBE_BIBALA,13.139576640553054,-14.685793467915335,Angola,NMVOC,326.3456293738852,220
0137,ANGOLA_NAMIBE_CAMUCUIO,13.0324059676621,-14.003701587165244,Angola,NMVOC,392.61099837939173,220
0138,ANGOLA_NAMIBE_NAMIBE,12.457905307074512,-14.720315334187738,Angola,NMVOC,2187.8634798468056,220
0139,ANGOLA_NAMIBE_TÔMBWA,12.359284305310362,-16.564898961646183,Angola,NMVOC,335.497848083526,220
0140,ANGOLA_NAMIBE_VIREI,12.94168325673447,-15.813548331274848,Angola,NMVOC,250.34972024145057,220
0141,ANGOLA_UÍGE_AMBUILA,14.468179065511844,-7.587449047134571,Angola,NMVOC,162.66119564748098,220
0142,ANGOLA_UÍGE_BEMBE,14.277664721920273,-7.052417289665407,Angola,NMVOC,217.894506050119,220
0143,ANGOLA_UÍGE_BUENGAS,15.825059286515511,-6.668373974646913,Angola,NMVOC,290.26859331006347,220
0144,ANGOLA_UÍGE_BUNGO,15.447113463583449,-7.392017748161813,Angola,NMVOC,256.64931310094613,220
0145,ANGOLA_UÍGE_CANGOLA,15.953541847191238,-7.839972087285049,Angola,NMVOC,304.4713961311984,220
0146,ANGOLA_UÍGE_DAMBA,15.216117046210005,-6.730711730495686,Angola,NMVOC,291.0145251139412,220
0147,ANGOLA_UÍGE_MAQUELA DO ZOMBO,15.504832114047753,-6.115762646049738,Angola,NMVOC,778.7357654471708,220
0148,ANGOLA_UÍGE_SANTA CRUZ,16.58039852859364,-7.043057290518152,Angola,NMVOC,241.72189096814054,220
0149,ANGOLA_UÍGE_MUCABA,15.044844983137867,-7.104479137048426,Angola,NMVOC,220.01889994346357,220
0150,ANGOLA_UÍGE_NEGAGE,15.387803110685544,-7.82670187011252,Angola,NMVOC,991.5861323993367,220
0151,ANGOLA_UÍGE_PURI,15.677588319493356,-7.6520448609471,Angola,NMVOC,213.66718180918522,220
0152,ANGOLA_UÍGE_QUIMBELE,16.358827373391733,-6.339946266586419,Angola,NMVOC,812.2646723788107,220
0153,ANGOLA_UÍGE_QUITEXE,14.916309357718397,-8.05805649608166,Angola,NMVOC,200.26761744302144,220
0154,ANGOLA_UÍGE_SANZA POMBO,16.05132046706061,-7.225080931426597,Angola,NMVOC,413.7340275564096,220
0155,ANGOLA_UÍGE_SONGO,14.789371774574954,-7.15444085578491,Angola,NMVOC,383.6755543476495,220
0156,ANGOLA_UÍGE_UÍGE,15.086269927234868,-7.569389383460002,Angola,NMVOC,4110.302355600358,220
0157,ANGOLA_ZAIRE_CUIMBA,14.656648047034412,-6.211094387740501,Angola,NMVOC,562.4626026135103,220
0158,ANGOLA_ZAIRE_MBANZA CONGO,14.17814621079705,-6.310144184559853,Angola,NMVOC,1634.7113066710688,220
0159,ANGOLA_ZAIRE_NZETO,13.396012085498478,-7.329332397443156,Angola,NMVOC,215.88068722583228,220
0160,ANGOLA_ZAIRE_NÓQUI,13.505068524452918,-6.150797500748508,Angola,NMVOC,884.45619438496,220
0161,ANGOLA_ZAIRE_SOYO,12.72456320103429,-6.276748486180679,Angola,NMVOC,2188.47099211045,220
0162,ANGOLA_ZAIRE_TOMBOCO,13.360813071321832,-6.70704141475642,Angola,NMVOC,331.7684730094227,220
0163,BOTSWANA_CENTRAL_BOBONONG_BOBONONG,28.439270006020617,-21.904588768680572,Botswana,NMVOC,1.8362901411504435,220
0164,BOTSWANA_CENTRAL_BOBONONG_DAMOCHOJENA,27.46425717187249,-21.89586472598768,Botswana,NMVOC,0.0011036526310866425,220
0165,BOTSWANA_CENTRAL_BOBONONG_KOBOJANGO,28.763918196572497,-21.785636334108606,Botswana,NMVOC,1.17896358163711,220
0166,BOTSWANA_CENTRAL_BOBONONG_LENTSWELEMORITI,29.09263730127421,-22.126071452194022,Botswana,NMVOC,1.12957540727866,220
0167,BOTSWANA_CENTRAL_BOBONONG_LEPOKOLE,28.342120180879903,-21.78828871071267,Botswana,NMVOC,0.006755007077707466,220
0168,BOTSWANA_CENTRAL_BOBONONG_MABOLWE,28.93856360422732,-21.822911107503458,Botswana,NMVOC,0.0073986179102877095,220
0169,BOTSWANA_CENTRAL_BOBONONG_MATHATHANE,28.765707084954567,-22.164921148469332,Botswana,NMVOC,0.1603638918974097,220
0170,BOTSWANA_CENTRAL_BOBONONG_MMADINARE,27.61927099292336,-21.939530032971234,Botswana,NMVOC,38.37355272013504,220
0171,BOTSWANA_CENTRAL_BOBONONG_MOLALATAU,28.546028057555482,-22.244047061148887,Botswana,NMVOC,0.24154466821223317,220
0172,BOTSWANA_CENTRAL_BOBONONG_MOLETEMANE,28.24551458680093,-22.49838952314233,Botswana,NMVOC,0.00535232199977662,220
0173,BOTSWANA_CENTRAL_BOBONONG_MOTLHABANENG,28.847671161031595,-22.0878861675696,Botswana,NMVOC,0.04285339115061096,220
0174,BOTSWANA_CENTRAL_BOBONONG_ROBELELA,28.01614217627893,-21.606755627584164,Botswana,NMVOC,0.01125845748298499,220
0175,BOTSWANA_CENTRAL_BOBONONG_SEFOPHE,28.010768080362112,-22.202415922887717,Botswana,NMVOC,0.16987036601430153,220
0176,BOTSWANA_CENTRAL_BOBONONG_SEMOLALE,28.901373465716713,-21.94234612580183,Botswana,NMVOC,0.012547617335371401,220
0177,BOTSWANA_CENTRAL_BOBONONG_TOBANE,28.034740456942973,-21.715331266156507,Botswana,NMVOC,2.541028848868736,220
0178,BOTSWANA_CENTRAL_BOBONONG_TSETSEBJWE,28.261512057832615,-22.323234206617617,Botswana,NMVOC,0.1560500742879684,220
0179,BOTSWANA_CENTRAL_BOBONONG_TSHOKWE,28.12020929554016,-21.7461736340543,Botswana,NMVOC,0.0027121247171032594,220
0180,BOTSWANA_CENTRAL_BOBONONG_TULI,28.659593038222404,-22.426510831132365,Botswana,NMVOC,0.2695550915921982,220
0181,BOTSWANA_CENTRAL_BOTETI_KEDIA,24.838048952453185,-21.403241698591675,Botswana,NMVOC,4.9079032689281055e-6,220
0182,BOTSWANA_CENTRAL_BOTETI_KHWEE,25.42160849963441,-21.949084316434682,Botswana,NMVOC,0.08129962442212557,220
0183,BOTSWANA_CENTRAL_BOTETI_KUMAGA,24.694403521304178,-20.43709104783157,Botswana,NMVOC,0.03770449774429447,220
0184,BOTSWANA_CENTRAL_BOTETI_LETLHAKANE,25.324076768019342,-21.74281229869488,Botswana,NMVOC,47.39718368337155,220
0185,BOTSWANA_CENTRAL_BOTETI_MAKALAMABEDI,24.027537186531372,-20.329731365780997,Botswana,NMVOC,0,220
0186,BOTSWANA_CENTRAL_BOTETI_MMADIKOLA,24.505648562137157,-21.04540148259183,Botswana,NMVOC,0,220
0187,BOTSWANA_CENTRAL_BOTETI_MMATSHUMO,25.608635534616877,-21.055357574481494,Botswana,NMVOC,44.1386358656463,220
0188,BOTSWANA_CENTRAL_BOTETI_MOKOBOXANE,25.01278736428241,-21.374661912697718,Botswana,NMVOC,0.03186645565762357,220
0189,BOTSWANA_CENTRAL_BOTETI_MOPIPI,25.06130611972133,-20.957019464880865,Botswana,NMVOC,19.06938573219773,220
0190,BOTSWANA_CENTRAL_BOTETI_MOREOMAOTO,24.225653269651804,-20.326805973885744,Botswana,NMVOC,0,220
0191,BOTSWANA_CENTRAL_BOTETI_MOSU,26.096038009772478,-21.108931183794436,Botswana,NMVOC,0.08029597123663894,220
0192,BOTSWANA_CENTRAL_BOTETI_MOTOPI,24.143658950831586,-20.239487705166916,Botswana,NMVOC,0,220
0193,BOTSWANA_CENTRAL_BOTETI_TOROMOJA,24.68875163244386,-21.028858930681245,Botswana,NMVOC,0.0020786458468212174,220
0194,BOTSWANA_CENTRAL_BOTETI_TSIENYANE/RAKOPS,24.297459830504376,-20.770824097320627,Botswana,NMVOC,0.3922934403334126,220
0195,BOTSWANA_CENTRAL_BOTETI_XERE,23.995091776720663,-21.05103701376487,Botswana,NMVOC,0.010372010625030573,220
0196,BOTSWANA_CENTRAL_BOTETI_XHUMO,24.543580068860226,-21.43138653458584,Botswana,NMVOC,0.15352570355975703,220
0197,BOTSWANA_CENTRAL_MAHALAPYE_BONWAPITSE,26.696499319837177,-23.016977775399745,Botswana,NMVOC,0.02297767650503056,220
0198,BOTSWANA_CENTRAL_MAHALAPYE_BOROTSI,27.574845464339035,-23.03787815480758,Botswana,NMVOC,0.02033000332490162,220
0199,BOTSWANA_CENTRAL_MAHALAPYE_CHADIBE,27.653472614061975,-23.04213517690895,Botswana,NMVOC,0.006467364141213721,220
0200,BOTSWANA_CENTRAL_MAHALAPYE_DIBETE STATION,26.60466673565762,-23.712578892238895,Botswana,NMVOC,0.2954798426902529,220
0201,BOTSWANA_CENTRAL_MAHALAPYE_DOVEDALE,27.0584095397386,-23.43747251689984,Botswana,NMVOC,3.8809206211790612,220
0202,BOTSWANA_CENTRAL_MAHALAPYE_IKONGWE,26.42368516567563,-23.133332920110572,Botswana,NMVOC,0,220
0203,BOTSWANA_CENTRAL_MAHALAPYE_KALAMARE,26.676800027450167,-22.85145869530537,Botswana,NMVOC,0.03875232136468496,220
0204,BOTSWANA_CENTRAL_MAHALAPYE_KODIBELENG,25.8565320473089,-23.06990009465882,Botswana,NMVOC,0.15998315526710247,220
0205,BOTSWANA_CENTRAL_MAHALAPYE_KUDUMATSE,27.163558620828415,-23.343825570073967,Botswana,NMVOC,2.382535196821109,220
0206,BOTSWANA_CENTRAL_MAHALAPYE_MAAPE,27.298633726872115,-22.801071310840364,Botswana,NMVOC,0.11650461438081072,220
0207,BOTSWANA_CENTRAL_MAHALAPYE_MACHANENG,27.430989788355014,-23.17527950233516,Botswana,NMVOC,0.1360291481405692,220
0208,BOTSWANA_CENTRAL_MAHALAPYE_MAHALAPYE,26.92364672437042,-23.059367128880574,Botswana,NMVOC,2.299101142874403,220
0209,BOTSWANA_CENTRAL_MAHALAPYE_MAKWATE,27.289572829578482,-23.25066866242674,Botswana,NMVOC,0.09970234311976985,220
0210,BOTSWANA_CENTRAL_MAHALAPYE_MATLHAKO,27.57730747946278,-23.092868816729595,Botswana,NMVOC,0.026094877224823478,220
0211,BOTSWANA_CENTRAL_MAHALAPYE_MHALAPITSA,27.241670153565362,-22.750141129591885,Botswana,NMVOC,0.07020026392423612,220
0212,BOTSWANA_CENTRAL_MAHALAPYE_MMAPHASHALALA,26.85959307803958,-23.525191663403213,Botswana,NMVOC,0.048455553966439496,220
0213,BOTSWANA_CENTRAL_MAHALAPYE_MMUTLANA,26.603632318980285,-22.97161859276938,Botswana,NMVOC,0.19200404046442435,220
0214,BOTSWANA_CENTRAL_MAHALAPYE_MOKGENENE,26.039953432163163,-23.53987260084274,Botswana,NMVOC,0.0010334552058118213,220
0215,BOTSWANA_CENTRAL_MAHALAPYE_MOKOBENG,27.693890294840614,-22.97362584906358,Botswana,NMVOC,8.79194449211028e-4,220
0216,BOTSWANA_CENTRAL_MAHALAPYE_MOKOSWANE,26.94190877928232,-23.316220505173856,Botswana,NMVOC,0.039225211802587284,220
0217,BOTSWANA_CENTRAL_MAHALAPYE_MOOKANE,26.698166386924417,-23.694975957356803,Botswana,NMVOC,0.026736882746492708,220
0218,BOTSWANA_CENTRAL_MAHALAPYE_MORALANE,26.215414450162044,-22.936420739953075,Botswana,NMVOC,0.004413650719102996,220
0219,BOTSWANA_CENTRAL_MAHALAPYE_MOSHOPHA,27.314662802995976,-22.947407012331485,Botswana,NMVOC,0.1390383907876145,220
0220,BOTSWANA_CENTRAL_MAHALAPYE_MOSOLOTSHANE,26.428423160167153,-22.91931594278049,Botswana,NMVOC,1.141660062352651,220
0221,BOTSWANA_CENTRAL_MAHALAPYE_NGWAPA,27.77944253096159,-22.919703336193177,Botswana,NMVOC,0.008000831385859514,220
0222,BOTSWANA_CENTRAL_MAHALAPYE_OTSE,25.946626364668234,-23.32358945282839,Botswana,NMVOC,0.08057054761935316,220
0223,BOTSWANA_CENTRAL_MAHALAPYE_PALLA ROAD/DINOKWE,26.77659555732254,-23.360515846147123,Botswana,NMVOC,0.070377066465012,220
0224,BOTSWANA_CENTRAL_MAHALAPYE_PILIKWE,27.12830992169561,-22.797803953113785,Botswana,NMVOC,0.7286533119018859,220
0225,BOTSWANA_CENTRAL_MAHALAPYE_POLOKA,26.288048197015442,-23.601986580637178,Botswana,NMVOC,0.21943404132501926,220
0226,BOTSWANA_CENTRAL_MAHALAPYE_RAMOKGONAMI,27.427775976491716,-22.856906588140728,Botswana,NMVOC,1.835264989691739,220
0227,BOTSWANA_CENTRAL_MAHALAPYE_SEFHARE,27.497480197007754,-23.01846757513452,Botswana,NMVOC,0.19363187138139237,220
0228,BOTSWANA_CENTRAL_MAHALAPYE_SELEKA,27.541179586978274,-22.862211127370156,Botswana,NMVOC,2.811681012571365,220
0229,BOTSWANA_CENTRAL_MAHALAPYE_SHAKWE,27.285868545141952,-23.098563338666022,Botswana,NMVOC,0.17420400556900154,220
0230,BOTSWANA_CENTRAL_MAHALAPYE_SHOSHONG,26.387666419486898,-23.28181618855284,Botswana,NMVOC,10.790653279294832,220
0231,BOTSWANA_CENTRAL_MAHALAPYE_TAUPYE,27.086389543341017,-23.181122303718336,Botswana,NMVOC,0.04666981020069893,220
0232,BOTSWANA_CENTRAL_MAHALAPYE_TEWANE,26.8808106284804,-22.855065985054686,Botswana,NMVOC,0.03799462138315325,220
0233,BOTSWANA_CENTRAL_MAHALAPYE_TULI,27.376483753636418,-23.358300442845334,Botswana,NMVOC,139.93288869686447,220
0234,BOTSWANA_CENTRAL_MAHALAPYE_TUMASERA,27.625135322324592,-22.873322197159712,Botswana,NMVOC,6.97434253200905,220
0235,BOTSWANA_CENTRAL_SEROWE PALAPYE_DILORO,27.615763781482226,-22.42069872982587,Botswana,NMVOC,0.03836865790869694,220
0236,BOTSWANA_CENTRAL_SEROWE PALAPYE_DIMAJWE,26.75499325012916,-21.701835892951095,Botswana,NMVOC,0.026050210381045984,220
0237,BOTSWANA_CENTRAL_SEROWE PALAPYE_GAMABUO,26.34887363421504,-22.621942368691556,Botswana,NMVOC,0,220
0238,BOTSWANA_CENTRAL_SEROWE PALAPYE_GOJWANE,27.274583799149916,-21.783314177365938,Botswana,NMVOC,0.06706564791539847,220
0239,BOTSWANA_CENTRAL_SEROWE PALAPYE_GOO-SEKGWENG,27.378852556607093,-22.684458968010347,Botswana,NMVOC,0.048749250745990326,220
0240,BOTSWANA_CENTRAL_SEROWE PALAPYE_GOOTAU,27.424470969841263,-22.695172167140004,Botswana,NMVOC,0.006714871776028336,220
0241,BOTSWANA_CENTRAL_SEROWE PALAPYE_KGAGODI,27.50339317555218,-22.29477672423486,Botswana,NMVOC,0.02784577855125927,220
0242,BOTSWANA_CENTRAL_SEROWE PALAPYE_LECHENG,27.185275817151037,-22.673190570584637,Botswana,NMVOC,0.19813393836971072,220
0243,BOTSWANA_CENTRAL_SEROWE PALAPYE_LERALA,27.844813325817267,-22.74868745754991,Botswana,NMVOC,0.41867296531454556,220
0244,BOTSWANA_CENTRAL_SEROWE PALAPYE_LESENEPOLE/MATOLWANE,27.57647005773152,-22.540521067100062,Botswana,NMVOC,0.010430571444834044,220
0245,BOTSWANA_CENTRAL_SEROWE PALAPYE_MABELEAPUDI,26.825166966464483,-22.128040644255414,Botswana,NMVOC,0.06394282751844389,220
0246,BOTSWANA_CENTRAL_SEROWE PALAPYE_MAJWANAADIPITSE,27.005264767504467,-21.94020945810498,Botswana,NMVOC,0.21643405829782397,220
0247,BOTSWANA_CENTRAL_SEROWE PALAPYE_MAJWANENG,27.649493814512812,-22.75586221108769,Botswana,NMVOC,1.1201796243834259e-4,220
0248,BOTSWANA_CENTRAL_SEROWE PALAPYE_MALAKA,27.34590226161426,-22.592437093749382,Botswana,NMVOC,2.7420251066642596,220
0249,BOTSWANA_CENTRAL_SEROWE PALAPYE_MALATSWAI,26.22277867959262,-21.857375536824936,Botswana,NMVOC,4.4846892887459795,220
0250,BOTSWANA_CENTRAL_SEROWE PALAPYE_MANALEDI,27.5051048457668,-22.739538071182494,Botswana,NMVOC,0.015241248471753649,220
0251,BOTSWANA_CENTRAL_SEROWE PALAPYE_MATLHAKOLA,27.317001132592853,-22.71429972506726,Botswana,NMVOC,0.003910378645101106,220
0252,BOTSWANA_CENTRAL_SEROWE PALAPYE_MAUNATLALA,27.815623496542926,-22.549960915979852,Botswana,NMVOC,0.19627608979029232,220
0253,BOTSWANA_CENTRAL_SEROWE PALAPYE_MMASHORO,26.545528327992464,-21.913528088466634,Botswana,NMVOC,0.038686573260856,220
0254,BOTSWANA_CENTRAL_SEROWE PALAPYE_MOENG,27.61182691600207,-22.684247954870994,Botswana,NMVOC,4.1028885033785766e-4,220
0255,BOTSWANA_CENTRAL_SEROWE PALAPYE_MOGAPI,27.90355332352727,-22.400536057043198,Botswana,NMVOC,0.09861581793399136,220
0256,BOTSWANA_CENTRAL_SEROWE PALAPYE_MOGAPINYANA,27.656777003289175,-22.30921854076872,Botswana,NMVOC,0.028708777279564186,220
0257,BOTSWANA_CENTRAL_SEROWE PALAPYE_MOGOME,26.8788884869847,-22.780246290758782,Botswana,NMVOC,0.008606440471641337,220
0258,BOTSWANA_CENTRAL_SEROWE PALAPYE_MOGOROSI,26.50681705808967,-22.435754433322103,Botswana,NMVOC,0.05083361644364328,220
0259,BOTSWANA_CENTRAL_SEROWE PALAPYE_MOIYABANA,25.735420719204132,-22.568416950895624,Botswana,NMVOC,0.5471215043307853,220
0260,BOTSWANA_CENTRAL_SEROWE PALAPYE_MOKGWARE,26.78655204288414,-22.77384105120242,Botswana,NMVOC,0.003969577331219188,220
0261,BOTSWANA_CENTRAL_SEROWE PALAPYE_MOKHUNGWANA,27.306318999794403,-22.66250272126858,Botswana,NMVOC,0.037227143178102044,220
0262,BOTSWANA_CENTRAL_SEROWE PALAPYE_MOKOKWANA,27.68970066181251,-22.615814171525756,Botswana,NMVOC,1.260642584131914,220
0263,BOTSWANA_CENTRAL_SEROWE PALAPYE_MOREMI,27.48231653767836,-22.53631545317506,Botswana,NMVOC,0.041878642238762545,220
0264,BOTSWANA_CENTRAL_SEROWE PALAPYE_MOREOMABELE,27.19509262463396,-21.997866632985815,Botswana,NMVOC,0.13626206055845164,220
0265,BOTSWANA_CENTRAL_SEROWE PALAPYE_MOSWEU,27.643842814290796,-22.648861924159835,Botswana,NMVOC,6.028238963111719e-4,220
0266,BOTSWANA_CENTRAL_SEROWE PALAPYE_MOTSHEGALETAU,26.39728909838941,-22.561009612981003,Botswana,NMVOC,0.0024897215977888825,220
0267,BOTSWANA_CENTRAL_SEROWE PALAPYE_PAJE,26.816328935481604,-22.26070768401234,Botswana,NMVOC,9.897212968527267e-4,220
0268,BOTSWANA_CENTRAL_SEROWE PALAPYE_PALAPYE,27.16786344665423,-22.55497413257865,Botswana,NMVOC,68.78272146596132,220
0269,BOTSWANA_CENTRAL_SEROWE PALAPYE_RADISELE,26.988408471288807,-22.81090444695215,Botswana,NMVOC,0.020333585781088598,220
0270,BOTSWANA_CENTRAL_SEROWE PALAPYE_RATHOLO,27.53938699821314,-22.68681419937455,Botswana,NMVOC,0.04955434102070926,220
0271,BOTSWANA_CENTRAL_SEROWE PALAPYE_SEHUNOU,26.385003835935297,-22.59514869100243,Botswana,NMVOC,3.233048193661842e-4,220
0272,BOTSWANA_CENTRAL_SEROWE PALAPYE_SEOLWANE,27.762620325390287,-22.666448768729584,Botswana,NMVOC,9.626464016450168,220
0273,BOTSWANA_CENTRAL_SEROWE PALAPYE_SEROWE,26.50285991859318,-21.991307902066985,Botswana,NMVOC,26.95518020177377,220
0274,BOTSWANA_CENTRAL_SEROWE PALAPYE_SERULE,27.237798390462725,-21.890009585678992,Botswana,NMVOC,0.09547884941965076,220
0275,BOTSWANA_CENTRAL_SEROWE PALAPYE_TAMASANE,27.396841887713986,-22.3814578521284,Botswana,NMVOC,0.039198084655308156,220
0276,BOTSWANA_CENTRAL_SEROWE PALAPYE_THABALA,26.421061666211095,-22.511119340536165,Botswana,NMVOC,0.02138028148965658,220
0277,BOTSWANA_CENTRAL_SEROWE PALAPYE_TOPISI,27.22337506343467,-22.227424247307294,Botswana,NMVOC,2.65944092296563,220
0278,BOTSWANA_CENTRAL_SEROWE PALAPYE_TSHIMOYAPULA,27.019142014452218,-22.119432295799754,Botswana,NMVOC,0.053710975632346405,220
0279,BOTSWANA_CENTRAL_SEROWE PALAPYE_TULI,28.061256491221307,-22.727203098241798,Botswana,NMVOC,0.07573525655218183,220
0280,BOTSWANA_CENTRAL_TUTUME_BOROLONG,27.32637665560921,-21.091395459266185,Botswana,NMVOC,0.032658247297655305,220
0281,BOTSWANA_CENTRAL_TUTUME_BOROTSI,27.251654267811457,-21.026993493948527,Botswana,NMVOC,0.017540197138702435,220
0282,BOTSWANA_CENTRAL_TUTUME_CHADIBE,27.342256409557447,-21.066229746391034,Botswana,NMVOC,0.04734929107345271,220
0283,BOTSWANA_CENTRAL_TUTUME_CHANGATE,27.246529169011538,-20.323681695475976,Botswana,NMVOC,0.0032765868114887613,220
0284,BOTSWANA_CENTRAL_TUTUME_DAGWI,27.24543111493109,-20.205531255072483,Botswana,NMVOC,0.10462254093097235,220
0285,BOTSWANA_CENTRAL_TUTUME_DUKWI,26.284620970093016,-20.67546283807841,Botswana,NMVOC,0.5139364695224535,220
0286,BOTSWANA_CENTRAL_TUTUME_GOSHWE,27.21557874997618,-20.535609785786193,Botswana,NMVOC,0,220
0287,BOTSWANA_CENTRAL_TUTUME_GWETA,25.591976234675478,-19.905319536886395,Botswana,NMVOC,12.990647224974872,220
0288,BOTSWANA_CENTRAL_TUTUME_JAMATAKA,27.15547496011975,-21.068951470145485,Botswana,NMVOC,0.0057712172482758915,220
0289,BOTSWANA_CENTRAL_TUTUME_KUTAMOGREE,26.880512190693914,-20.75110495387822,Botswana,NMVOC,0.09305949829207724,220
0290,BOTSWANA_CENTRAL_TUTUME_LEPASHE,26.66685337113433,-20.812417757916798,Botswana,NMVOC,4.0590945905230935,220
0291,BOTSWANA_CENTRAL_TUTUME_MABESEKWA,26.832739428334428,-21.176734877732674,Botswana,NMVOC,0.3583549831230232,220
0292,BOTSWANA_CENTRAL_TUTUME_MAFONGO/HOBONA,27.235943246400137,-20.94573521021701,Botswana,NMVOC,0.001320716048067335,220
0293,BOTSWANA_CENTRAL_TUTUME_MAITENGWE,27.011808968202775,-20.116667928999114,Botswana,NMVOC,0.4229726139989777,220
0294,BOTSWANA_CENTRAL_TUTUME_MAKOBO,27.107677079222814,-21.02576555193948,Botswana,NMVOC,0.01603675921027935,220
0295,BOTSWANA_CENTRAL_TUTUME_MAKUTA,26.936411463806042,-20.611020613663403,Botswana,NMVOC,0.11586802244061835,220
0296,BOTSWANA_CENTRAL_TUTUME_MANDUNYANE,27.164838306199922,-21.29997484522961,Botswana,NMVOC,0.14638545440910064,220
0297,BOTSWANA_CENTRAL_TUTUME_MAPOSA,26.227831043889193,-20.105672557073913,Botswana,NMVOC,0.10439434658173213,220
0298,BOTSWANA_CENTRAL_TUTUME_MARAPONG,27.060904032209528,-20.875646900092942,Botswana,NMVOC,2.1861781744465987e-4,220
0299,BOTSWANA_CENTRAL_TUTUME_MAROBELA,27.22684904528886,-20.86226718353111,Botswana,NMVOC,0.001469723249243497,220
0300,BOTSWANA_CENTRAL_TUTUME_MATHANGWANE,27.301597561179328,-20.96526881266621,Botswana,NMVOC,0.09394124061785276,220
0301,BOTSWANA_CENTRAL_TUTUME_MATOBO,27.07410815569497,-20.55396589314004,Botswana,NMVOC,0.06250384170213562,220
0302,BOTSWANA_CENTRAL_TUTUME_MATSITAMA,26.795600326944548,-20.91574597947195,Botswana,NMVOC,5.661961447678919,220
0303,BOTSWANA_CENTRAL_TUTUME_MMANXOTAE,26.39231628230285,-20.11189737769122,Botswana,NMVOC,0.05600625004634436,220
0304,BOTSWANA_CENTRAL_TUTUME_MMEYA,26.45632418802842,-20.83403038639063,Botswana,NMVOC,2.304014112257734,220
0305,BOTSWANA_CENTRAL_TUTUME_MOKUBILO,26.522301620359478,-21.211068795354347,Botswana,NMVOC,0.39833871034514373,220
0306,BOTSWANA_CENTRAL_TUTUME_MOSETSE,26.717225408615494,-20.61414488681695,Botswana,NMVOC,0.206380932706685,220
0307,BOTSWANA_CENTRAL_TUTUME_NATA,26.421106250465357,-20.364015464327988,Botswana,NMVOC,1.545081336438198,220
0308,BOTSWANA_CENTRAL_TUTUME_NATALE,27.13819661363051,-21.12190933916731,Botswana,NMVOC,0.08448208269053162,220
0309,BOTSWANA_CENTRAL_TUTUME_NKANGE,27.150899768186317,-20.292280125711056,Botswana,NMVOC,0.006029174316923737,220
0310,BOTSWANA_CENTRAL_TUTUME_NSHAKASHOKWE,27.19448164625436,-20.800715019251136,Botswana,NMVOC,0.0024928887596102484,220
0311,BOTSWANA_CENTRAL_TUTUME_NSWAZWI,27.11079707796551,-20.717051379328918,Botswana,NMVOC,0.11020531531897479,220
0312,BOTSWANA_CENTRAL_TUTUME_SEBINA,27.212125328697905,-20.8229088309246,Botswana,NMVOC,0.0014369896454966757,220
0313,BOTSWANA_CENTRAL_TUTUME_SEMITWE,27.057568754807466,-20.9304846145358,Botswana,NMVOC,0.10770725105180598,220
0314,BOTSWANA_CENTRAL_TUTUME_SENETE,27.061521930586494,-20.338940466599496,Botswana,NMVOC,0.04981589565067216,220
0315,BOTSWANA_CENTRAL_TUTUME_SEPAKO,26.42176865500974,-19.91292710159379,Botswana,NMVOC,0.6691876773873628,220
0316,BOTSWANA_CENTRAL_TUTUME_SHASHE-MOOKE,27.294622390104607,-21.200689259821715,Botswana,NMVOC,0.06702488723363148,220
0317,BOTSWANA_CENTRAL_TUTUME_SHASHE/SEMOTSWANE,27.353975033981698,-21.4004850680266,Botswana,NMVOC,0.046411780229304145,220
0318,BOTSWANA_CENTRAL_TUTUME_TONOTA,27.390007578405545,-21.56581687363627,Botswana,NMVOC,0.44406244576976334,220
0319,BOTSWANA_CENTRAL_TUTUME_TSHOKATSHAA,25.411457316681155,-20.073274987651395,Botswana,NMVOC,0.018166408160112453,220
0320,BOTSWANA_CENTRAL_TUTUME_TUTUME,26.93343318392142,-20.358110222677443,Botswana,NMVOC,0.5396351556628649,220
0321,BOTSWANA_CENTRAL_TUTUME_ZOROGA,25.931132083826565,-20.225947339100205,Botswana,NMVOC,0.2889488695980259,220
0322,BOTSWANA_CHOBE_CHOBE_KACHIKAU,24.593403269312077,-18.19955337118612,Botswana,NMVOC,0.02867403086392707,220
0323,BOTSWANA_CHOBE_CHOBE_KASANE,25.053605518831368,-17.95621200218165,Botswana,NMVOC,20.738372789047855,220
0324,BOTSWANA_CHOBE_CHOBE_KATABA,24.208556915615702,-18.516556039211913,Botswana,NMVOC,0.07863118419743867,220
0325,BOTSWANA_CHOBE_CHOBE_KAVIMBA,24.673787397731,-18.131513519062572,Botswana,NMVOC,0.018264218744803624,220
0326,BOTSWANA_CHOBE_CHOBE_KAZUNGULA,25.239551399880288,-17.81715309318576,Botswana,NMVOC,21.390469213709746,220
0327,BOTSWANA_CHOBE_CHOBE_LESOMA,25.22616409411994,-17.924922498851625,Botswana,NMVOC,0.04543126835659726,220
0328,BOTSWANA_CHOBE_CHOBE_MUCHINJE/MABELE,24.80594102179805,-18.000000788213598,Botswana,NMVOC,12.841751873195657,220
0329,BOTSWANA_CHOBE_CHOBE_NUMBER SEVEN,25.091530617419757,-18.628521496100262,Botswana,NMVOC,1.5935597592227666,220
0330,BOTSWANA_CHOBE_CHOBE_PANDAMATENGA,25.62991931175742,-18.55507084642917,Botswana,NMVOC,0.007569987472999537,220
0331,BOTSWANA_CHOBE_CHOBE_PARAKARUNGU,24.3003425097673,-18.078920152986736,Botswana,NMVOC,0.061610311293378656,220
0332,BOTSWANA_CHOBE_CHOBE_SATAU,24.4229631549193,-18.021010667013208,Botswana,NMVOC,0.012339366790396947,220
0333,BOTSWANA_GABORONE_GABORONE_GABORONE,25.88095190745218,-24.686452843134287,Botswana,NMVOC,9.08531649669055,220
0334,BOTSWANA_GHANZI_CENTRAL KGALAGADI GAME RESERVE_CENTRAL KGALAGADI GAME RESERVE,23.84354631529824,-22.32227292696922,Botswana,NMVOC,37.00231466987702,220
0335,BOTSWANA_GHANZI_GHANZI_B. VISSER,22.55838233704724,-21.32992655115972,Botswana,NMVOC,0,220
0336,BOTSWANA_GHANZI_GHANZI_BERE,21.79557213181817,-22.740271290335002,Botswana,NMVOC,0,220
0337,BOTSWANA_GHANZI_GHANZI_CHARLES HILL,20.07849051397565,-22.30448292484571,Botswana,NMVOC,0.0854474022337455,220
0338,BOTSWANA_GHANZI_GHANZI_CHARLES SHELDON,22.10987199508711,-21.572165997131027,Botswana,NMVOC,0.029487158659329427,220
0339,BOTSWANA_GHANZI_GHANZI_CHOBOKWANE,21.24948179474576,-22.480947513304624,Botswana,NMVOC,0.012535865662310188,220
0340,BOTSWANA_GHANZI_GHANZI_DECT ETIN,21.87694726048196,-21.572322965589386,Botswana,NMVOC,0.1332185195632472,220
0341,BOTSWANA_GHANZI_GHANZI_DEKAR,22.065436232878568,-21.366520787607246,Botswana,NMVOC,0.009387394267940519,220
0342,BOTSWANA_GHANZI_GHANZI_EAST HANAHAI,22.296004965831617,-22.138606212752848,Botswana,NMVOC,0.18687783681681042,220
0343,BOTSWANA_GHANZI_GHANZI_GHANZI,21.636172818729325,-21.69600936266415,Botswana,NMVOC,0.4183111907405632,220
0344,BOTSWANA_GHANZI_GHANZI_GROOTE LAAGTE,21.349883074115542,-21.38859908504291,Botswana,NMVOC,0.49120326844309703,220
0345,BOTSWANA_GHANZI_GHANZI_HANS METZLER,20.164337868142784,-22.12061746486461,Botswana,NMVOC,0.13375466901451327,220
0346,BOTSWANA_GHANZI_GHANZI_J. RANSALL,20.422333298998613,-22.140780374743333,Botswana,NMVOC,0,220
0347,BOTSWANA_GHANZI_GHANZI_JANKI JANKI,21.346606317490824,-23.123137224643713,Botswana,NMVOC,0.06057019580851349,220
0348,BOTSWANA_GHANZI_GHANZI_JERUNG,22.462289483631174,-21.771073127188487,Botswana,NMVOC,0.07527080070230058,220
0349,BOTSWANA_GHANZI_GHANZI_JOHN FARM,22.325500764273656,-21.113654988029502,Botswana,NMVOC,0.01658550428394486,220
0350,BOTSWANA_GHANZI_GHANZI_KACGAE,22.25670639051408,-22.78108355380457,Botswana,NMVOC,0.14262157790737354,220
0351,BOTSWANA_GHANZI_GHANZI_KARAKOBIS,20.69787418591688,-22.076318449477853,Botswana,NMVOC,0.014781868833126871,220
0352,BOTSWANA_GHANZI_GHANZI_KULE,20.25485884411168,-22.82990220520822,Botswana,NMVOC,0.006453429460026866,220
0353,BOTSWANA_GHANZI_GHANZI_MAGONO MAGONO,20.74295662591417,-23.122989899939387,Botswana,NMVOC,0,220
0354,BOTSWANA_GHANZI_GHANZI_MAKUNDA,20.356137474087205,-22.403140017753746,Botswana,NMVOC,0.05548659388847024,220
0355,BOTSWANA_GHANZI_GHANZI_MASIRE'S FARM,21.364735361374258,-21.90738889293877,Botswana,NMVOC,0.06992686274088625,220
0356,BOTSWANA_GHANZI_GHANZI_NCOJANE,20.259249043024266,-23.18993344999315,Botswana,NMVOC,2.9510935074613297e-5,220
0357,BOTSWANA_GHANZI_GHANZI_NEW XADE,22.47638609723249,-22.059709596306462,Botswana,NMVOC,0.027683470546563047,220
0358,BOTSWANA_GHANZI_GHANZI_NEW XANAGAS,20.800274167066778,-22.572525810989912,Botswana,NMVOC,0.08269857301581414,220
0359,BOTSWANA_GHANZI_GHANZI_QABO,21.72658991626723,-21.05161346564646,Botswana,NMVOC,0,220
0360,BOTSWANA_GHANZI_GHANZI_TSOOTSHA,20.91109497610415,-22.075747207834585,Botswana,NMVOC,0.007828532819622336,220
0361,BOTSWANA_GHANZI_GHANZI_WEST HANAHAI,21.65082272869238,-22.135855131778566,Botswana,NMVOC,0,220
0362,BOTSWANA_JWANENG_JWANENG_JWANENG,24.757853176422884,-24.58932918017088,Botswana,NMVOC,0.023213366083650752,220
0363,BOTSWANA_KGALAGADI_KGALAGADI NORTH_HUKUNTSI,21.663906534181816,-23.998763591814352,Botswana,NMVOC,0.11366503975064554,220
0364,BOTSWANA_KGALAGADI_KGALAGADI NORTH_HUNHUKWE,21.77076341928267,-23.455768999361656,Botswana,NMVOC,0.031041253073179773,220
0365,BOTSWANA_KGALAGADI_KGALAGADI NORTH_INALEGOLO,22.658513508974664,-24.45585560542118,Botswana,NMVOC,0.4024691459580902,220
0366,BOTSWANA_KGALAGADI_KGALAGADI NORTH_KANG,22.631383747199003,-23.529403386876705,Botswana,NMVOC,0.45742687254879283,220
0367,BOTSWANA_KGALAGADI_KGALAGADI NORTH_LEHUTUTU,22.00790879280739,-23.84360826239536,Botswana,NMVOC,0.0021559848617394143,220
0368,BOTSWANA_KGALAGADI_KGALAGADI NORTH_LOKGWABE,21.7851453687414,-24.07867771129318,Botswana,NMVOC,0.07307054146886631,220
0369,BOTSWANA_KGALAGADI_KGALAGADI NORTH_MAKE,21.994205625425362,-23.680770428270183,Botswana,NMVOC,1.2365550784481066e-11,220
0370,BOTSWANA_KGALAGADI_KGALAGADI NORTH_MONONG,21.544688834846603,-23.73920927317219,Botswana,NMVOC,0.005357778169651032,220
0371,BOTSWANA_KGALAGADI_KGALAGADI NORTH_NCAANG,21.1223824590204,-23.44041697965504,Botswana,NMVOC,0,220
0372,BOTSWANA_KGALAGADI_KGALAGADI NORTH_NGWATLE,21.117355141120534,-23.647886311201248,Botswana,NMVOC,0.003963049205344587,220
0373,BOTSWANA_KGALAGADI_KGALAGADI NORTH_PHUDUHUDU,22.580063911251433,-23.93036127904691,Botswana,NMVOC,0.03133535919370793,220
0374,BOTSWANA_KGALAGADI_KGALAGADI NORTH_TSHANE,22.009218648598967,-23.97480857848694,Botswana,NMVOC,0.017749779259088033,220
0375,BOTSWANA_KGALAGADI_KGALAGADI NORTH_UKWI,20.54965855676176,-23.64224465777984,Botswana,NMVOC,0.5955582102137671,220
0376,BOTSWANA_KGALAGADI_KGALAGADI NORTH_ZUTSWA,21.06879673283048,-24.378159867529472,Botswana,NMVOC,0.6332445061820596,220
0377,BOTSWANA_KGALAGADI_KGALAGADI SOUTH_BOGOGOBO,21.939941061820672,-26.643776855439175,Botswana,NMVOC,0,220
0378,BOTSWANA_KGALAGADI_KGALAGADI SOUTH_BOKSPITS,21.314513491670507,-25.52305062333103,Botswana,NMVOC,0.03392586238264693,220
0379,BOTSWANA_KGALAGADI_KGALAGADI SOUTH_BRAY,23.752155151918004,-25.314612046817558,Botswana,NMVOC,4.667891465704455,220
0380,BOTSWANA_KGALAGADI_KGALAGADI SOUTH_GACHIBANA,21.318615947145076,-26.76135876855932,Botswana,NMVOC,0,220
0381,BOTSWANA_KGALAGADI_KGALAGADI SOUTH_KHISA,22.627311790636153,-25.661301014142644,Botswana,NMVOC,0,220
0382,BOTSWANA_KGALAGADI_KGALAGADI SOUTH_KHUIS,21.778745594602643,-26.61621321259511,Botswana,NMVOC,0,220
0383,BOTSWANA_KGALAGADI_KGALAGADI SOUTH_KHWAWA,21.536389504618732,-26.33146231350371,Botswana,NMVOC,0,220
0384,BOTSWANA_KGALAGADI_KGALAGADI SOUTH_KOKOTSHA,23.282665786747692,-24.952596354252385,Botswana,NMVOC,0.0011512595932399788,220
0385,BOTSWANA_KGALAGADI_KGALAGADI SOUTH_KOLONKWANE,21.998886440804885,-26.46695305601831,Botswana,NMVOC,0,220
0386,BOTSWANA_KGALAGADI_KGALAGADI SOUTH_MAKOPONG,23.00557554126552,-25.279785016029198,Botswana,NMVOC,0,220
0387,BOTSWANA_KGALAGADI_KGALAGADI SOUTH_MALESHE,22.578885408820124,-25.861705230970156,Botswana,NMVOC,2.71940979672306e-10,220
0388,BOTSWANA_KGALAGADI_KGALAGADI SOUTH_MARALALENG,22.68707487230088,-25.784682276497044,Botswana,NMVOC,0,220
0389,BOTSWANA_KGALAGADI_KGALAGADI SOUTH_MAUBELO,22.38337590834033,-25.32060395255863,Botswana,NMVOC,0.1559011919284957,220
0390,BOTSWANA_KGALAGADI_KGALAGADI SOUTH_MIDDLEPITS,21.88965522829646,-26.64510622003729,Botswana,NMVOC,0,220
0391,BOTSWANA_KGALAGADI_KGALAGADI SOUTH_MOLOPO FARMS,23.901539179894392,-25.218667431791786,Botswana,NMVOC,2.1244457230289746,220
0392,BOTSWANA_KGALAGADI_KGALAGADI SOUTH_OMAWENENO,22.58460683893281,-25.787109823452095,Botswana,NMVOC,0,220
0393,BOTSWANA_KGALAGADI_KGALAGADI SOUTH_PHEPHENG/DRAAIHOEK,22.78105010135853,-25.353110330504997,Botswana,NMVOC,0.005242674840315419,220
0394,BOTSWANA_KGALAGADI_KGALAGADI SOUTH_RAPPLES PAN,21.008575646663,-26.638159980643096,Botswana,NMVOC,0,220
0395,BOTSWANA_KGALAGADI_KGALAGADI SOUTH_STRUIZENDAM,20.634736317115014,-26.674011578479416,Botswana,NMVOC,0,220
0396,BOTSWANA_KGALAGADI_KGALAGADI SOUTH_TSABONG,22.533675678870342,-26.03261068358875,Botswana,NMVOC,0.42868118827218954,220
0397,BOTSWANA_KGALAGADI_KGALAGADI SOUTH_VAALHOEK,20.899174768893236,-26.63085165782585,Botswana,NMVOC,0,220
0398,BOTSWANA_KGALAGADI_KGALAGADI SOUTH_WERDA,23.074307700309763,-25.079935228446647,Botswana,NMVOC,19.150007702784052,220
0399,BOTSWANA_KGATLENG_KGATLENG_ARTISIA,26.329598045283216,-24.01646307301413,Botswana,NMVOC,0.046337939006308726,220
0400,BOTSWANA_KGATLENG_KGATLENG_BOKAA,25.97195065976654,-24.450230086407068,Botswana,NMVOC,0.8591452799369571,220
0401,BOTSWANA_KGATLENG_KGATLENG_DIKGONNYE,26.029703255813914,-24.096171191247226,Botswana,NMVOC,0.0838833222806145,220
0402,BOTSWANA_KGATLENG_KGATLENG_DIKWIDIDI,26.17999949757091,-24.55666835671585,Botswana,NMVOC,0,220
0403,BOTSWANA_KGATLENG_KGATLENG_KGOMODIATSHABA,26.269863148495805,-23.959055603855354,Botswana,NMVOC,11.398119851492998,220
0404,BOTSWANA_KGATLENG_KGATLENG_KHURUTSHE,26.132859344771337,-23.690545327799267,Botswana,NMVOC,0.11639016952835342,220
0405,BOTSWANA_KGATLENG_KGATLENG_LESHIBITSE,26.406165055796965,-23.83651089330935,Botswana,NMVOC,0.19808874432527385,220
0406,BOTSWANA_KGATLENG_KGATLENG_MABALANE,26.28893676301754,-24.621655976454754,Botswana,NMVOC,0.00748487847362419,220
0407,BOTSWANA_KGATLENG_KGATLENG_MALOLWANE,26.430380010494872,-24.457842437404707,Botswana,NMVOC,0.050119700014964005,220
0408,BOTSWANA_KGATLENG_KGATLENG_MALOTWANA SIDING,26.151012846299633,-24.29179457997145,Botswana,NMVOC,0.2402767879320378,220
0409,BOTSWANA_KGATLENG_KGATLENG_MATEBELENG,26.04953135972325,-24.525143676862136,Botswana,NMVOC,0.05226211606946223,220
0410,BOTSWANA_KGATLENG_KGATLENG_MMATHUBUDUKWANE,26.402194016452356,-24.58953432239364,Botswana,NMVOC,0.004288046126251476,220
0411,BOTSWANA_KGATLENG_KGATLENG_MOCHUDI,26.47677571716603,-24.23454264974918,Botswana,NMVOC,1.6579099041366971,220
0412,BOTSWANA_KGATLENG_KGATLENG_MODIPANE,26.172106866832117,-24.61311568769224,Botswana,NMVOC,0.053688323578334606,220
0413,BOTSWANA_KGATLENG_KGATLENG_MORWA,26.089564160859158,-24.467876815246445,Botswana,NMVOC,0.3378940653718723,220
0414,BOTSWANA_KGATLENG_KGATLENG_OLIPHANTS DRIFT,26.833613302849894,-24.18652011472838,Botswana,NMVOC,0.008588700655627795,220
0415,BOTSWANA_KGATLENG_KGATLENG_OODI,26.09229785618965,-24.566777150464368,Botswana,NMVOC,0.04329175223282953,220
0416,BOTSWANA_KGATLENG_KGATLENG_PILANE STATION,26.10483646643129,-24.415535218505003,Botswana,NMVOC,0.1128870933372714,220
0417,BOTSWANA_KGATLENG_KGATLENG_RAMONAKA,26.446902425513134,-24.542320856771433,Botswana,NMVOC,0.0071974236360116805,220
0418,BOTSWANA_KGATLENG_KGATLENG_RAMOTLABAKI,26.871752159032944,-23.894065124338375,Botswana,NMVOC,0.018442214859471166,220
0419,BOTSWANA_KGATLENG_KGATLENG_RASESA,26.029082284030856,-24.334812008927873,Botswana,NMVOC,0.9140790915432692,220
0420,BOTSWANA_KGATLENG_KGATLENG_SIKWANE,26.40976832130963,-24.631382480577347,Botswana,NMVOC,0.0010035542891330758,220
0421,BOTSWANA_KWENENG_KWENENG EAST_BDF MOGODITSHANE,25.866597567365684,-24.60177989688917,Botswana,NMVOC,0.09360370551641523,220
0422,BOTSWANA_KWENENG_KWENENG EAST_BOATLANAME,25.90698626304365,-23.603697827888347,Botswana,NMVOC,0.11494166722775298,220
0423,BOTSWANA_KWENENG_KWENENG EAST_DIKGATLHONG,25.890773108192004,-24.22990108004598,Botswana,NMVOC,0.02095585344078546,220
0424,BOTSWANA_KWENENG_KWENENG EAST_DITSHUKUDU,25.79018424903999,-24.31657903586985,Botswana,NMVOC,0.07718779334369874,220
0425,BOTSWANA_KWENENG_KWENENG EAST_GABANE,25.724856086362443,-24.625622432889752,Botswana,NMVOC,0.5915784649689604,220
0426,BOTSWANA_KWENENG_KWENENG EAST_GAKGATLA,25.558388738489484,-24.555893651556392,Botswana,NMVOC,0,220
0427,BOTSWANA_KWENENG_KWENENG EAST_GAKUTLO,25.795893008492364,-24.485500847618265,Botswana,NMVOC,0.3344075301169143,220
0428,BOTSWANA_KWENENG_KWENENG EAST_GAMODUBU,25.71707045103724,-24.50745373492028,Botswana,NMVOC,0.0035132267101356395,220
0429,BOTSWANA_KWENENG_KWENENG EAST_HATSALATLADI,25.655128743903163,-24.053036283307804,Botswana,NMVOC,0.011573953949576447,220
0430,BOTSWANA_KWENENG_KWENENG EAST_KGOPE,25.90730765578967,-24.309697924278826,Botswana,NMVOC,0.09590339089346331,220
0431,BOTSWANA_KWENENG_KWENENG EAST_KOPONG,25.870465764300775,-24.444158127481042,Botswana,NMVOC,0.450562413132801,220
0432,BOTSWANA_KWENENG_KWENENG EAST_KUBUNG,25.360366076259005,-24.614971635386656,Botswana,NMVOC,0,220
0433,BOTSWANA_KWENENG_KWENENG EAST_KUMAKWANE,25.672697196778568,-24.673575670712168,Botswana,NMVOC,0.6796504481691035,220
0434,BOTSWANA_KWENENG_KWENENG EAST_KWENENG,25.828354177294415,-23.852566021088684,Botswana,NMVOC,2.2554085791120677,220
0435,BOTSWANA_KWENENG_KWENENG EAST_LENTSWELETAU,25.870136138465416,-24.167826671475748,Botswana,NMVOC,0.22076290062072557,220
0436,BOTSWANA_KWENENG_KWENENG EAST_LEOLOGANE,25.64433800339369,-23.434433772014575,Botswana,NMVOC,0.06605094642473637,220
0437,BOTSWANA_KWENENG_KWENENG EAST_LEPHEPHE,25.894174284633333,-23.40765559827626,Botswana,NMVOC,0.029457651400492793,220
0438,BOTSWANA_KWENENG_KWENENG EAST_LOSILAKGOKONG,25.34988894663335,-24.571135771940597,Botswana,NMVOC,0,220
0439,BOTSWANA_KWENENG_KWENENG EAST_MAHETLWE,25.665185137212088,-24.23905297400607,Botswana,NMVOC,0.453324854907684,220
0440,BOTSWANA_KWENENG_KWENENG EAST_MEDIE,25.874565240962703,-24.031116366980243,Botswana,NMVOC,0.018682203414182568,220
0441,BOTSWANA_KWENENG_KWENENG EAST_METSIMOTLHABE,25.814813747961594,-24.57843758628985,Botswana,NMVOC,0.7852760914271313,220
0442,BOTSWANA_KWENENG_KWENENG EAST_MMANKGODI,25.623117562536567,-24.72944762315122,Botswana,NMVOC,11.922087930540256,220
0443,BOTSWANA_KWENENG_KWENENG EAST_MMANOKO,25.64934009640395,-24.42250311648915,Botswana,NMVOC,0.04800526305995663,220
0444,BOTSWANA_KWENENG_KWENENG EAST_MMATSETA,25.85895904561137,-24.512431056468085,Botswana,NMVOC,0.1293598038772965,220
0445,BOTSWANA_KWENENG_KWENENG EAST_MMOPANE,25.831916673401516,-24.543107056933852,Botswana,NMVOC,2.071308794519693,220
0446,BOTSWANA_KWENENG_KWENENG EAST_MOGODITSHANE,25.85842184630358,-24.60738400491993,Botswana,NMVOC,0.9515798899458909,220
0447,BOTSWANA_KWENENG_KWENENG EAST_MOGONONO,25.577935957073354,-24.234385269062876,Botswana,NMVOC,0.03728790646324969,220
0448,BOTSWANA_KWENENG_KWENENG EAST_MOKOLODI,25.81603234528639,-24.697241109077822,Botswana,NMVOC,0.06509298485436522,220
0449,BOTSWANA_KWENENG_KWENENG EAST_MOLEPOLOLE,25.5497055386965,-24.395542548425816,Botswana,NMVOC,2.798506022200057,220
0450,BOTSWANA_KWENENG_KWENENG EAST_RAMAPHATLE,25.61446897045962,-24.70394371590776,Botswana,NMVOC,2.9153045601526393,220
0451,BOTSWANA_KWENENG_KWENENG EAST_SHADISHADI,25.6542773445706,-23.631687537826256,Botswana,NMVOC,0.1353325632340141,220
0452,BOTSWANA_KWENENG_KWENENG EAST_SOJWE,25.81060306743436,-23.447805731300946,Botswana,NMVOC,0.14453010457451027,220
0453,BOTSWANA_KWENENG_KWENENG EAST_THAMAGA,25.512202536353346,-24.636709032733712,Botswana,NMVOC,0.044441363412455144,220
0454,BOTSWANA_KWENENG_KWENENG EAST_TLOANENG,25.718436819740113,-24.748830124610986,Botswana,NMVOC,1.6892190057379717,220
0455,BOTSWANA_KWENENG_KWENENG WEST_BOTLHAPATLOU,25.49433742402101,-23.950964377275472,Botswana,NMVOC,0.0016988835432167613,220
0456,BOTSWANA_KWENENG_KWENENG WEST_DIPHUDUHUDU,25.361313831639055,-23.66424037279965,Botswana,NMVOC,9.03142766156979e-4,220
0457,BOTSWANA_KWENENG_KWENENG WEST_DITSHEGWANE,24.967494356636315,-24.325453739104706,Botswana,NMVOC,0.0010319787351415718,220
0458,BOTSWANA_KWENENG_KWENENG WEST_DUTLWE,24.010209606049106,-24.0766543302552,Botswana,NMVOC,0.026051820147956213,220
0459,BOTSWANA_KWENENG_KWENENG WEST_KAUDWANE,24.659436878890112,-23.367661970601763,Botswana,NMVOC,8.032981910935286e-5,220
0460,BOTSWANA_KWENENG_KWENENG WEST_KHUDUMELAPYE,25.170144578603114,-23.791371348563107,Botswana,NMVOC,0.04759775253122822,220
0461,BOTSWANA_KWENENG_KWENENG WEST_KOTOLANAME,25.344981106952105,-24.426360101349005,Botswana,NMVOC,0.05820604457189867,220
0462,BOTSWANA_KWENENG_KWENENG WEST_LETLHAKENG,25.055504504543418,-24.07736578153483,Botswana,NMVOC,16.011305975939333,220
0463,BOTSWANA_KWENENG_KWENENG WEST_MABOANE,24.62981126929652,-24.01531720256432,Botswana,NMVOC,0.1547425455539798,220
0464,BOTSWANA_KWENENG_KWENENG WEST_MALWELWE,25.388569305562967,-24.124123864830562,Botswana,NMVOC,0.02915241471283123,220
0465,BOTSWANA_KWENENG_KWENENG WEST_MANTSHWABISI,25.20948564723073,-24.090430074502226,Botswana,NMVOC,0.03463403276406177,220
0466,BOTSWANA_KWENENG_KWENENG WEST_MARATSHWANE,25.27943300340971,-24.00543002229499,Botswana,NMVOC,0.014902146865662949,220
0467,BOTSWANA_KWENENG_KWENENG WEST_METSIBOTLHOKO,24.88334535341407,-24.02100921043726,Botswana,NMVOC,7.083929255937252,220
0468,BOTSWANA_KWENENG_KWENENG WEST_MONWANE,25.208167783087692,-24.31675483950471,Botswana,NMVOC,8.687741457605574e-5,220
0469,BOTSWANA_KWENENG_KWENENG WEST_MOSHAWENG,25.126758323030916,-24.50223959697767,Botswana,NMVOC,0,220
0470,BOTSWANA_KWENENG_KWENENG WEST_MOTOKWE,23.393326314118752,-23.949217767767472,Botswana,NMVOC,0.0625304969949566,220
0471,BOTSWANA_KWENENG_KWENENG WEST_NGWARE,25.472317051558928,-23.407189666362918,Botswana,NMVOC,0.2902991273594074,220
0472,BOTSWANA_KWENENG_KWENENG WEST_SALAJWE,24.700069233188845,-23.586968168257275,Botswana,NMVOC,11.467819243800347,220
0473,BOTSWANA_KWENENG_KWENENG WEST_SERINANE,25.19951548113084,-24.18969812658127,Botswana,NMVOC,0.0024653919146941355,220
0474,BOTSWANA_KWENENG_KWENENG WEST_SESUNG,24.920484389582054,-24.098764991625394,Botswana,NMVOC,0.001628282833633254,220
0475,BOTSWANA_KWENENG_KWENENG WEST_SORILATHOLO,25.06367528301778,-23.48111009752001,Botswana,NMVOC,0.01436517369662721,220
0476,BOTSWANA_KWENENG_KWENENG WEST_TAKATOKWANE,24.333986142124967,-23.897263235861104,Botswana,NMVOC,0.13363621273949364,220
0477,BOTSWANA_KWENENG_KWENENG WEST_THEBEPHATSHWA,25.33911813426609,-24.229770927348877,Botswana,NMVOC,0.025172330240218047,220
0478,BOTSWANA_KWENENG_KWENENG WEST_TSETSENG,23.346608409362428,-23.556625874898454,Botswana,NMVOC,0,220
0479,BOTSWANA_KWENENG_KWENENG WEST_TSWAANE,23.844303310573697,-23.677953470418096,Botswana,NMVOC,0.04379763516488636,220
0480,BOTSWANA_LOBATSE_LOBATSE_LOBATSE,25.680222039240462,-25.21156716052995,Botswana,NMVOC,1.2373381157682168,220
0481,BOTSWANA_NORTH EAST_NORTH EAST_BOTALAOTE,27.23593919430158,-20.74011790617292,Botswana,NMVOC,0,220
0482,BOTSWANA_NORTH EAST_NORTH EAST_BUTALE,27.676071500645865,-20.656116388620305,Botswana,NMVOC,0.028096826394800965,220
0483,BOTSWANA_NORTH EAST_NORTH EAST_DITLADI,27.593853189898606,-21.357392846398774,Botswana,NMVOC,0.44020736248471654,220
0484,BOTSWANA_NORTH EAST_NORTH EAST_GAMBULE,27.39900708699297,-20.563127167228444,Botswana,NMVOC,0,220
0485,BOTSWANA_NORTH EAST_NORTH EAST_GULUBANE,27.31358281638026,-20.901873558761327,Botswana,NMVOC,0.026110914231674887,220
0486,BOTSWANA_NORTH EAST_NORTH EAST_GUNGWE,27.38271596277986,-20.484327285782342,Botswana,NMVOC,0.02724680569256494,220
0487,BOTSWANA_NORTH EAST_NORTH EAST_HASKINS FARM,27.53856707842432,-20.942088468645853,Botswana,NMVOC,0.06547404632933818,220
0488,BOTSWANA_NORTH EAST_NORTH EAST_JACKALAS 1,27.70190501415433,-20.551898920198756,Botswana,NMVOC,0.35934207330611234,220
0489,BOTSWANA_NORTH EAST_NORTH EAST_JACKALAS 2,27.684263288454705,-20.943529822684937,Botswana,NMVOC,0.01599163612235121,220
0490,BOTSWANA_NORTH EAST_NORTH EAST_JOHANNES KACHEJOHN,27.416370017173527,-21.032990996945774,Botswana,NMVOC,0.5827110905255595,220
0491,BOTSWANA_NORTH EAST_NORTH EAST_KALAKAMATI,27.325085093746505,-20.616599567778596,Botswana,NMVOC,0,220
0492,BOTSWANA_NORTH EAST_NORTH EAST_KGARI,27.62095491247424,-20.59772226024511,Botswana,NMVOC,0.0012050624761741956,220
0493,BOTSWANA_NORTH EAST_NORTH EAST_LETSHOLATHEBE,27.42289424926035,-20.718374886141437,Botswana,NMVOC,0.07054050395578959,220
0494,BOTSWANA_NORTH EAST_NORTH EAST_MABUDZANE,27.65030964853915,-20.906207513366976,Botswana,NMVOC,0.0074859251404211695,220
0495,BOTSWANA_NORTH EAST_NORTH EAST_MAKALENG,27.285094240822392,-20.79040562603129,Botswana,NMVOC,0.0013381745390056922,220
0496,BOTSWANA_NORTH EAST_NORTH EAST_MAMBO,27.339806500913884,-20.78191758239405,Botswana,NMVOC,0,220
0497,BOTSWANA_NORTH EAST_NORTH EAST_MAPOKA,27.583403081931646,-20.534321559571424,Botswana,NMVOC,0.03189612681356154,220
0498,BOTSWANA_NORTH EAST_NORTH EAST_MASINGWANENG,27.31796380391279,-20.837868143226277,Botswana,NMVOC,0.0014157222453678381,220
0499,BOTSWANA_NORTH EAST_NORTH EAST_MASUKWANE,27.54938882946871,-20.590964331617293,Botswana,NMVOC,0,220
0500,BOTSWANA_NORTH EAST_NORTH EAST_MASUNGA,27.434400286669504,-20.627325508955153,Botswana,NMVOC,0.05526027718877119,220
0501,BOTSWANA_NORTH EAST_NORTH EAST_MATENGE,27.243163563094196,-20.824890359812834,Botswana,NMVOC,0.003384694440701702,220
0502,BOTSWANA_NORTH EAST_NORTH EAST_MATSHELAGABEDI,27.625910201894996,-21.12872037207013,Botswana,NMVOC,1.8035499032978064,220
0503,BOTSWANA_NORTH EAST_NORTH EAST_MATSILOJE,27.79748603303526,-21.272615331495285,Botswana,NMVOC,12.98721945869112,220
0504,BOTSWANA_NORTH EAST_NORTH EAST_MBALAMBI,27.339335713407475,-20.51403109309788,Botswana,NMVOC,0.12499790857267502,220
0505,BOTSWANA_NORTH EAST_NORTH EAST_MOROKA,27.64533883665974,-20.526246843989444,Botswana,NMVOC,0.02547591101625037,220
0506,BOTSWANA_NORTH EAST_NORTH EAST_MOSOJANE,27.510648322475955,-20.605682710993673,Botswana,NMVOC,0.02801599978427784,220
0507,BOTSWANA_NORTH EAST_NORTH EAST_MOWANA,27.63647955779588,-20.777830273205144,Botswana,NMVOC,0.006231391954967861,220
0508,BOTSWANA_NORTH EAST_NORTH EAST_MULAMBAKWENA,27.46594067350093,-20.57301251814986,Botswana,NMVOC,0.008507222472518006,220
0509,BOTSWANA_NORTH EAST_NORTH EAST_NLAKHWANE,27.517632990383536,-20.518539158214796,Botswana,NMVOC,0.08448120303750957,220
0510,BOTSWANA_NORTH EAST_NORTH EAST_PATAYAMATEBELE,27.737992823316166,-21.4643350004061,Botswana,NMVOC,0.02877323008605515,220
0511,BOTSWANA_NORTH EAST_NORTH EAST_POLE,27.574132779023316,-20.610493660531436,Botswana,NMVOC,1.10249210168233e-4,220
0512,BOTSWANA_NORTH EAST_NORTH EAST_RAMOKGWEBANA,27.662924110656288,-20.583729469679355,Botswana,NMVOC,0.002817540662622423,220
0513,BOTSWANA_NORTH EAST_NORTH EAST_SECHELE,27.38485539651099,-20.797350422844442,Botswana,NMVOC,0,220
0514,BOTSWANA_NORTH EAST_NORTH EAST_SEKAKANGWE,27.324905899544337,-20.566292847964146,Botswana,NMVOC,0,220
0515,BOTSWANA_NORTH EAST_NORTH EAST_SENYAWE,27.6781087349486,-20.734971000867784,Botswana,NMVOC,0.2242465575210699,220
0516,BOTSWANA_NORTH EAST_NORTH EAST_SHASHE BRIDGE,27.441314891279994,-21.258844535487142,Botswana,NMVOC,0.4288948195059265,220
0517,BOTSWANA_NORTH EAST_NORTH EAST_SIVIYA,27.69697685871457,-20.82969467830003,Botswana,NMVOC,0.17866364711231755,220
0518,BOTSWANA_NORTH EAST_NORTH EAST_TATI SIDING,27.46845579652601,-21.26452617148856,Botswana,NMVOC,0.06738995642259146,220
0519,BOTSWANA_NORTH EAST_NORTH EAST_THEMASHANGA,27.55069700154272,-20.72636426785868,Botswana,NMVOC,0.07440238722411263,220
0520,BOTSWANA_NORTH EAST_NORTH EAST_TOTENG,27.270345176482714,-20.719997560519936,Botswana,NMVOC,0,220
0521,BOTSWANA_NORTH EAST_NORTH EAST_TSAMAYA,27.65197854641795,-20.83445747757975,Botswana,NMVOC,3.059867159406834e-6,220
0522,BOTSWANA_NORTH EAST_NORTH EAST_TSHESEBE,27.60488659969322,-20.718620239818698,Botswana,NMVOC,0.005043655320023011,220
0523,BOTSWANA_NORTH EAST_NORTH EAST_VUKWI,27.38708622858749,-20.607139935771677,Botswana,NMVOC,0.0038200705745192473,220
0524,BOTSWANA_NORTH EAST_NORTH EAST_ZWENSHAMBE,27.448183551665426,-20.504176199278817,Botswana,NMVOC,0.3373490505225565,220
0525,BOTSWANA_NORTH WEST_NGAMILAND DELTA_NGAMILAND DELTA,22.960336814344046,-19.43828751092393,Botswana,NMVOC,0.4548227829011677,220
0526,BOTSWANA_NORTH WEST_NGAMILAND EAST_BODIBENG,22.600564390842983,-20.54248828687454,Botswana,NMVOC,0.04607435419359359,220
0527,BOTSWANA_NORTH WEST_NGAMILAND EAST_BOTLHATLOGO,22.726763405990695,-20.74674723011069,Botswana,NMVOC,0.21482869988389655,220
0528,BOTSWANA_NORTH WEST_NGAMILAND EAST_CHANOGA,23.67422168898431,-20.16363542170472,Botswana,NMVOC,0.0036520353704895207,220
0529,BOTSWANA_NORTH WEST_NGAMILAND EAST_HABU,22.399450144071537,-19.835986974771608,Botswana,NMVOC,0.008758775197141811,220
0530,BOTSWANA_NORTH WEST_NGAMILAND EAST_KARENG,22.300472651793307,-20.754601900098116,Botswana,NMVOC,0.1181348349514423,220
0531,BOTSWANA_NORTH WEST_NGAMILAND EAST_KGAKGE/MAKAKUNG,22.500435832111794,-20.540049424101177,Botswana,NMVOC,0.01082192680226485,220
0532,BOTSWANA_NORTH WEST_NGAMILAND EAST_KOMANA,23.23556501767629,-20.197324460737033,Botswana,NMVOC,0.0023891875929714836,220
0533,BOTSWANA_NORTH WEST_NGAMILAND EAST_MABABE,23.997011922196286,-19.182027762406623,Botswana,NMVOC,0.00199645291953153,220
0534,BOTSWANA_NORTH WEST_NGAMILAND EAST_MAKALAMABEDI,23.41521287773188,-20.67081042197008,Botswana,NMVOC,12.341728299794283,220
0535,BOTSWANA_NORTH WEST_NGAMILAND EAST_MATLAPANA,23.546036955690333,-19.921555467159827,Botswana,NMVOC,0.1014642172727387,220
0536,BOTSWANA_NORTH WEST_NGAMILAND EAST_MATSAUDI/SAKAPNAE,23.675283205409393,-19.806194245710948,Botswana,NMVOC,0.014399886315546067,220
0537,BOTSWANA_NORTH WEST_NGAMILAND EAST_MAUN,24.199903111118402,-19.619553541252102,Botswana,NMVOC,3.607920109809839,220
0538,BOTSWANA_NORTH WEST_NGAMILAND EAST_PHUDUHUDU,24.645957266286953,-20.051304523225582,Botswana,NMVOC,0.32557541683068625,220
0539,BOTSWANA_NORTH WEST_NGAMILAND EAST_SANKUYO,23.881724902731463,-19.421659901868495,Botswana,NMVOC,0.011423336309868597,220
0540,BOTSWANA_NORTH WEST_NGAMILAND EAST_SEHITHWA,22.677793302639653,-20.237066774603015,Botswana,NMVOC,0.8218098644547295,220
0541,BOTSWANA_NORTH WEST_NGAMILAND EAST_SEMBOYO,22.27649485221952,-20.354376077745215,Botswana,NMVOC,0.09351238115182742,220
0542,BOTSWANA_NORTH WEST_NGAMILAND EAST_SHOROBE,23.712796248799126,-19.11296691544541,Botswana,NMVOC,0.7968592554697457,220
0543,BOTSWANA_NORTH WEST_NGAMILAND EAST_TOTENG,22.999306808598018,-20.32082005396448,Botswana,NMVOC,11.202523546146024,220
0544,BOTSWANA_NORTH WEST_NGAMILAND EAST_TSAO,22.28659245098526,-20.02090488822863,Botswana,NMVOC,0.17290912218620194,220
0545,BOTSWANA_NORTH WEST_NGAMILAND WEST_BEETSHA,22.953920477145694,-18.380166226946653,Botswana,NMVOC,0.4047378330550834,220
0546,BOTSWANA_NORTH WEST_NGAMILAND WEST_CHUKUMUCHU,21.598703917965935,-18.74824397962615,Botswana,NMVOC,0.14470165733485615,220
0547,BOTSWANA_NORTH WEST_NGAMILAND WEST_ERETSHA,22.86584821151028,-18.79052805025673,Botswana,NMVOC,0.009986078099033771,220
0548,BOTSWANA_NORTH WEST_NGAMILAND WEST_ETSHA 1,22.224044369783737,-19.242642574470672,Botswana,NMVOC,0.21678073799576345,220
0549,BOTSWANA_NORTH WEST_NGAMILAND WEST_ETSHA 13,22.229743070714033,-19.017116669937373,Botswana,NMVOC,0.03913388927944702,220
0550,BOTSWANA_NORTH WEST_NGAMILAND WEST_ETSHA 6,22.229066360329956,-19.108258691269373,Botswana,NMVOC,0.060248957464081994,220
0551,BOTSWANA_NORTH WEST_NGAMILAND WEST_GANI,21.444696927418082,-18.405419080628068,Botswana,NMVOC,0.04056152345078874,220
0552,BOTSWANA_NORTH WEST_NGAMILAND WEST_GONUTSUGA,22.59253926092765,-18.87801840211525,Botswana,NMVOC,0.045256563247673125,220
0553,BOTSWANA_NORTH WEST_NGAMILAND WEST_GUDINGWA,22.905784262247845,-18.563529796191204,Botswana,NMVOC,0,220
0554,BOTSWANA_NORTH WEST_NGAMILAND WEST_GUMARE,22.131570836874936,-19.394550571792966,Botswana,NMVOC,0.29553757079535325,220
0555,BOTSWANA_NORTH WEST_NGAMILAND WEST_IKOGA,22.218249775302052,-18.888300198172978,Botswana,NMVOC,0.050336486187735646,220
0556,BOTSWANA_NORTH WEST_NGAMILAND WEST_KAJAJA,21.992248859877353,-18.703015404036154,Botswana,NMVOC,0.008057164071829253,220
0557,BOTSWANA_NORTH WEST_NGAMILAND WEST_KAUXWHI,21.93273566781973,-18.270501890330234,Botswana,NMVOC,0.07909790616337437,220
0558,BOTSWANA_NORTH WEST_NGAMILAND WEST_MOGOMOTHO,22.252300749707768,-18.492510662073524,Botswana,NMVOC,0.028297272073521465,220
0559,BOTSWANA_NORTH WEST_NGAMILAND WEST_MOHEMBO EAST,21.802957716080922,-18.266524959816728,Botswana,NMVOC,0.013298269570008368,220
0560,BOTSWANA_NORTH WEST_NGAMILAND WEST_MOHEMBO WEST,21.66725143544976,-18.312119665836942,Botswana,NMVOC,0.018597275245090857,220
0561,BOTSWANA_NORTH WEST_NGAMILAND WEST_MOKGACHA,22.28535493171085,-18.701773297683296,Botswana,NMVOC,0.005267620630493122,220
0562,BOTSWANA_NORTH WEST_NGAMILAND WEST_NGARANGE,22.04454772324353,-18.490470871633665,Botswana,NMVOC,5.992830357280631e-4,220
0563,BOTSWANA_NORTH WEST_NGAMILAND WEST_NOKANENG,22.21151988099178,-19.64313399653268,Botswana,NMVOC,0.07821724124292367,220
0564,BOTSWANA_NORTH WEST_NGAMILAND WEST_NXAMASERE,21.95986197574487,-18.61796345462013,Botswana,NMVOC,0.011394364243762403,220
0565,BOTSWANA_NORTH WEST_NGAMILAND WEST_NXAUNXAU,21.351524290127983,-18.90359537023587,Botswana,NMVOC,0.2189904355831097,220
0566,BOTSWANA_NORTH WEST_NGAMILAND WEST_QANGWA,21.56450523279803,-19.49744243797423,Botswana,NMVOC,0.2656403753091145,220
0567,BOTSWANA_NORTH WEST_NGAMILAND WEST_SAMOCHEMA,21.807530849136374,-18.491110966045003,Botswana,NMVOC,0.01670895505114763,220
0568,BOTSWANA_NORTH WEST_NGAMILAND WEST_SEKONDOMBORO,22.116154551020507,-18.31395834682349,Botswana,NMVOC,0.016419347838385962,220
0569,BOTSWANA_NORTH WEST_NGAMILAND WEST_SEPOPA,22.058884839789098,-18.787426270755017,Botswana,NMVOC,0.08416061135564443,220
0570,BOTSWANA_NORTH WEST_NGAMILAND WEST_SERONGA,22.432137134077763,-18.68657047380979,Botswana,NMVOC,0.040442962143924746,220
0571,BOTSWANA_NORTH WEST_NGAMILAND WEST_SHAKAWE,21.734262044931864,-18.42525466967516,Botswana,NMVOC,0.09156336016557098,220
0572,BOTSWANA_NORTH WEST_NGAMILAND WEST_TUBU,22.343676013963407,-19.42290273539071,Botswana,NMVOC,0.03380194085838024,220
0573,BOTSWANA_NORTH WEST_NGAMILAND WEST_XAKAO,21.89184146965982,-18.35122741006872,Botswana,NMVOC,0.11459476062811884,220
0574,BOTSWANA_NORTH WEST_NGAMILAND WEST_XAXA,21.481474650920102,-20.367126109392327,Botswana,NMVOC,0.30113461857035173,220
0575,BOTSWANA_NORTH WEST_NGAMILAND WEST_XHAUGA,21.8600876919785,-18.555460050065392,Botswana,NMVOC,0.023008127935495504,220
0576,BOTSWANA_ORAPA_ORAPA_ORAPA,25.3996206036354,-21.263370671233456,Botswana,NMVOC,6.1000028925652465,220
0577,BOTSWANA_SELIBE PHIKWE_SELIBE PHIKWE_SELIBE PHIKWE,27.837207638783738,-21.958685691075345,Botswana,NMVOC,32.55985532966585,220
0578,BOTSWANA_SOUTH EAST_SOUTH EAST_DOORN LAAGTE,25.651786031535003,-25.28255683886919,Botswana,NMVOC,5.618242067015635,220
0579,BOTSWANA_SOUTH EAST_SOUTH EAST_HILDAVALE,25.616656741956373,-25.403085615302597,Botswana,NMVOC,0.27497850776190846,220
0580,BOTSWANA_SOUTH EAST_SOUTH EAST_LOBATSE ESTATES,25.699833727272946,-25.141969237065187,Botswana,NMVOC,1.5987753022552975,220
0581,BOTSWANA_SOUTH EAST_SOUTH EAST_MOGOBANE,25.702998989332475,-24.943145974483425,Botswana,NMVOC,0.0356174105482739,220
0582,BOTSWANA_SOUTH EAST_SOUTH EAST_OTSE,25.756324039083623,-25.045000276937234,Botswana,NMVOC,7.898967780285083,220
0583,BOTSWANA_SOUTH EAST_SOUTH EAST_RAMOTSWA,25.829789056966593,-24.901951101856636,Botswana,NMVOC,34.570649783999755,220
0584,BOTSWANA_SOUTH EAST_SOUTH EAST_RAMOTSWA STATION/TAUNG,25.770154438973417,-24.815461657589147,Botswana,NMVOC,0,220
0585,BOTSWANA_SOUTH EAST_SOUTH EAST_TLOKWENG,26.035546995861406,-24.647763400719953,Botswana,NMVOC,8.30142773893137,220
0586,BOTSWANA_SOUTHERN_BAROLONG_BETHEL,25.523180210457173,-25.455324991549087,Botswana,NMVOC,0.017390876529384057,220
0587,BOTSWANA_SOUTHERN_BAROLONG_BOROBADILEPE,25.45763854772069,-25.624399960180156,Botswana,NMVOC,0.01045078251596025,220
0588,BOTSWANA_SOUTHERN_BAROLONG_DIGAWANA,25.554337853260883,-25.336847733509767,Botswana,NMVOC,0.007179464458679362,220
0589,BOTSWANA_SOUTHERN_BAROLONG_DIKHUKHUNG,24.885447065593745,-25.800063981646993,Botswana,NMVOC,0.0014317582132168845,220
0590,BOTSWANA_SOUTHERN_BAROLONG_DINATSHANA,25.561032468363326,-25.459552008174736,Botswana,NMVOC,0.030302870174304896,220
0591,BOTSWANA_SOUTHERN_BAROLONG_DITLHARAPA,25.26534775604463,-25.74503088773403,Botswana,NMVOC,3.576330604158199,220
0592,BOTSWANA_SOUTHERN_BAROLONG_GAMAJALELA,25.422867167043186,-25.383535663638526,Botswana,NMVOC,0.03519061924401175,220
0593,BOTSWANA_SOUTHERN_BAROLONG_GATHWANE,25.50825122582933,-25.39225799661276,Botswana,NMVOC,0.0049803771291563265,220
0594,BOTSWANA_SOUTHERN_BAROLONG_GOOD HOPE,25.425540411603592,-25.474044252271263,Botswana,NMVOC,0.14258970092569007,220
0595,BOTSWANA_SOUTHERN_BAROLONG_HEBRON,25.41118276541949,-25.696194884502404,Botswana,NMVOC,0.008387912071171713,220
0596,BOTSWANA_SOUTHERN_BAROLONG_KANGWE,25.079061936844482,-25.406209192834304,Botswana,NMVOC,0,220
0597,BOTSWANA_SOUTHERN_BAROLONG_KGORO,25.486735775180065,-25.453486474188907,Botswana,NMVOC,0.08415799892563812,220
0598,BOTSWANA_SOUTHERN_BAROLONG_LEJWANA,25.53432726709042,-25.415801471703258,Botswana,NMVOC,0.01102341197125781,220
0599,BOTSWANA_SOUTHERN_BAROLONG_LEPORUNG,25.008424229579703,-25.672891074188268,Botswana,NMVOC,0.6673461099373236,220
0600,BOTSWANA_SOUTHERN_BAROLONG_LOGAGANE,25.398915672259538,-25.611615010488325,Botswana,NMVOC,0.008924935236932791,220
0601,BOTSWANA_SOUTHERN_BAROLONG_LORWANA,25.502074910123632,-25.286996269753118,Botswana,NMVOC,0.005697912554072303,220
0602,BOTSWANA_SOUTHERN_BAROLONG_MABULE,24.537508834961965,-25.73692702390118,Botswana,NMVOC,4.929007039782329,220
0603,BOTSWANA_SOUTHERN_BAROLONG_MADINGWANA,25.481261650329014,-25.576730325456165,Botswana,NMVOC,1.348173342829275,220
0604,BOTSWANA_SOUTHERN_BAROLONG_MAGORIAPITSE,25.27977947866948,-25.44137079227652,Botswana,NMVOC,8.366343817609068e-4,220
0605,BOTSWANA_SOUTHERN_BAROLONG_MAKOKWE,25.475459011292934,-25.66937770824479,Botswana,NMVOC,0.017556796857321425,220
0606,BOTSWANA_SOUTHERN_BAROLONG_MALOKAGANYANE,25.488358562103294,-25.502299871489452,Botswana,NMVOC,0.08370933753394429,220
0607,BOTSWANA_SOUTHERN_BAROLONG_MAROJANE,25.341901927422153,-25.73640142441916,Botswana,NMVOC,0.18158125428015642,220
0608,BOTSWANA_SOUTHERN_BAROLONG_METLOBO,25.124348846065626,-25.39253659443453,Botswana,NMVOC,0.0031187581556005525,220
0609,BOTSWANA_SOUTHERN_BAROLONG_METLOJANE,25.375187769980677,-25.552026515853672,Botswana,NMVOC,0.034771236688802123,220
0610,BOTSWANA_SOUTHERN_BAROLONG_MMAKGORI,24.800927173643334,-25.789358109184104,Botswana,NMVOC,0.8948271533075257,220
0611,BOTSWANA_SOUTHERN_BAROLONG_MMATHETHE,25.16245192169214,-25.332818623646105,Botswana,NMVOC,0.06564156100042344,220
0612,BOTSWANA_SOUTHERN_BAROLONG_MOGOJOGOJO,25.472237292279374,-25.35846674488226,Botswana,NMVOC,0.15949739866130971,220
0613,BOTSWANA_SOUTHERN_BAROLONG_MOGWALALE,25.3618167413177,-25.480322244471722,Botswana,NMVOC,0.01710036554994295,220
0614,BOTSWANA_SOUTHERN_BAROLONG_MOKATAKO,25.21324864044004,-25.72876284416883,Botswana,NMVOC,3.6853165951155002,220
0615,BOTSWANA_SOUTHERN_BAROLONG_MOKGOMANE,25.21261347084866,-25.518245387897743,Botswana,NMVOC,0.038421290127786584,220
0616,BOTSWANA_SOUTHERN_BAROLONG_MOLETE,25.308791189937068,-25.671084438672697,Botswana,NMVOC,0.9869573994814307,220
0617,BOTSWANA_SOUTHERN_BAROLONG_MOTSENTSHE,25.375726428046065,-25.379180264622413,Botswana,NMVOC,0.0015725964013768622,220
0618,BOTSWANA_SOUTHERN_BAROLONG_MUSI,25.08334912114238,-25.688286393457503,Botswana,NMVOC,4.756615482129539,220
0619,BOTSWANA_SOUTHERN_BAROLONG_NGWATSAU,25.540401017789634,-25.553981728114238,Botswana,NMVOC,0.022243515263219233,220
0620,BOTSWANA_SOUTHERN_BAROLONG_PAPATLO,25.50091785142035,-25.65156471920203,Botswana,NMVOC,1.38878752557627,220
0621,BOTSWANA_SOUTHERN_BAROLONG_PHIHITSHWANE,25.414087664638753,-25.65601906088651,Botswana,NMVOC,0.0068758973164774065,220
0622,BOTSWANA_SOUTHERN_BAROLONG_PITSANA-POTOKWE,25.556580548078113,-25.50806204359263,Botswana,NMVOC,0.03021739865291577,220
0623,BOTSWANA_SOUTHERN_BAROLONG_PITSANE SIDING,25.604250914974468,-25.46943866185844,Botswana,NMVOC,0.060651481180022296,220
0624,BOTSWANA_SOUTHERN_BAROLONG_PITSHANE MOLOPO,25.119834443362777,-25.744597939849236,Botswana,NMVOC,0.21438561669697243,220
0625,BOTSWANA_SOUTHERN_BAROLONG_RAKHUNA,25.578883997684116,-25.582003199973805,Botswana,NMVOC,1.4386145228547824,220
0626,BOTSWANA_SOUTHERN_BAROLONG_RAMATLABAMA,25.542590563183143,-25.63663806930263,Botswana,NMVOC,5.486120755017826,220
0627,BOTSWANA_SOUTHERN_BAROLONG_SEDIBENG,25.16840936243981,-25.684656039464652,Botswana,NMVOC,0,220
0628,BOTSWANA_SOUTHERN_BAROLONG_SEKHUTLANE,24.48911487032339,-25.502857393367236,Botswana,NMVOC,0.044454203087264395,220
0629,BOTSWANA_SOUTHERN_BAROLONG_SHEEP FARM,25.494453226915,-25.550549245917278,Botswana,NMVOC,0.00655335851584881,220
0630,BOTSWANA_SOUTHERN_BAROLONG_TLHARESELEELE,25.6164016549552,-25.509947342258574,Botswana,NMVOC,0.23299432388611016,220
0631,BOTSWANA_SOUTHERN_BAROLONG_TSHIDILAMOLOMO,24.680774921105087,-25.71938467094859,Botswana,NMVOC,4.543486801001533,220
0632,BOTSWANA_SOUTHERN_BAROLONG_TSWAANENG,24.874731933296207,-25.481179488719636,Botswana,NMVOC,0.11276836282830272,220
0633,BOTSWANA_SOUTHERN_BAROLONG_TSWAGARE/LOTHOJE/LOKALANA,25.32250003507171,-25.608673297419177,Botswana,NMVOC,0.006604425899922124,220
0634,BOTSWANA_SOUTHERN_BAROLONG_TSWANYANENG,25.26289447863055,-25.6163734983762,Botswana,NMVOC,0.006685083657876452,220
0635,BOTSWANA_SOUTHERN_NGWAKETSE WEST_ITHOLOKE,23.49754475940133,-24.802379212464427,Botswana,NMVOC,0,220
0636,BOTSWANA_SOUTHERN_NGWAKETSE WEST_KANAKU,23.536569449983585,-24.292118077279163,Botswana,NMVOC,0.03166231978284287,220
0637,BOTSWANA_SOUTHERN_NGWAKETSE WEST_KENG,23.822720476728055,-24.619062130504958,Botswana,NMVOC,0.0033766548896643736,220
0638,BOTSWANA_SOUTHERN_NGWAKETSE WEST_KHAKHEA,23.52876267152225,-24.69951083983683,Botswana,NMVOC,0.4283585949834709,220
0639,BOTSWANA_SOUTHERN_NGWAKETSE WEST_KHONKHWA,23.935454133373597,-24.46012666914766,Botswana,NMVOC,9.46985916635543e-4,220
0640,BOTSWANA_SOUTHERN_NGWAKETSE WEST_KOKONG,23.160513999524845,-24.39362019765512,Botswana,NMVOC,0.012516991965672214,220
0641,BOTSWANA_SOUTHERN_NGWAKETSE WEST_KUTUKU,23.639126946319017,-24.680282589894166,Botswana,NMVOC,0.01939002595807461,220
0642,BOTSWANA_SOUTHERN_NGWAKETSE WEST_MABUTSANE,23.705699680104797,-24.459760111464377,Botswana,NMVOC,9.247623449926883e-4,220
0643,BOTSWANA_SOUTHERN_NGWAKETSE WEST_MAHOTSHWANE,24.187255352450173,-24.38400662626752,Botswana,NMVOC,0.015083488368134019,220
0644,BOTSWANA_SOUTHERN_NGWAKETSE WEST_MORWAMOSU,23.122520350392715,-24.153854514850522,Botswana,NMVOC,0,220
0645,BOTSWANA_SOUTHERN_NGWAKETSE WEST_SEKOMA,24.02445527149606,-24.579997053681147,Botswana,NMVOC,0,220
0646,BOTSWANA_SOUTHERN_SOUTHERN_BETESANKWE,24.8941696227703,-24.719678878206103,Botswana,NMVOC,6.468800367883617e-4,220
0647,BOTSWANA_SOUTHERN_SOUTHERN_DIABO,25.365536715216567,-25.223190983743812,Botswana,NMVOC,0.046724873940314826,220
0648,BOTSWANA_SOUTHERN_SOUTHERN_DIPOTSANA,25.446292913079866,-25.212561776849554,Botswana,NMVOC,0.02281604210695547,220
0649,BOTSWANA_SOUTHERN_SOUTHERN_GASITA,24.82803541943543,-25.124083589756676,Botswana,NMVOC,0.10754725551845203,220
0650,BOTSWANA_SOUTHERN_SOUTHERN_KANYE,25.289267678855026,-25.048656911618565,Botswana,NMVOC,21.063869916132386,220
0651,BOTSWANA_SOUTHERN_SOUTHERN_KGOMOKASITWA,25.611112091400322,-25.09686032652438,Botswana,NMVOC,3.0986881363791876,220
0652,BOTSWANA_SOUTHERN_SOUTHERN_LEFOKO,24.690111852640598,-24.8470312136434,Botswana,NMVOC,0,220
0653,BOTSWANA_SOUTHERN_SOUTHERN_LEKGOLOBOTLO,25.61615083241098,-24.885307065481175,Botswana,NMVOC,1.5305818743988335,220
0654,BOTSWANA_SOUTHERN_SOUTHERN_LOROLWANA,24.459937704580028,-25.2535967198016,Botswana,NMVOC,0.04693873529127508,220
0655,BOTSWANA_SOUTHERN_SOUTHERN_LOTLHAKANE,25.435707774440367,-25.08771727806122,Botswana,NMVOC,0.026453723727701356,220
0656,BOTSWANA_SOUTHERN_SOUTHERN_LOTLHAKANE WEST,25.295371153997333,-24.784930431562245,Botswana,NMVOC,0.5159214163600061,220
0657,BOTSWANA_SOUTHERN_SOUTHERN_MAGOTLHWANE,25.599116726068054,-24.996853415826646,Botswana,NMVOC,0.0030582875112548195,220
0658,BOTSWANA_SOUTHERN_SOUTHERN_MANYANA,25.574934396304805,-24.79875482887838,Botswana,NMVOC,14.125872289195062,220
0659,BOTSWANA_SOUTHERN_SOUTHERN_MAOKANE,24.649164740852807,-24.988391174828216,Botswana,NMVOC,0.07019901248844751,220
0660,BOTSWANA_SOUTHERN_SOUTHERN_MOGONYE,25.67857687556797,-24.842313481878563,Botswana,NMVOC,0.0022372670810275673,220
0661,BOTSWANA_SOUTHERN_SOUTHERN_MOKHOMBA,24.61814743618357,-24.716762968297573,Botswana,NMVOC,0.05385789188996302,220
0662,BOTSWANA_SOUTHERN_SOUTHERN_MOLAPOWABOJANG,25.545639385657516,-25.196418239986023,Botswana,NMVOC,19.909829969229584,220
0663,BOTSWANA_SOUTHERN_SOUTHERN_MOSHANENG,25.208444254843652,-24.835326824262772,Botswana,NMVOC,45.62736166877177,220
0664,BOTSWANA_SOUTHERN_SOUTHERN_MOSHUPA,25.42468410253782,-24.802239950537796,Botswana,NMVOC,13.087237748808043,220
0665,BOTSWANA_SOUTHERN_SOUTHERN_NTLHANTLHE,25.563433827213757,-25.01680148927233,Botswana,NMVOC,0.1560638621064832,220
0666,BOTSWANA_SOUTHERN_SOUTHERN_PITSENG,25.026961859107356,-24.671811025950742,Botswana,NMVOC,0.011947320373804715,220
0667,BOTSWANA_SOUTHERN_SOUTHERN_RALEKGETHO,25.153983418889254,-24.651674927885143,Botswana,NMVOC,0.0010910561780888845,220
0668,BOTSWANA_SOUTHERN_SOUTHERN_RANAKA,25.49210433716248,-24.953019551938723,Botswana,NMVOC,0.5811777334304393,220
0669,BOTSWANA_SOUTHERN_SOUTHERN_SEGWAGWA,25.154246986825143,-25.20370107041337,Botswana,NMVOC,0.10950548917824082,220
0670,BOTSWANA_SOUTHERN_SOUTHERN_SEHERELELA,24.966365412487043,-24.85255338029039,Botswana,NMVOC,0.005317012950577913,220
0671,BOTSWANA_SOUTHERN_SOUTHERN_SELOKOLELA,25.08619153157018,-25.012511421456256,Botswana,NMVOC,10.479628077967135,220
0672,BOTSWANA_SOUTHERN_SOUTHERN_SEMANE,24.36060822534978,-24.5838070534333,Botswana,NMVOC,0.056983126222762026,220
0673,BOTSWANA_SOUTHERN_SOUTHERN_SESE,24.837457767676273,-24.623316789302145,Botswana,NMVOC,0.20575921286032084,220
0674,BOTSWANA_SOUTHERN_SOUTHERN_SESUNG,25.085978537640155,-24.864295490303654,Botswana,NMVOC,4.891535458593797,220
0675,BOTSWANA_SOUTHERN_SOUTHERN_TLHANKANE,24.375461207737164,-24.957536336747538,Botswana,NMVOC,0.169751850949904,220
0676,BOTSWANA_SOUTHERN_SOUTHERN_TSHWAANE,25.273421585713766,-24.711641454327474,Botswana,NMVOC,0.00126033243077045,220
0677,BOTSWANA_SOUTHERN_SOUTHERN_TSONYANE,24.813855404067922,-24.839469110997843,Botswana,NMVOC,4.292830947187641e-4,220
0678,BOTSWANA_SOWA TOWN_SOWA TOWN_SOWA TOWN,26.205474065724133,-20.525655504329873,Botswana,NMVOC,0.353573059176703,220
0679,BOTSWANA_NORTH WEST_NGAMILAND WEST_TOBERE,22.060761168763293,-18.2277220943275,Botswana,NMVOC,0.0061739712438202195,220
0680,BOTSWANA_FRANCISTOWN_FRANCISTOWN_FRANCISTOWN,27.527173396825056,-21.15325240029203,Botswana,NMVOC,1.0506431801042475,220
0681,BOTSWANA_NORTH EAST_NORTH EAST_MATOPI,27.91115579539766,-21.482192037003767,Botswana,NMVOC,0.03031283378239498,220
0682,LESOTHO_BEREA,27.916543179927878,-29.196133964322186,Lesotho,NMVOC,2151.971174278747,220
0683,LESOTHO_BUTHA-BUTHE,28.564194113912084,-28.80291309387294,Lesotho,NMVOC,587.8017094213471,220
0684,LESOTHO_LERIBE,28.262778693785734,-29.01811492119529,Lesotho,NMVOC,1885.8828040593473,220
0685,LESOTHO_MAFETENG,27.392581280663943,-29.77903326417238,Lesotho,NMVOC,1270.1964997918828,220
0686,LESOTHO_MASERU,27.818410139103523,-29.578708001027245,Lesotho,NMVOC,2874.9351669171733,220
0687,LESOTHO_MOHALE'S HOEK,27.81073935217726,-30.05732318594617,Lesotho,NMVOC,1580.930154071063,220
0688,LESOTHO_MOKHOTLONG,29.030965902973236,-29.219387585513097,Lesotho,NMVOC,886.8076485613517,220
0689,LESOTHO_QACHA'S NEK,28.738216934631595,-29.96551989191937,Lesotho,NMVOC,509.5799551623333,220
0690,LESOTHO_QUTHING,27.985860217458367,-30.361098997601832,Lesotho,NMVOC,740.1103790953855,220
0691,LESOTHO_THABA-TSEKA,28.592501565541635,-29.5707462455164,Lesotho,NMVOC,857.2314792494379,220
0692,MALAWI_SOUTHERN REGION_BALAKA,35.057010057789576,-15.035291543995603,Malawi,NMVOC,1275.0413525742656,220
0693,MALAWI_SOUTHERN REGION_BLANTYRE,34.93215294645478,-15.653521070374605,Malawi,NMVOC,2630.623626753462,220
0694,MALAWI_SOUTHERN REGION_BLANTYRE CITY,35.049846087604834,-15.788155512634402,Malawi,NMVOC,3202.5854801761707,220
0695,MALAWI_SOUTHERN REGION_CHIKWAWA,34.70903689510921,-16.164449793446956,Malawi,NMVOC,1821.0492307210648,220
0696,MALAWI_SOUTHERN REGION_CHIRADZULU,35.21401510212054,-15.74504273186666,Malawi,NMVOC,1690.9870618258108,220
0697,MALAWI_NORTHERN REGION_CHITIPA,33.50075697273936,-9.961323805951439,Malawi,NMVOC,312.6343881327822,220
0698,MALAWI_CENTRAL REGION_DEDZA,34.227546152785884,-14.26666414364504,Malawi,NMVOC,3686.4080047831235,220
0699,MALAWI_CENTRAL REGION_DOWA,33.7882007354298,-13.568943726666408,Malawi,NMVOC,2593.474093264868,220
0700,MALAWI_NORTHERN REGION_KARONGA,33.88286491576761,-10.085628973711133,Malawi,NMVOC,983.398494664813,220
0701,MALAWI_CENTRAL REGION_KASUNGU,33.38591920703449,-12.984592469489298,Malawi,NMVOC,1707.5897655648955,220
0702,MALAWI_LAKE MALAWI_LAKE MALAWI,34.46342187078561,-11.83542210532386,Malawi,NMVOC,2265.4656815030853,220
0703,MALAWI_NORTHERN REGION_LIKOMA,34.68456952933858,-12.049251389757782,Malawi,NMVOC,217.7224583201437,220
0704,MALAWI_CENTRAL REGION_LILONGWE,33.678384246204125,-14.02262845680586,Malawi,NMVOC,8676.244135214016,220
0705,MALAWI_CENTRAL REGION_LILONGWE CITY,33.777412227707195,-13.917060812410538,Malawi,NMVOC,3347.0145773056565,220
0706,MALAWI_SOUTHERN REGION_MACHINGA,35.56621569203856,-14.939743540640112,Malawi,NMVOC,3582.915523807535,220
0707,MALAWI_SOUTHERN REGION_MANGOCHI,35.188672100825926,-14.35745673152043,Malawi,NMVOC,3469.014620738929,220
0708,MALAWI_CENTRAL REGION_MCHINJI,33.05678421553763,-13.693204790303813,Malawi,NMVOC,2882.1915141342174,220
0709,MALAWI_SOUTHERN REGION_MULANJE,35.510601697456494,-15.937493088013312,Malawi,NMVOC,6220.047858984201,220
0710,MALAWI_SOUTHERN REGION_MWANZA,34.51070572282828,-15.653498412560298,Malawi,NMVOC,2245.0428789043535,220
0711,MALAWI_NORTHERN REGION_MZIMBA,33.63357391674036,-11.774662616846621,Malawi,NMVOC,1821.953327064064,220
0712,MALAWI_NORTHERN REGION_MZUZU CITY,34.008085621399474,-11.435033136665401,Malawi,NMVOC,480.9651680920693,220
0713,MALAWI_SOUTHERN REGION_NENO,34.69511229098429,-15.46855436212607,Malawi,NMVOC,353.7604853179492,220
0714,MALAWI_NORTHERN REGION_NKHATA BAY,34.04155946420708,-11.671744085857307,Malawi,NMVOC,511.3128382993831,220
0715,MALAWI_CENTRAL REGION_NKHOTAKOTA,34.088412143637505,-12.844968406478515,Malawi,NMVOC,648.580005569152,220
0716,MALAWI_SOUTHERN REGION_NSANJE,35.14256102689594,-16.7458281066411,Malawi,NMVOC,976.4785009779151,220
0717,MALAWI_CENTRAL REGION_NTCHEU,34.7150219403129,-14.809209532624244,Malawi,NMVOC,2532.8774291885343,220
0718,MALAWI_CENTRAL REGION_NTCHISI,33.919435671123914,-13.29729664939087,Malawi,NMVOC,478.2707133029494,220
0719,MALAWI_SOUTHERN REGION_PHALOMBE,35.69103908738544,-15.669471595035306,Malawi,NMVOC,1347.4530249975494,220
0720,MALAWI_NORTHERN REGION_RUMPHI,33.814313155835954,-10.819178535708213,Malawi,NMVOC,258.294484151948,220
0721,MALAWI_CENTRAL REGION_SALIMA,34.38342391012431,-13.73580013859686,Malawi,NMVOC,1345.9583710479938,220
0722,MALAWI_SOUTHERN REGION_THYOLO,35.14513805866104,-16.103293124272504,Malawi,NMVOC,4496.499386167813,220
0723,MALAWI_SOUTHERN REGION_ZOMBA,35.431720494463534,-15.397965042950926,Malawi,NMVOC,3403.1632625089387,220
0724,MALAWI_SOUTHERN REGION_ZOMBA CITY,35.32958370864326,-15.389038184748701,Malawi,NMVOC,158.63684088985863,220
0725,MOZAMBIQUE_CABO DELGADO_ANCUABE_ANCUABE SEDE,39.81250434636672,-12.844910167361961,Mozambique,NMVOC,600.6920886772123,220
0726,MOZAMBIQUE_CABO DELGADO_ANCUABE_METORO,39.98166464165771,-13.123343510947777,Mozambique,NMVOC,676.7994884566073,220
0727,MOZAMBIQUE_CABO DELGADO_ANCUABE_MEZA,39.50077329178648,-13.002763030349875,Mozambique,NMVOC,582.2705156915895,220
0728,MOZAMBIQUE_CABO DELGADO_BALAMA_BALAMA SEDE,38.60741548928212,-13.34632445565341,Mozambique,NMVOC,1329.7355579461573,220
0729,MOZAMBIQUE_CABO DELGADO_BALAMA_IMPIRE,38.234370073203195,-13.36117175168839,Mozambique,NMVOC,264.88517085708867,220
0730,MOZAMBIQUE_CABO DELGADO_BALAMA_KWEKWE,38.360631459274536,-13.719258906829074,Mozambique,NMVOC,573.7534924908748,220
0731,MOZAMBIQUE_CABO DELGADO_BALAMA_MAVALA,38.44433858639442,-13.127397794272662,Mozambique,NMVOC,270.45089266359105,220
0732,MOZAMBIQUE_CABO DELGADO_CHIÚRE_CHIÚRE SEDE,39.78631866112433,-13.334949533035196,Mozambique,NMVOC,1440.2329613211034,220
0733,MOZAMBIQUE_CABO DELGADO_CHIÚRE_CHIÚRE VELHO,39.9790643743911,-13.394863091288299,Mozambique,NMVOC,479.5013064038542,220
0734,MOZAMBIQUE_CABO DELGADO_CHIÚRE_KATAPUA,39.46036839056145,-13.3790182741743,Mozambique,NMVOC,415.1010264021173,220
0735,MOZAMBIQUE_CABO DELGADO_CHIÚRE_MAZEZE,40.26493789258037,-13.394800824078336,Mozambique,NMVOC,249.55514206205805,220
0736,MOZAMBIQUE_CABO DELGADO_CHIÚRE_NAMOGELIA,39.39543595419324,-13.73917584393942,Mozambique,NMVOC,574.6186963791218,220
0737,MOZAMBIQUE_CABO DELGADO_CHIÚRE_OCUA,39.70712436514545,-13.593555718225081,Mozambique,NMVOC,801.5596522688894,220
0738,MOZAMBIQUE_CABO DELGADO_CIDADE DE PEMBA_CIDADE DE PEMBA,40.5301137002399,-13.01866368362211,Mozambique,NMVOC,904.3365137258326,220
0739,MOZAMBIQUE_CABO DELGADO_IBO_IBO SEDE,40.58966660854597,-12.296434453801252,Mozambique,NMVOC,26.214139494469062,220
0740,MOZAMBIQUE_CABO DELGADO_IBO_QUIRIMBA,40.60573197983616,-12.436621233927731,Mozambique,NMVOC,1.0215148829992249,220
0741,MOZAMBIQUE_CABO DELGADO_MACOMIA_CHAI,40.09939009869904,-11.975771317344952,Mozambique,NMVOC,271.7394952709428,220
0742,MOZAMBIQUE_CABO DELGADO_MACOMIA_MACOMIA SEDE,40.00966789367028,-12.185963022208076,Mozambique,NMVOC,640.920159315109,220
0743,MOZAMBIQUE_CABO DELGADO_MACOMIA_MUCOJO,40.39838621183561,-12.132019600349427,Mozambique,NMVOC,168.9842462513434,220
0744,MOZAMBIQUE_CABO DELGADO_MACOMIA_QUITERAJO,40.34862064188187,-11.822248596272631,Mozambique,NMVOC,57.5856818412285,220
0745,MOZAMBIQUE_CABO DELGADO_MECÚFI_MECÚFI SEDE,40.44136931989843,-13.314578160765912,Mozambique,NMVOC,316.2618200265686,220
0746,MOZAMBIQUE_CABO DELGADO_MECÚFI_MURREBUE,40.3621691122671,-13.16275211422268,Mozambique,NMVOC,272.75139085624255,220
0747,MOZAMBIQUE_CABO DELGADO_MELUCO_MELUCO,39.519008675605434,-12.466558692060977,Mozambique,NMVOC,106.54154358547713,220
0748,MOZAMBIQUE_CABO DELGADO_MELUCO_MUAGUIDE,40.006147820712634,-12.461564676608146,Mozambique,NMVOC,157.0950981891478,220
0749,MOZAMBIQUE_CABO DELGADO_METUGE_METUGE SEDE,40.30149518097115,-12.881110538127228,Mozambique,NMVOC,592.0608646462503,220
0750,MOZAMBIQUE_CABO DELGADO_METUGE_MIEZE,40.42604082004337,-13.071741165509883,Mozambique,NMVOC,440.9552375620981,220
0751,MOZAMBIQUE_CABO DELGADO_MOCÍMBOA DA PRAIA_DIACA,39.98361766384434,-11.50941232931751,Mozambique,NMVOC,316.3616378070117,220
0752,MOZAMBIQUE_CABO DELGADO_MOCÍMBOA DA PRAIA_MBAU,40.264033426645,-11.61011746355292,Mozambique,NMVOC,129.8985484377627,220
0753,MOZAMBIQUE_CABO DELGADO_MOCÍMBOA DA PRAIA_MOCÍMBOA DA PRAIA SEDE,40.221732345886586,-11.307039802847223,Mozambique,NMVOC,835.4542901582682,220
0754,MOZAMBIQUE_CABO DELGADO_MONTEPUEZ_CIDADE DE MONTEPUEZ,39.10336496633387,-13.155831594194833,Mozambique,NMVOC,2020.7173705554314,220
0755,MOZAMBIQUE_CABO DELGADO_MONTEPUEZ_MAPUPULO,38.85156103637511,-13.296202609826898,Mozambique,NMVOC,218.7601651811185,220
0756,MOZAMBIQUE_CABO DELGADO_MONTEPUEZ_MIRATE SEDE,38.889102884866084,-12.858163088415916,Mozambique,NMVOC,767.295366076459,220
0757,MOZAMBIQUE_CABO DELGADO_MONTEPUEZ_NAIROTO,38.60846512227451,-12.417692004693443,Mozambique,NMVOC,105.14217561021744,220
0758,MOZAMBIQUE_CABO DELGADO_MONTEPUEZ_NAMANHUMBIR,39.29331479236441,-13.03734599713965,Mozambique,NMVOC,363.1246215556635,220
0759,MOZAMBIQUE_CABO DELGADO_MUEDA_CHAPA,39.300669871212165,-11.933739048526274,Mozambique,NMVOC,305.7786119239131,220
0760,MOZAMBIQUE_CABO DELGADO_MUEDA_IMBUHO SEDE,39.71330104587685,-11.492354708140468,Mozambique,NMVOC,145.08754638531306,220
0761,MOZAMBIQUE_CABO DELGADO_MUEDA_MUEDA SEDE,39.52799055312814,-11.615490131717069,Mozambique,NMVOC,902.8659697373969,220
0762,MOZAMBIQUE_CABO DELGADO_MUEDA_NAMAUA,39.71135420448486,-11.578853289361819,Mozambique,NMVOC,151.5838979122388,220
0763,MOZAMBIQUE_CABO DELGADO_MUEDA_NEGOMANO,38.68032202017621,-11.555132251334204,Mozambique,NMVOC,14.798230467062073,220
0764,MOZAMBIQUE_CABO DELGADO_MUEDA_NGAPA,39.181606916419916,-11.449464889051079,Mozambique,NMVOC,395.32025691792796,220
0765,MOZAMBIQUE_CABO DELGADO_MUIDUMBE_CHITUNDA,40.02853944757149,-11.798368536527168,Mozambique,NMVOC,236.5399173963459,220
0766,MOZAMBIQUE_CABO DELGADO_MUIDUMBE_MITEDA,39.64749196598334,-11.853991027094667,Mozambique,NMVOC,282.0843486843511,220
0767,MOZAMBIQUE_CABO DELGADO_MUIDUMBE_MUAMBULA,39.82130488684691,-11.841747965829844,Mozambique,NMVOC,523.285748806828,220
0768,MOZAMBIQUE_CABO DELGADO_NAMUNO_HUCULA,39.027034408935776,-13.807982550463722,Mozambique,NMVOC,348.71275097735867,220
0769,MOZAMBIQUE_CABO DELGADO_NAMUNO_MACHOCA,38.9025822941826,-13.935861472055366,Mozambique,NMVOC,585.1008784740864,220
0770,MOZAMBIQUE_CABO DELGADO_NAMUNO_MELOCO,39.16332069555443,-13.55331427408594,Mozambique,NMVOC,456.50759371063805,220
0771,MOZAMBIQUE_CABO DELGADO_NAMUNO_NAMUNO SEDE,38.85042931380327,-13.571803785012364,Mozambique,NMVOC,1415.6311010248246,220
0772,MOZAMBIQUE_CABO DELGADO_NAMUNO_NCUMPE,38.64829661522544,-13.759868655212932,Mozambique,NMVOC,580.0140194141476,220
0773,MOZAMBIQUE_CABO DELGADO_NAMUNO_PAPAI,38.6112488248292,-14.01083078018285,Mozambique,NMVOC,285.9439016308769,220
0774,MOZAMBIQUE_CABO DELGADO_NANGADE_NANGADE SEDE,39.74862940454096,-11.083424646974992,Mozambique,NMVOC,723.4830602780088,220
0775,MOZAMBIQUE_CABO DELGADO_NANGADE_NTAMBA,39.82186362422569,-11.298924991205137,Mozambique,NMVOC,273.6782659221731,220
0776,MOZAMBIQUE_CABO DELGADO_PALMA_OLUMBE,40.37722280987631,-11.022253412786055,Mozambique,NMVOC,105.6483162412563,220
0777,MOZAMBIQUE_CABO DELGADO_PALMA_PALMA,40.36752760276333,-10.781107321340652,Mozambique,NMVOC,344.6159385547153,220
0778,MOZAMBIQUE_CABO DELGADO_PALMA_PUNDANHAR,40.10649223692033,-10.915061660907167,Mozambique,NMVOC,31.622231662440267,220
0779,MOZAMBIQUE_CABO DELGADO_PALMA_QUIONGA,40.39832171975072,-10.605188674355327,Mozambique,NMVOC,33.91826402554569,220
0780,MOZAMBIQUE_CABO DELGADO_QUISSANGA_BILIBIZA,40.19654727032573,-12.609796456581662,Mozambique,NMVOC,171.57052495080976,220
0781,MOZAMBIQUE_CABO DELGADO_QUISSANGA_MAHATE,40.41919917872787,-12.635885089192568,Mozambique,NMVOC,193.47966016694713,220
0782,MOZAMBIQUE_CIDADE DE MAPUTO_KAMAVOTA_KAMAVOTA,32.634886641291224,-25.887693649593853,Mozambique,NMVOC,3500.7003900735394,220
0783,MOZAMBIQUE_CIDADE DE MAPUTO_KAMAXAKENI_KAMAXAKENI,32.59944117113847,-25.93889789948286,Mozambique,NMVOC,695.7304793751457,220
0784,MOZAMBIQUE_CIDADE DE MAPUTO_KAMPFUMO_KAMPFUMO,32.586471991569425,-25.963392495074924,Mozambique,NMVOC,1030.6704023513237,220
0785,MOZAMBIQUE_CIDADE DE MAPUTO_KAMUBUKWANA_KAMUBUKWANA,32.57628175378329,-25.874280175789803,Mozambique,NMVOC,4475.077622395636,220
0786,MOZAMBIQUE_CIDADE DE MAPUTO_KANYAKA_KANYAKA,32.942792473320985,-26.019854398302623,Mozambique,NMVOC,10.27161129095197,220
0787,MOZAMBIQUE_CIDADE DE MAPUTO_KATEMBE_KATEMBE,32.52558521951384,-26.037162300504427,Mozambique,NMVOC,1819.2920259249056,220
0788,MOZAMBIQUE_CIDADE DE MAPUTO_NHLAMANKULO_NHLAMANKULO,32.557337897173184,-25.94748667088231,Mozambique,NMVOC,920.0959327584713,220
0789,MOZAMBIQUE_GAZA_BILENE_BILENE MACIA,33.12170844184735,-25.024345210123222,Mozambique,NMVOC,317.46471261925217,220
0790,MOZAMBIQUE_GAZA_BILENE_INCAIA,33.23389036385305,-24.972836632632283,Mozambique,NMVOC,65.0623751223196,220
0791,MOZAMBIQUE_GAZA_BILENE_MACUANE,33.16406911785151,-25.13186013405694,Mozambique,NMVOC,403.6141662993327,220
0792,MOZAMBIQUE_GAZA_BILENE_MAZIVILA,33.15771945972996,-24.86159285857413,Mozambique,NMVOC,230.91393986440386,220
0793,MOZAMBIQUE_GAZA_BILENE_MESSANO,32.994801638202425,-24.9711864826169,Mozambique,NMVOC,420.09162085642686,220
0794,MOZAMBIQUE_GAZA_BILENE_PRAIA DE BILENE,33.22313026811176,-25.268200454905273,Mozambique,NMVOC,80.5634357644619,220
0795,MOZAMBIQUE_GAZA_CHIBUTO_ALTO CHANGANE,33.532709699998925,-24.239915954397528,Mozambique,NMVOC,137.21080644697366,220
0796,MOZAMBIQUE_GAZA_CHIBUTO_CHANGANINE,33.78000414254853,-24.004994838500192,Mozambique,NMVOC,6.551313699803891,220
0797,MOZAMBIQUE_GAZA_CHIBUTO_CIDADE DE CHIBUTO,33.56479821975432,-24.69579299181594,Mozambique,NMVOC,270.4941114381888,220
0798,MOZAMBIQUE_GAZA_CHIBUTO_GODIDE,33.664009941160174,-24.59383871859075,Mozambique,NMVOC,759.9297331216293,220
0799,MOZAMBIQUE_GAZA_CHIBUTO_MALEHICE,33.68651799951757,-24.751639870695612,Mozambique,NMVOC,1019.1247793009558,220
0800,MOZAMBIQUE_GAZA_CHIBUTO_TCHAIMITE,33.40913649471263,-24.6274038248804,Mozambique,NMVOC,613.2359073538125,220
0801,MOZAMBIQUE_GAZA_CHICUALACUALA_EDUARDO MONDLANE,31.90283759038279,-22.22474259936432,Mozambique,NMVOC,59.85005324131754,220
0802,MOZAMBIQUE_GAZA_CHICUALACUALA_PAFURI,31.839636613036426,-23.062508500431342,Mozambique,NMVOC,118.79473743942441,220
0803,MOZAMBIQUE_GAZA_CHIGUBO_CHIGUBO SEDE,33.28327880896511,-22.55689162530508,Mozambique,NMVOC,33.623230525983466,220
0804,MOZAMBIQUE_GAZA_CHIGUBO_NDINDIZA,33.50940091714144,-23.45508178763895,Mozambique,NMVOC,145.02130778222585,220
0805,MOZAMBIQUE_GAZA_CHÓKWÈ_CIDADE DE CHÓKWÈ,32.99328794506374,-24.520208875238563,Mozambique,NMVOC,252.42346410478513,220
0806,MOZAMBIQUE_GAZA_CHÓKWÈ_LIONDE,33.00856327547369,-24.690277510511446,Mozambique,NMVOC,1012.999000935189,220
0807,MOZAMBIQUE_GAZA_CHÓKWÈ_MACARRETANE,32.75708982206706,-24.37253995423536,Mozambique,NMVOC,740.515376929062,220
0808,MOZAMBIQUE_GAZA_CHÓKWÈ_XILEMBENE,33.295896826319776,-24.740800650273098,Mozambique,NMVOC,702.5446853215459,220
0809,MOZAMBIQUE_GAZA_CHONGOENE_CHONGOENE,33.78738388968989,-24.95612324064541,Mozambique,NMVOC,1948.3085693904575,220
0810,MOZAMBIQUE_GAZA_CHONGOENE_MAZUCANE,33.94816589854456,-24.75078182642919,Mozambique,NMVOC,247.48439443195485,220
0811,MOZAMBIQUE_GAZA_CHONGOENE_NGUZENE,33.99174761296743,-24.900424006547656,Mozambique,NMVOC,71.75291447050323,220
0812,MOZAMBIQUE_GAZA_CIDADE DE XAI-XAI_CIDADE DE XAI-XAI,33.6238199287902,-25.095602356591947,Mozambique,NMVOC,1777.0900321550123,220
0813,MOZAMBIQUE_GAZA_GUIJÁ_CHIVONGOENE,33.233221538781685,-24.47489638296496,Mozambique,NMVOC,559.7771976702749,220
0814,MOZAMBIQUE_GAZA_GUIJÁ_MUBANGOENE,32.95074527970149,-24.269396021473018,Mozambique,NMVOC,493.18114582129,220
0815,MOZAMBIQUE_GAZA_GUIJÁ_NALAZI,33.17804626234287,-24.007141668394482,Mozambique,NMVOC,51.03422932379947,220
0816,MOZAMBIQUE_GAZA_GUIJÁ_VILA CANIÇADO,33.03370976279583,-24.496154209395023,Mozambique,NMVOC,79.72431380630208,220
0817,MOZAMBIQUE_GAZA_LIMPOPO_CHICUMBANE,33.50935105307376,-24.95521044053618,Mozambique,NMVOC,1308.257893099242,220
0818,MOZAMBIQUE_GAZA_LIMPOPO_CHISSANO,33.36595620036372,-24.917774625636756,Mozambique,NMVOC,568.0608651875815,220
0819,MOZAMBIQUE_GAZA_LIMPOPO_ZONGOENE,33.41768385775187,-25.15027705143945,Mozambique,NMVOC,105.39969666777137,220
0820,MOZAMBIQUE_GAZA_MABALANE_COMBOMUNE,32.76206527578445,-23.248510922783225,Mozambique,NMVOC,153.65908463030632,220
0821,MOZAMBIQUE_GAZA_MABALANE_MABALANE,32.830014386359615,-23.86472905225202,Mozambique,NMVOC,45.658545560512536,220
0822,MOZAMBIQUE_GAZA_MABALANE_NTLHAVENE,32.55611135942274,-23.700477308848008,Mozambique,NMVOC,83.044037446715,220
0823,MOZAMBIQUE_GAZA_MANDLAKAZE_CHALALA,33.898816970795764,-24.62204362818058,Mozambique,NMVOC,142.09087280876594,220
0824,MOZAMBIQUE_GAZA_MANDLAKAZE_CHIBONDZANE,34.20993805079586,-24.617150832754188,Mozambique,NMVOC,310.45016380069086,220
0825,MOZAMBIQUE_GAZA_MANDLAKAZE_CHIDENGUELE,34.222185883991216,-24.846464693637397,Mozambique,NMVOC,373.8551234086731,220
0826,MOZAMBIQUE_GAZA_MANDLAKAZE_MACUACUA,33.93793587874184,-24.351855632078426,Mozambique,NMVOC,81.80957384601848,220
0827,MOZAMBIQUE_GAZA_MANDLAKAZE_MANDLAKAZE SEDE,33.881734623458314,-24.717454952391012,Mozambique,NMVOC,196.71487106547306,220
0828,MOZAMBIQUE_GAZA_MAPAI_MACHAILA,32.8972792264127,-22.46107250918086,Mozambique,NMVOC,135.43212136731037,220
0829,MOZAMBIQUE_GAZA_MAPAI_MAPAI,32.340153357812774,-22.66221263505515,Mozambique,NMVOC,184.65774270673066,220
0830,MOZAMBIQUE_GAZA_MASSANGENA_MASSANGENA,33.024968092166,-21.76228030255321,Mozambique,NMVOC,107.7281852598129,220
0831,MOZAMBIQUE_GAZA_MASSANGENA_MAVUE,32.44873445655671,-21.74455920732843,Mozambique,NMVOC,97.5401000427838,220
0832,MOZAMBIQUE_GAZA_MASSINGIR_MASSINGIR SEDE,32.14188192707758,-24.083427448323647,Mozambique,NMVOC,111.75284550222356,220
0833,MOZAMBIQUE_GAZA_MASSINGIR_MAVODZE,31.957192936094224,-23.682084241320673,Mozambique,NMVOC,38.145504657084835,220
0834,MOZAMBIQUE_GAZA_MASSINGIR_ZULO,32.44746940415907,-24.081905716979545,Mozambique,NMVOC,14.570117674872966,220
0835,MOZAMBIQUE_INHAMBANE_CIDADE DA MAXIXE_CIDADE DA MAXIXE,35.30847837373539,-23.88280148067849,Mozambique,NMVOC,1587.6711409417703,220
0836,MOZAMBIQUE_INHAMBANE_CIDADE DE INHAMBANE_CIDADE DE INHAMBANE,35.4669344326235,-23.887608905915176,Mozambique,NMVOC,482.5100654919395,220
0837,MOZAMBIQUE_INHAMBANE_FUNHALOURO_FUNHALOURO,34.40493526211412,-23.279005264339535,Mozambique,NMVOC,490.8265129929211,220
0838,MOZAMBIQUE_INHAMBANE_FUNHALOURO_TOME,34.123107711970896,-22.6492454413369,Mozambique,NMVOC,223.6409174790532,220
0839,MOZAMBIQUE_INHAMBANE_GOVURO_NOVA MAMBONE,34.91124864499755,-21.24838028736193,Mozambique,NMVOC,158.28794246700502,220
0840,MOZAMBIQUE_INHAMBANE_GOVURO_SAVE,34.50273875747384,-21.372352488268987,Mozambique,NMVOC,314.45527993514787,220
0841,MOZAMBIQUE_INHAMBANE_HOMOÍNE_HOMOÍNE SEDE,35.11348463085394,-23.979574815302524,Mozambique,NMVOC,1572.9386526554213,220
0842,MOZAMBIQUE_INHAMBANE_HOMOÍNE_PEMBE,34.954010052320086,-23.75585650680714,Mozambique,NMVOC,161.70175362709392,220
0843,MOZAMBIQUE_INHAMBANE_INHARRIME_INHARRIME SEDE,35.0629320946627,-24.377713765160113,Mozambique,NMVOC,1358.0764893400003,220
0844,MOZAMBIQUE_INHAMBANE_INHARRIME_MUCUMBI,34.57231599403387,-24.417768147569834,Mozambique,NMVOC,256.5884388927031,220
0845,MOZAMBIQUE_INHAMBANE_INHASSORO_BAZARUTO,35.465173197521,-21.65725826320277,Mozambique,NMVOC,2.3230098359914644,220
0846,MOZAMBIQUE_INHAMBANE_INHASSORO_INHASSORO,34.84605588804438,-21.753052479230316,Mozambique,NMVOC,629.4984960169713,220
0847,MOZAMBIQUE_INHAMBANE_JANGAMO_CUMBANA,35.150833362602604,-24.21294386364807,Mozambique,NMVOC,635.61388531276,220
0848,MOZAMBIQUE_INHAMBANE_JANGAMO_JANGAMO,35.3828405134123,-24.118279758970523,Mozambique,NMVOC,503.3451940566025,220
0849,MOZAMBIQUE_INHAMBANE_MABOTE_MABOTE,34.1237933010753,-22.071272031528167,Mozambique,NMVOC,374.1469565511381,220
0850,MOZAMBIQUE_INHAMBANE_MABOTE_ZIMANE,33.53428838953659,-22.259421319452596,Mozambique,NMVOC,160.47702766545896,220
0851,MOZAMBIQUE_INHAMBANE_MABOTE_ZINAVE,33.78047603814595,-21.630829138429963,Mozambique,NMVOC,192.8254401742273,220
0852,MOZAMBIQUE_INHAMBANE_MASSINGA_CHICOMO,34.91593880649871,-22.694580178891357,Mozambique,NMVOC,451.91588175066914,220
0853,MOZAMBIQUE_INHAMBANE_MASSINGA_MASSINGA,35.28967211538618,-23.208309768202906,Mozambique,NMVOC,2393.497777695142,220
0854,MOZAMBIQUE_INHAMBANE_MORRUMBENE_MOCODUENE,35.03823145580892,-23.43542902200303,Mozambique,NMVOC,857.0429136175915,220
0855,MOZAMBIQUE_INHAMBANE_MORRUMBENE_MORRUMBENE,35.31512127790291,-23.62003628600982,Mozambique,NMVOC,447.5791958032729,220
0856,MOZAMBIQUE_INHAMBANE_PANDA_MAWAYELA,34.116370299409866,-24.001901283449012,Mozambique,NMVOC,55.26675901198538,220
0857,MOZAMBIQUE_INHAMBANE_PANDA_PANDA,34.5701782475298,-24.112499270772535,Mozambique,NMVOC,230.66820615215835,220
0858,MOZAMBIQUE_INHAMBANE_PANDA_URRENE,34.644908571251904,-23.83766104214481,Mozambique,NMVOC,84.42522179196474,220
0859,MOZAMBIQUE_INHAMBANE_VILANKULO_MAPINHANE,35.04533061414311,-22.371051282087183,Mozambique,NMVOC,879.065454646426,220
0860,MOZAMBIQUE_INHAMBANE_VILANKULO_VILANKULO,35.3062246160536,-22.14744435743396,Mozambique,NMVOC,573.4213722328209,220
0861,MOZAMBIQUE_INHAMBANE_ZAVALA_QUISSICO,34.83275046669489,-24.629624369539606,Mozambique,NMVOC,745.6769547361775,220
0862,MOZAMBIQUE_INHAMBANE_ZAVALA_ZANDAMELA,34.4860299379439,-24.67609745657631,Mozambique,NMVOC,675.7730062898058,220
0863,MOZAMBIQUE_LAKE MALAWI_LAKE MALAWI_LAKE MALAWI,34.66958894981475,-12.465931949774122,Mozambique,NMVOC,322.0374832504691,220
0864,MOZAMBIQUE_MANICA_BÁRUÈ_CATANDICA,33.30152827468673,-18.240536298661056,Mozambique,NMVOC,2388.2241173534026,220
