census_id,geo_name,lon,lat,country,poll,emis,eff_height,mort_pertonne
0001,ANGOLA_BENGO_AMBRIZ,13.500573856748415,-7.941839245075118,Angola,NOx,29.590456632689165,220,1.917997322471443e-4
0002,ANGOLA_BENGO_BULA ATUMBA,14.820908751789867,-8.634475645495783,Angola,NOx,5.056777447564605,220,1.465227998762586e-4
0003,ANGOLA_BENGO_DANDE,13.841710609854086,-8.53534736049627,Angola,NOx,236.14704489282258,220,3.423549766008449e-4
0004,ANGOLA_BENGO_DEMBOS,14.552452662474186,-8.506656679922113,Angola,NOx,9.093017299611601,220,1.5971792755919978e-4
0005,ANGOLA_BENGO_NAMBUANGONGO,14.25926486683566,-8.047643790272277,Angola,NOx,19.8267702797405,220,1.5821924514103358e-4
0006,ANGOLA_BENGO_PANGO ALUQUÉM,14.467187741962098,-8.753291428515478,Angola,NOx,1.805879396613769,220,1.8695492980369544e-4
0007,ANGOLA_BENGUELA_BAÍA FARTA,13.110895429150032,-13.169353899832894,Angola,NOx,22.48725924071731,220,1.404268322831026e-4
0008,ANGOLA_BENGUELA_BALOMBO,14.785534807000774,-12.362142938317604,Angola,NOx,28.629239590996505,220,2.065940248010545e-4
0009,ANGOLA_BENGUELA_BENGUELA,13.613234701433782,-12.750903810317325,Angola,NOx,101.85641026087472,220,1.9824423959891035e-4
0010,ANGOLA_BENGUELA_BOCOIO,14.273806030010297,-12.337517465231237,Angola,NOx,49.59784969699007,220,2.4330977689701605e-4
0011,ANGOLA_BENGUELA_CAIMBAMBO,13.925466200463916,-13.103370379840863,Angola,NOx,23.4153549362813,220,2.3635566130986163e-4
0012,ANGOLA_BENGUELA_CATUMBELA,13.680172800346687,-12.477296385532492,Angola,NOx,16.86266167353797,220,2.204479752785371e-4
0013,ANGOLA_BENGUELA_CHONGOROI,13.804725364547245,-13.596741410412521,Angola,NOx,31.01445426892066,220,1.0610071880878813e-4
0014,ANGOLA_BENGUELA_CUBAL,14.349577634106108,-13.16149142143734,Angola,NOx,92.07350449710201,220,2.0572183375500153e-4
0015,ANGOLA_BENGUELA_GANDA,14.733920867955561,-13.122131963632688,Angola,NOx,520.2988910981006,220,2.0404568616716467e-4
0016,ANGOLA_BENGUELA_LOBITO,13.886545783996153,-12.092395259332209,Angola,NOx,27989.00926647647,220,2.6556707613734076e-4
0017,ANGOLA_BIÉ_ANDULO,16.463299708517784,-11.274658946317146,Angola,NOx,76.60504576388237,220,5.4171526486790356e-5
0018,ANGOLA_BIÉ_CAMACUPA,17.780227977541617,-12.451681506672221,Angola,NOx,40.91820949638866,220,5.4050246577563854e-5
0019,ANGOLA_BIÉ_CATABOLA,17.254341809340623,-12.147939255129183,Angola,NOx,33.66582522986405,220,5.4267624285397886e-5
0020,ANGOLA_BIÉ_CHINGUAR,16.57220235885333,-12.562961032395926,Angola,NOx,29.538341137851592,220,8.208984701552069e-5
0021,ANGOLA_BIÉ_CHITEMBO,17.2256685420672,-13.4761375683222,Angola,NOx,50.794528613772655,220,5.1564818183136296e-5
0022,ANGOLA_BIÉ_CUEMBA,18.450876402365434,-11.812583973776919,Angola,NOx,96.24326820340767,220,3.690801433786639e-5
0023,ANGOLA_BIÉ_CUITO,17.0195337801636,-12.539053407735349,Angola,NOx,148.8612155191313,220,6.758303402665256e-5
0024,ANGOLA_BIÉ_CUNHINGA,16.806485043535446,-11.988245606222938,Angola,NOx,14.990013068648407,220,7.076195602984114e-5
0025,ANGOLA_BIÉ_NHAREA,17.157724905821997,-11.308602978499657,Angola,NOx,27.59678078701927,220,4.490205074669795e-5
0026,ANGOLA_CABINDA_BELIZE,12.84464336058737,-4.605790961567085,Angola,NOx,19.08899520433308,220,7.864128582557584e-6
0027,ANGOLA_CABINDA_BUCO ZAU,12.545868870473262,-4.802124175234638,Angola,NOx,22.06892604647406,220,2.5889000784262706e-5
0028,ANGOLA_CABINDA_CABINDA,12.36403326270615,-5.461872414729606,Angola,NOx,128.6869068833478,220,2.419184357904669e-5
0029,ANGOLA_CABINDA_CACONGO,12.242228043574034,-5.043712430446504,Angola,NOx,125.78319102704545,220,3.308514824906794e-5
0030,ANGOLA_KUANDO KUBANGO_CALAI,19.414268804995988,-17.367954683212766,Angola,NOx,15.876310808796676,220,1.7391134516930862e-5
0031,ANGOLA_KUANDO KUBANGO_CUANGAR,18.15299180710266,-17.054777832805367,Angola,NOx,6.868865581503221,220,2.184227450596765e-5
0032,ANGOLA_KUANDO KUBANGO_CUCHI,16.962579756983985,-14.692891199511664,Angola,NOx,24.34263082857855,220,5.649848812994129e-5
0033,ANGOLA_KUANDO KUBANGO_CUITO CUANAVALE,18.841355039845936,-14.950150376556852,Angola,NOx,50.72649307004218,220,2.3509494630147287e-5
0034,ANGOLA_KUANDO KUBANGO_DIRICO,20.825162039879295,-17.52729673830151,Angola,NOx,26.10663878670245,220,1.427776337292741e-5
0035,ANGOLA_KUANDO KUBANGO_MAVINGA,20.292091111981065,-16.124977275218903,Angola,NOx,45.20987801603293,220,1.5864912064733616e-5
0036,ANGOLA_KUANDO KUBANGO_MENONGUE,17.745373647024998,-15.225709939331868,Angola,NOx,101.4715936499212,220,3.5316700798704304e-5
0037,ANGOLA_KUANDO KUBANGO_NANCOVA,18.73240828489362,-16.388826303005242,Angola,NOx,9.311242744138633,220,1.9490787851017544e-5
0038,ANGOLA_KUANDO KUBANGO_RIVUNGO,21.95105197046031,-16.860900758284263,Angola,NOx,38.27567030271039,220,1.6231739802696765e-5
0039,ANGOLA_KWANZA NORTE_AMBACA,15.509119051943488,-8.223269097816729,Angola,NOx,15.148122160394296,220,7.564779472302163e-5
0040,ANGOLA_KWANZA NORTE_BANGA,15.153253461606287,-8.689616530469744,Angola,NOx,2.4093499481000857,220,1.1281594312984033e-4
0041,ANGOLA_KWANZA NORTE_BOLONGONGO,15.113302487330705,-8.382132376680488,Angola,NOx,3.9455183862996814,220,1.1536206087336964e-4
0042,ANGOLA_KWANZA NORTE_CAMBAMBE,14.521816633134614,-9.433964278230446,Angola,NOx,31.497029704273693,220,1.8477404930683505e-4
0043,ANGOLA_KWANZA NORTE_CAZENGO,14.779870946066733,-9.320031680889498,Angola,NOx,48.73640140560801,220,1.437974584099777e-4
0044,ANGOLA_KWANZA NORTE_GOLUNGO ALTO,14.666387710001,-9.076507922069805,Angola,NOx,15.551954464191034,220,1.5790407751370417e-4
0045,ANGOLA_KWANZA NORTE_LUCALA,15.238258650636386,-9.139267281380702,Angola,NOx,7.058172536983287,220,1.261462221502363e-4
0046,ANGOLA_KWANZA NORTE_NGONGUEMBO,14.901663408090647,-8.902563767131948,Angola,NOx,3.713035289769521,220,1.3184361463935979e-4
0047,ANGOLA_KWANZA NORTE_QUICULUNGO,15.319625776448795,-8.49002907643525,Angola,NOx,1.3233250809601418,220,1.0382351422832947e-4
0048,ANGOLA_KWANZA NORTE_SAMBA CAJÚ,15.494620704324683,-8.808515207926657,Angola,NOx,7.174479158061189,220,1.07169973769361e-4
0049,ANGOLA_KWANZA SUL_AMBOIM,14.409446053756277,-10.888247311555114,Angola,NOx,554.8303309627446,220,2.2022208145866529e-4
0050,ANGOLA_KWANZA SUL_CASSONGUE,14.969245996228281,-11.823486279155278,Angola,NOx,32.53526907509165,220,1.8822181808886285e-4
0051,ANGOLA_KWANZA SUL_CELA,15.327509138494797,-11.286611386444985,Angola,NOx,63.595292676712745,220,1.659428044240574e-4
0052,ANGOLA_KWANZA SUL_CONDA,14.457113187835018,-11.173469665594153,Angola,NOx,23.09514180985798,220,2.513257309226802e-4
0053,ANGOLA_KWANZA SUL_EBO,14.756355439021709,-10.954311333786544,Angola,NOx,46.23133767031868,220,1.775049672902984e-4
0054,ANGOLA_KWANZA SUL_LIBOLO,14.990540118658812,-10.063463539441377,Angola,NOx,31.05339323139793,220,1.217897799019596e-4
0055,ANGOLA_KWANZA SUL_MUSSENDE,15.978658982493396,-10.268786589120642,Angola,NOx,209.0865238582381,220,7.409653618006828e-5
0056,ANGOLA_KWANZA SUL_PORTO AMBOIM,13.942283729197893,-10.627805552833145,Angola,NOx,35.673800705371,220,1.2163446390101029e-4
0057,ANGOLA_KWANZA SUL_QUIBALA,15.335713103750756,-10.699008506951671,Angola,NOx,47.754071571848336,220,1.1639926395745626e-4
0058,ANGOLA_KWANZA SUL_QUILENDA,14.370237419617364,-10.524491857097443,Angola,NOx,24.182504279660808,220,1.4929515359107803e-4
0059,ANGOLA_KWANZA SUL_SELES,14.50091627350989,-11.457587720793851,Angola,NOx,43.537123207882544,220,2.6401370395578994e-4
0060,ANGOLA_KWANZA SUL_SUMBE,14.04934311345206,-11.49811492361192,Angola,NOx,627.6950727007288,220,2.086792280480143e-4
0061,ANGOLA_CUNENE_CAHAMA,14.247669093888437,-16.41710354139286,Angola,NOx,30.340294715940857,220,6.539853071796387e-5
0062,ANGOLA_CUNENE_CUANHAMA,16.320547599774045,-16.48223334568777,Angola,NOx,146.56548730862687,220,5.5561648866886415e-5
0063,ANGOLA_CUNENE_CUROCA,13.788175609536145,-16.932294476395295,Angola,NOx,5.509997602952763,220,8.532549472306528e-6
0064,ANGOLA_CUNENE_CUVELAI,16.136146428177735,-15.746368160393057,Angola,NOx,36.005258649105734,220,6.425981483104692e-5
0065,ANGOLA_CUNENE_NAMACUNDE,16.606272115792553,-17.074018548021083,Angola,NOx,67.1490182758169,220,4.385749434132613e-5
0066,ANGOLA_CUNENE_OMBADJA,14.941895100531925,-16.768959146811532,Angola,NOx,119.74367794873447,220,4.666982843248846e-5
0067,ANGOLA_HUAMBO_BAILUNDO,15.850466201739053,-11.950050465566608,Angola,NOx,79.96946176042981,220,1.6770012255706845e-4
0068,ANGOLA_HUAMBO_CAÁLA,15.572188198073116,-13.27102876067493,Angola,NOx,426.20278922953673,220,1.585441846101432e-4
0069,ANGOLA_HUAMBO_CACHIUNGO,16.319644201016246,-12.759421533499594,Angola,NOx,42.492481587293604,220,1.0331043302636012e-4
0070,ANGOLA_HUAMBO_ECUNHA,15.49134958273524,-12.53401934231182,Angola,NOx,20.798527338927876,220,1.413705578123814e-4
0071,ANGOLA_HUAMBO_HUAMBO,15.79536569507517,-12.819324307871682,Angola,NOx,189.01799544417233,220,1.27258102049721e-4
0072,ANGOLA_HUAMBO_LONDUIMBALI,15.292015045757923,-12.235996591708586,Angola,NOx,32.8822703212323,220,1.4028598372428647e-4
0073,ANGOLA_HUAMBO_LONGONJO,15.22279516795389,-13.084757821818668,Angola,NOx,25.497467209665306,220,1.912928610448006e-4
0074,ANGOLA_HUAMBO_MUNGO,16.20588037491343,-11.755072951814116,Angola,NOx,38.951023268422354,220,9.601123427938063e-5
0075,ANGOLA_HUAMBO_CHICALA CHOLOHANGA,16.092706109508978,-12.95985009260693,Angola,NOx,29.901466978302906,220,1.1492337047025458e-4
0076,ANGOLA_HUAMBO_CHINJENJE,14.940107561316543,-12.818781665594054,Angola,NOx,11.5977987369434,220,2.1737897444906729e-4
0077,ANGOLA_HUAMBO_UCUMA,15.15058241504692,-12.745033355569538,Angola,NOx,10.365685886061911,220,2.105191815158225e-4
0078,ANGOLA_HUÍLA_CACONDA,15.158416365277283,-13.778376463063532,Angola,NOx,46.521580667379084,220,1.4341234982251372e-4
0079,ANGOLA_HUÍLA_CACULA,14.291948368736596,-14.437668897988177,Angola,NOx,41.72118944087179,220,1.1296377157132831e-4
0080,ANGOLA_HUÍLA_CALUQUEMBE,14.553605248971426,-13.943434135545042,Angola,NOx,51.990329344849386,220,1.5636942604957405e-4
0081,ANGOLA_HUÍLA_CHIBIA,13.860963321337298,-15.220319449437994,Angola,NOx,52.366946463588725,220,1.2947411536723408e-4
0082,ANGOLA_HUÍLA_CHICOMBA,15.019421703365952,-14.30430435864405,Angola,NOx,44.12418347905347,220,1.3007207789406117e-4
0083,ANGOLA_HUÍLA_CHIPINDO,15.73591828652565,-13.88531948048917,Angola,NOx,19.96962056128366,220,1.195370516640093e-4
0084,ANGOLA_HUÍLA_CUVANGO,16.318716983084595,-14.2140670585581,Angola,NOx,32.213458476648526,220,7.776111783552864e-5
0085,ANGOLA_HUÍLA_GAMBOS,14.0555441801658,-15.836380299367216,Angola,NOx,34.96369669067176,220,1.1948697071395564e-4
0086,ANGOLA_HUÍLA_HUMPATA,13.37340825793292,-15.07711619840059,Angola,NOx,82.5536212733847,220,1.0880667644919129e-4
0087,ANGOLA_HUÍLA_JAMBA,15.84246469273556,-14.813136321719922,Angola,NOx,38.36446197781624,220,7.973609610978372e-5
0088,ANGOLA_HUÍLA_LUBANGO,13.74650625251509,-14.782265363665282,Angola,NOx,179.42137329838155,220,1.0634949660914828e-4
0089,ANGOLA_HUÍLA_MATALA,15.162569522619448,-15.264035381319765,Angola,NOx,91.23604488372446,220,8.113617835281417e-5
0090,ANGOLA_HUÍLA_QUILENGUES,13.926712495367244,-14.10284606537322,Angola,NOx,26.131385082824135,220,1.4024020181846453e-4
0091,ANGOLA_HUÍLA_QUIPUNGO,14.584346812183863,-15.11197852346331,Angola,NOx,64.27379267063202,220,1.0236570819688318e-4
0092,ANGOLA_LUANDA_BELAS,13.174021473379,-9.08837444152561,Angola,NOx,1703.8843790952228,220,3.985208492640613e-4
0093,ANGOLA_LUANDA_CACUACO,13.451339905381309,-8.81991357363531,Angola,NOx,368.9092363835706,220,4.372808086023916e-4
0094,ANGOLA_LUANDA_CAZENGA,13.300213504677842,-8.82313810517484,Angola,NOx,4518.774252391529,220,2.423440426828627e-4
0095,ANGOLA_LUANDA_ICOLO E BENGO,13.862681054977354,-9.152861347234415,Angola,NOx,68.62505756395713,220,2.5663607290749013e-4
0096,ANGOLA_LUANDA_LUANDA,13.252264930379923,-8.85095461326464,Angola,NOx,25287.57973839498,220,2.836291541186142e-4
0097,ANGOLA_LUANDA_QUISSAMA,13.850629524262196,-9.831116523016574,Angola,NOx,146.22111329869867,220,1.0759972195484302e-4
0098,ANGOLA_LUANDA_VIANA,13.400581493461187,-9.003465052028048,Angola,NOx,607.8603054993796,220,3.931385594557746e-4
0099,ANGOLA_LUNDA NORTE_CAMBULO,21.496387269915466,-7.900107950052335,Angola,NOx,31.805528627044033,220,2.5118666411527713e-5
0100,ANGOLA_LUNDA NORTE_CAPENDA CAMULEMBA,18.86907773627034,-9.675389036317052,Angola,NOx,22.053916771942603,220,3.29573122661575e-5
0101,ANGOLA_LUNDA NORTE_CAUNGULA,18.82247560938972,-8.340339422591542,Angola,NOx,5.535907792559605,220,2.544879732990779e-5
0102,ANGOLA_LUNDA NORTE_CHITATO,20.86681232898085,-7.553523750605493,Angola,NOx,56.442649973890816,220,2.415573627367884e-5
0103,ANGOLA_LUNDA NORTE_CUANGO,18.060888555716936,-8.601096909504287,Angola,NOx,37.62457512150013,220,4.787167652620106e-5
0104,ANGOLA_LUNDA NORTE_CUILO,19.68851489115215,-8.128052490802382,Angola,NOx,5.877107578168677,220,1.791901203307411e-5
0105,ANGOLA_LUNDA NORTE_LÓVUA,20.13536631533787,-7.292391189166928,Angola,NOx,2.6408070419025256,220,1.7997374442302316e-5
0106,ANGOLA_LUNDA NORTE_LUBALO,19.297321892350976,-9.188561260843436,Angola,NOx,8.825648303191837,220,2.5729819638886653e-5
0107,ANGOLA_LUNDA NORTE_LUCAPA,20.47673092828323,-8.42331409755646,Angola,NOx,38.3067437343045,220,2.271710900103585e-5
0108,ANGOLA_LUNDA NORTE_XÁ-MUTEBA,17.85122654394,-9.277995251698849,Angola,NOx,40.76591196248883,220,4.85915142207638e-5
0109,ANGOLA_LUNDA SUL_CACOLO,19.178913301145815,-10.547328172202947,Angola,NOx,18.725502105076163,220,2.8801241329201588e-5
0110,ANGOLA_LUNDA SUL_DALA,20.352238837105524,-10.92405164265005,Angola,NOx,5.500426341100536,220,2.4603415934354445e-5
0111,ANGOLA_LUNDA SUL_MUCONDA,21.424847286291374,-10.154651759138405,Angola,NOx,14.910625537260838,220,2.9210622811692843e-5
0112,ANGOLA_LUNDA SUL_SAURIMO,20.688380679682755,-9.477233643283244,Angola,NOx,129.29337717771728,220,2.636790513665943e-5
0113,ANGOLA_MALANJE_CACUSO,15.62849098111707,-9.490292469411429,Angola,NOx,998.9284798849085,220,9.05483065181123e-5
0114,ANGOLA_MALANJE_CAHOMBO,16.66605389643875,-8.647102372057851,Angola,NOx,4.706922538402139,220,3.0203883043533608e-5
0115,ANGOLA_MALANJE_CALANDULA,16.005245178381916,-8.695990183498342,Angola,NOx,22.526727265549507,220,4.467009704534064e-5
0116,ANGOLA_MALANJE_CAMBUNDI-CATEMBO,17.84709415122643,-10.125145503710968,Angola,NOx,13.29734587278992,220,4.725913992609243e-5
0117,ANGOLA_MALANJE_CANGANDALA,16.683252748189343,-9.952367021939013,Angola,NOx,14.60490065515527,220,8.805900077324402e-5
0118,ANGOLA_MALANJE_CUNDA-DIA-BAZE,17.352728983670623,-8.66125398022735,Angola,NOx,2.802992958835484,220,4.25838922437638e-5
0119,ANGOLA_MALANJE_KIWABA NZOJI,16.45736622164412,-9.037971690115318,Angola,NOx,4.066834804268144,220,3.037503466707392e-5
0120,ANGOLA_MALANJE_LUQUEMBO,17.384986684590697,-10.792874181396483,Angola,NOx,22.30315165699703,220,5.135313393367369e-5
0121,ANGOLA_MALANJE_MALANJE,16.35498305019854,-9.482474776585153,Angola,NOx,145.73222746226355,220,6.020848928756095e-5
0122,ANGOLA_MALANJE_MARIMBA,17.11151213033175,-8.168436018156713,Angola,NOx,10.807106579495615,220,4.2214386422712025e-5
0123,ANGOLA_MALANJE_MASSANGO,16.599614024908476,-7.763456075510212,Angola,NOx,15.958981562213143,220,2.9784936152355e-5
0124,ANGOLA_MALANJE_MUCARI,16.919365558811112,-9.481804740501817,Angola,NOx,9.355215206484655,220,3.364382623294304e-5
0125,ANGOLA_MALANJE_QUELA,17.28820754724371,-9.318539247011007,Angola,NOx,5.452131335845774,220,4.012929736241233e-5
0126,ANGOLA_MALANJE_QUIRIMA,18.2681837365498,-11.068909718662896,Angola,NOx,11.459727789248904,220,3.936368224266573e-5
0127,ANGOLA_MOXICO_ALTO ZAMBEZE,22.90799374709926,-12.209683357686718,Angola,NOx,69.21940649791996,220,3.0270726287362493e-5
0128,ANGOLA_MOXICO_BUNDAS,21.31907325919521,-14.210473217747047,Angola,NOx,45.59254696308939,220,2.4650950223970014e-5
0129,ANGOLA_MOXICO_CAMANONGUE,20.234534061632754,-11.408959591622152,Angola,NOx,9.22190954007341,220,2.678963440017057e-5
0130,ANGOLA_MOXICO_CAMEIA,21.26339460023485,-11.838370789228382,Angola,NOx,6.507089689505636,220,2.9287013568080056e-5
0131,ANGOLA_MOXICO_LÉUA,20.575562544579704,-11.74380358626066,Angola,NOx,10.203894745838202,220,2.7393057670188625e-5
0132,ANGOLA_MOXICO_LUACANO,22.046284955949286,-11.669871723573195,Angola,NOx,6.209724355718399,220,2.7025088849663703e-5
0133,ANGOLA_MOXICO_LUAU,21.997475474347006,-10.901812727972676,Angola,NOx,26.97532130059747,220,2.533819522732017e-5
0134,ANGOLA_MOXICO_LUCHAZES,19.530239402686032,-13.751962349149917,Angola,NOx,18.889810135595084,220,2.0355731146670664e-5
0135,ANGOLA_MOXICO_LUENA,19.776770525882704,-12.327720581169427,Angola,NOx,131.8689102867337,220,2.4207749279359092e-5
0136,ANGOLA_NAMIBE_BIBALA,13.139576640553054,-14.685793467915335,Angola,NOx,23.837694694532264,220,1.3852394281688163e-4
0137,ANGOLA_NAMIBE_CAMUCUIO,13.0324059676621,-14.003701587165244,Angola,NOx,18.266333330751596,220,1.0587275499185367e-4
0138,ANGOLA_NAMIBE_NAMIBE,12.457905307074512,-14.720315334187738,Angola,NOx,86.53291737437556,220,9.709470459950964e-5
0139,ANGOLA_NAMIBE_TÔMBWA,12.359284305310362,-16.564898961646183,Angola,NOx,10.607668190722706,220,2.6724271185996074e-5
0140,ANGOLA_NAMIBE_VIREI,12.94168325673447,-15.813548331274848,Angola,NOx,10.964637924937376,220,6.269282317039604e-5
0141,ANGOLA_UÍGE_AMBUILA,14.468179065511844,-7.587449047134571,Angola,NOx,14.474075228051728,220,1.3732756217343933e-4
0142,ANGOLA_UÍGE_BEMBE,14.277664721920273,-7.052417289665407,Angola,NOx,13.55835926230605,220,6.703651419837087e-5
0143,ANGOLA_UÍGE_BUENGAS,15.825059286515511,-6.668373974646913,Angola,NOx,15.468504526691252,220,3.0166735516701237e-5
0144,ANGOLA_UÍGE_BUNGO,15.447113463583449,-7.392017748161813,Angola,NOx,9.537629994020039,220,4.455429074790018e-5
0145,ANGOLA_UÍGE_CANGOLA,15.953541847191238,-7.839972087285049,Angola,NOx,13.293941264403486,220,3.291704265251383e-5
0146,ANGOLA_UÍGE_DAMBA,15.216117046210005,-6.730711730495686,Angola,NOx,12.975026518657439,220,4.393055519913425e-5
0147,ANGOLA_UÍGE_MAQUELA DO ZOMBO,15.504832114047753,-6.115762646049738,Angola,NOx,28.509968424870653,220,1.1161670924408895e-5
0148,ANGOLA_UÍGE_SANTA CRUZ,16.58039852859364,-7.043057290518152,Angola,NOx,14.685591411048971,220,3.88341229413669e-5
0149,ANGOLA_UÍGE_MUCABA,15.044844983137867,-7.104479137048426,Angola,NOx,9.546749431677819,220,1.08649071884237e-4
0150,ANGOLA_UÍGE_NEGAGE,15.387803110685544,-7.82670187011252,Angola,NOx,31.42908931431437,220,6.260769058585858e-5
0151,ANGOLA_UÍGE_PURI,15.677588319493356,-7.6520448609471,Angola,NOx,6.789013236765702,220,3.8631571341873894e-5
0152,ANGOLA_UÍGE_QUIMBELE,16.358827373391733,-6.339946266586419,Angola,NOx,42.42408223041738,220,1.569276499324701e-5
0153,ANGOLA_UÍGE_QUITEXE,14.916309357718397,-8.05805649608166,Angola,NOx,12.863276976577216,220,1.2957736610519355e-4
0154,ANGOLA_UÍGE_SANZA POMBO,16.05132046706061,-7.225080931426597,Angola,NOx,16.524187361635004,220,3.39638253192831e-5
0155,ANGOLA_UÍGE_SONGO,14.789371774574954,-7.15444085578491,Angola,NOx,16.10774074321818,220,1.286812676613014e-4
0156,ANGOLA_UÍGE_UÍGE,15.086269927234868,-7.569389383460002,Angola,NOx,131.31887112997353,220,1.4085913342243295e-4
0157,ANGOLA_ZAIRE_CUIMBA,14.656648047034412,-6.211094387740501,Angola,NOx,24.345310457611134,220,2.8069897612281736e-5
0158,ANGOLA_ZAIRE_MBANZA CONGO,14.17814621079705,-6.310144184559853,Angola,NOx,57.16390223215038,220,4.2464973006417495e-5
0159,ANGOLA_ZAIRE_NZETO,13.396012085498478,-7.329332397443156,Angola,NOx,35.67892097423896,220,9.714091166279637e-5
0160,ANGOLA_ZAIRE_NÓQUI,13.505068524452918,-6.150797500748508,Angola,NOx,40.69400554795944,220,3.088575047116571e-5
0161,ANGOLA_ZAIRE_SOYO,12.72456320103429,-6.276748486180679,Angola,NOx,110.74365438361826,220,5.3877609028640805e-5
0162,ANGOLA_ZAIRE_TOMBOCO,13.360813071321832,-6.70704141475642,Angola,NOx,32.21219137191327,220,7.862629960619927e-5
0163,BOTSWANA_CENTRAL_BOBONONG_BOBONONG,28.439270006020617,-21.904588768680572,Botswana,NOx,20.079324321481458,220,1.5086625287441535e-4
0164,BOTSWANA_CENTRAL_BOBONONG_DAMOCHOJENA,27.46425717187249,-21.89586472598768,Botswana,NOx,0.02825357153916435,220,9.657808891816444e-5
0165,BOTSWANA_CENTRAL_BOBONONG_KOBOJANGO,28.763918196572497,-21.785636334108606,Botswana,NOx,1.2488085033629002,220,1.5002029078203805e-4
0166,BOTSWANA_CENTRAL_BOBONONG_LENTSWELEMORITI,29.09263730127421,-22.126071452194022,Botswana,NOx,16.898164367956767,220,2.1259633328996053e-4
0167,BOTSWANA_CENTRAL_BOBONONG_LEPOKOLE,28.342120180879903,-21.78828871071267,Botswana,NOx,0.17292883282379085,220,1.3665324197220663e-4
0168,BOTSWANA_CENTRAL_BOBONONG_MABOLWE,28.93856360422732,-21.822911107503458,Botswana,NOx,0.18940502995205494,220,1.5037416522911684e-4
0169,BOTSWANA_CENTRAL_BOBONONG_MATHATHANE,28.765707084954567,-22.164921148469332,Botswana,NOx,2.612615356539289,220,1.961673394181851e-4
0170,BOTSWANA_CENTRAL_BOBONONG_MMADINARE,27.61927099292336,-21.939530032971234,Botswana,NOx,186.66012489820196,220,1.0584920231448969e-4
0171,BOTSWANA_CENTRAL_BOBONONG_MOLALATAU,28.546028057555482,-22.244047061148887,Botswana,NOx,5.377661645841052,220,1.6514316195870293e-4
0172,BOTSWANA_CENTRAL_BOBONONG_MOLETEMANE,28.24551458680093,-22.49838952314233,Botswana,NOx,0.1370198885640991,220,1.1470669660096355e-4
0173,BOTSWANA_CENTRAL_BOBONONG_MOTLHABANENG,28.847671161031595,-22.0878861675696,Botswana,NOx,0.7057562760625268,220,1.8099816078676056e-4
0174,BOTSWANA_CENTRAL_BOBONONG_ROBELELA,28.01614217627893,-21.606755627584164,Botswana,NOx,0.288217376130631,220,1.2877701819857812e-4
0175,BOTSWANA_CENTRAL_BOBONONG_SEFOPHE,28.010768080362112,-22.202415922887717,Botswana,NOx,4.272259333049057,220,1.1330043860890981e-4
0176,BOTSWANA_CENTRAL_BOBONONG_SEMOLALE,28.901373465716713,-21.94234612580183,Botswana,NOx,0.32122054442164527,220,1.679664333484876e-4
0177,BOTSWANA_CENTRAL_BOBONONG_TOBANE,28.034740456942973,-21.715331266156507,Botswana,NOx,8.098136882453819,220,1.3097542216988778e-4
0178,BOTSWANA_CENTRAL_BOBONONG_TSETSEBJWE,28.261512057832615,-22.323234206617617,Botswana,NOx,3.9948979928582626,220,1.2966071179421057e-4
0179,BOTSWANA_CENTRAL_BOBONONG_TSHOKWE,28.12020929554016,-21.7461736340543,Botswana,NOx,0.06943059579321643,220,1.31127704823486e-4
0180,BOTSWANA_CENTRAL_BOBONONG_TULI,28.659593038222404,-22.426510831132365,Botswana,NOx,6.279668454459195,220,1.8535101710992485e-4
0181,BOTSWANA_CENTRAL_BOTETI_KEDIA,24.838048952453185,-21.403241698591675,Botswana,NOx,1.2564268042403976e-4,220,3.165719942743728e-5
0182,BOTSWANA_CENTRAL_BOTETI_KHWEE,25.42160849963441,-21.949084316434682,Botswana,NOx,2.0878748766430357,220,3.7650568118108296e-5
0183,BOTSWANA_CENTRAL_BOTETI_KUMAGA,24.694403521304178,-20.43709104783157,Botswana,NOx,0.965239303884289,220,4.2704233322199414e-5
0184,BOTSWANA_CENTRAL_BOTETI_LETLHAKANE,25.324076768019342,-21.74281229869488,Botswana,NOx,224.03390949189355,220,3.930464815860013e-5
0185,BOTSWANA_CENTRAL_BOTETI_MAKALAMABEDI,24.027537186531372,-20.329731365780997,Botswana,NOx,0,220,3.063454432061796e-5
0186,BOTSWANA_CENTRAL_BOTETI_MMADIKOLA,24.505648562137157,-21.04540148259183,Botswana,NOx,0,220,3.00221892650665e-5
0187,BOTSWANA_CENTRAL_BOTETI_MMATSHUMO,25.608635534616877,-21.055357574481494,Botswana,NOx,192.02327358638016,220,6.808711144046242e-5
0188,BOTSWANA_CENTRAL_BOTETI_MOKOBOXANE,25.01278736428241,-21.374661912697718,Botswana,NOx,0.815784727099077,220,4.35578714339524e-5
0189,BOTSWANA_CENTRAL_BOTETI_MOPIPI,25.06130611972133,-20.957019464880865,Botswana,NOx,87.04038601708994,220,4.6505292019771716e-5
0190,BOTSWANA_CENTRAL_BOTETI_MOREOMAOTO,24.225653269651804,-20.326805973885744,Botswana,NOx,0,220,3.415413756790997e-5
0191,BOTSWANA_CENTRAL_BOTETI_MOSU,26.096038009772478,-21.108931183794436,Botswana,NOx,1.5084548244745664,220,9.012133641173037e-5
0192,BOTSWANA_CENTRAL_BOTETI_MOTOPI,24.143658950831586,-20.239487705166916,Botswana,NOx,0,220,3.268673035750069e-5
0193,BOTSWANA_CENTRAL_BOTETI_TOROMOJA,24.68875163244386,-21.028858930681245,Botswana,NOx,0.05321361122685826,220,3.67229188846796e-5
0194,BOTSWANA_CENTRAL_BOTETI_TSIENYANE/RAKOPS,24.297459830504376,-20.770824097320627,Botswana,NOx,10.30510937741587,220,2.7175895755737756e-5
0195,BOTSWANA_CENTRAL_BOTETI_XERE,23.995091776720663,-21.05103701376487,Botswana,NOx,0.4090850963363711,220,2.0599652929220724e-5
0196,BOTSWANA_CENTRAL_BOTETI_XHUMO,24.543580068860226,-21.43138653458584,Botswana,NOx,3.985258344250748,220,2.5339669672108656e-5
0197,BOTSWANA_CENTRAL_MAHALAPYE_BONWAPITSE,26.696499319837177,-23.016977775399745,Botswana,NOx,0.6222174471807166,220,5.2634985834520975e-5
0198,BOTSWANA_CENTRAL_MAHALAPYE_BOROTSI,27.574845464339035,-23.03787815480758,Botswana,NOx,0.32002217294196866,220,7.249751965043849e-5
0199,BOTSWANA_CENTRAL_MAHALAPYE_CHADIBE,27.653472614061975,-23.04213517690895,Botswana,NOx,0.13542646796827615,220,7.845537926276513e-5
0200,BOTSWANA_CENTRAL_MAHALAPYE_DIBETE STATION,26.60466673565762,-23.712578892238895,Botswana,NOx,6.902966962603763,220,7.105825295639079e-5
0201,BOTSWANA_CENTRAL_MAHALAPYE_DOVEDALE,27.0584095397386,-23.43747251689984,Botswana,NOx,16.77151626226494,220,7.512842507950701e-5
0202,BOTSWANA_CENTRAL_MAHALAPYE_IKONGWE,26.42368516567563,-23.133332920110572,Botswana,NOx,0,220,4.9344683546337365e-5
0203,BOTSWANA_CENTRAL_MAHALAPYE_KALAMARE,26.676800027450167,-22.85145869530537,Botswana,NOx,1.1583642046554665,220,5.933341893848976e-5
0204,BOTSWANA_CENTRAL_MAHALAPYE_KODIBELENG,25.8565320473089,-23.06990009465882,Botswana,NOx,4.348739359027489,220,4.97365511333836e-5
0205,BOTSWANA_CENTRAL_MAHALAPYE_KUDUMATSE,27.163558620828415,-23.343825570073967,Botswana,NOx,11.182155035881953,220,7.130431365176548e-5
0206,BOTSWANA_CENTRAL_MAHALAPYE_MAAPE,27.298633726872115,-22.801071310840364,Botswana,NOx,2.9690930802468674,220,7.487193072708287e-5
0207,BOTSWANA_CENTRAL_MAHALAPYE_MACHANENG,27.430989788355014,-23.17527950233516,Botswana,NOx,3.4236007193561164,220,7.973844545472453e-5
0208,BOTSWANA_CENTRAL_MAHALAPYE_MAHALAPYE,26.92364672437042,-23.059367128880574,Botswana,NOx,35.485381488544064,220,6.189015275204213e-5
0209,BOTSWANA_CENTRAL_MAHALAPYE_MAKWATE,27.289572829578482,-23.25066866242674,Botswana,NOx,2.552393978647079,220,7.126880614927167e-5
0210,BOTSWANA_CENTRAL_MAHALAPYE_MATLHAKO,27.57730747946278,-23.092868816729595,Botswana,NOx,0.4600071568317284,220,7.384167269464115e-5
0211,BOTSWANA_CENTRAL_MAHALAPYE_MHALAPITSA,27.241670153565362,-22.750141129591885,Botswana,NOx,1.3453875949976126,220,7.210502938104213e-5
0212,BOTSWANA_CENTRAL_MAHALAPYE_MMAPHASHALALA,26.85959307803958,-23.525191663403213,Botswana,NOx,1.1870162161889095,220,7.17985678189148e-5
0213,BOTSWANA_CENTRAL_MAHALAPYE_MMUTLANA,26.603632318980285,-22.97161859276938,Botswana,NOx,0.9971015012937563,220,5.0264613562722715e-5
0214,BOTSWANA_CENTRAL_MAHALAPYE_MOKGENENE,26.039953432163163,-23.53987260084274,Botswana,NOx,0.026456606873830845,220,6.729681524464404e-5
0215,BOTSWANA_CENTRAL_MAHALAPYE_MOKOBENG,27.693890294840614,-22.97362584906358,Botswana,NOx,0.0225074846120281,220,7.787472907527793e-5
0216,BOTSWANA_CENTRAL_MAHALAPYE_MOKOSWANE,26.94190877928232,-23.316220505173856,Botswana,NOx,1.0041695831761093,220,6.330737965409838e-5
0217,BOTSWANA_CENTRAL_MAHALAPYE_MOOKANE,26.698166386924417,-23.694975957356803,Botswana,NOx,0.5007631956174143,220,7.158097108450612e-5
0218,BOTSWANA_CENTRAL_MAHALAPYE_MORALANE,26.215414450162044,-22.936420739953075,Botswana,NOx,0.11298997979084528,220,4.6607351436911415e-5
0219,BOTSWANA_CENTRAL_MAHALAPYE_MOSHOPHA,27.314662802995976,-22.947407012331485,Botswana,NOx,3.5594002572704992,220,6.863443796900626e-5
0220,BOTSWANA_CENTRAL_MAHALAPYE_MOSOLOTSHANE,26.428423160167153,-22.91931594278049,Botswana,NOx,5.660536175882275,220,4.503108809195133e-5
0221,BOTSWANA_CENTRAL_MAHALAPYE_NGWAPA,27.77944253096159,-22.919703336193177,Botswana,NOx,0.20482226917245774,220,7.899195427518713e-5
0222,BOTSWANA_CENTRAL_MAHALAPYE_OTSE,25.946626364668234,-23.32358945282839,Botswana,NOx,1.870927813795358,220,5.207922559669065e-5
0223,BOTSWANA_CENTRAL_MAHALAPYE_PALLA ROAD/DINOKWE,26.77659555732254,-23.360515846147123,Botswana,NOx,1.2776095288588194,220,5.57933404081723e-5
0224,BOTSWANA_CENTRAL_MAHALAPYE_PILIKWE,27.12830992169561,-22.797803953113785,Botswana,NOx,11.373967790741016,220,7.349408451529094e-5
0225,BOTSWANA_CENTRAL_MAHALAPYE_POLOKA,26.288048197015442,-23.601986580637178,Botswana,NOx,5.764072832838406,220,7.185974960854935e-5
0226,BOTSWANA_CENTRAL_MAHALAPYE_RAMOKGONAMI,27.427775976491716,-22.856906588140728,Botswana,NOx,10.531272735473163,220,7.758815580949374e-5
0227,BOTSWANA_CENTRAL_MAHALAPYE_SEFHARE,27.497480197007754,-23.01846757513452,Botswana,NOx,4.257101032250208,220,7.09724934750966e-5
0228,BOTSWANA_CENTRAL_MAHALAPYE_SELEKA,27.541179586978274,-22.862211127370156,Botswana,NOx,12.213351696493636,220,7.818263380410251e-5
0229,BOTSWANA_CENTRAL_MAHALAPYE_SHAKWE,27.285868545141952,-23.098563338666022,Botswana,NOx,4.459641151196878,220,7.140107958214514e-5
0230,BOTSWANA_CENTRAL_MAHALAPYE_SHOSHONG,26.387666419486898,-23.28181618855284,Botswana,NOx,57.492156668508635,220,5.170587578962049e-5
0231,BOTSWANA_CENTRAL_MAHALAPYE_TAUPYE,27.086389543341017,-23.181122303718336,Botswana,NOx,1.194754628232659,220,6.156803947754419e-5
0232,BOTSWANA_CENTRAL_MAHALAPYE_TEWANE,26.8808106284804,-22.855065985054686,Botswana,NOx,0.9488576312058641,220,6.56279009603189e-5
0233,BOTSWANA_CENTRAL_MAHALAPYE_TULI,27.376483753636418,-23.358300442845334,Botswana,NOx,17447.949105699143,220,8.369699809618325e-5
0234,BOTSWANA_CENTRAL_MAHALAPYE_TUMASERA,27.625135322324592,-22.873322197159712,Botswana,NOx,30.908695272805584,220,7.542316024400364e-5
0235,BOTSWANA_CENTRAL_SEROWE PALAPYE_DILORO,27.615763781482226,-22.42069872982587,Botswana,NOx,0.9822410642346429,220,8.447610638850911e-5
0236,BOTSWANA_CENTRAL_SEROWE PALAPYE_DIMAJWE,26.75499325012916,-21.701835892951095,Botswana,NOx,0.6668888493906108,220,9.38135236157045e-5
0237,BOTSWANA_CENTRAL_SEROWE PALAPYE_GAMABUO,26.34887363421504,-22.621942368691556,Botswana,NOx,0,220,6.327306368780761e-5
0238,BOTSWANA_CENTRAL_SEROWE PALAPYE_GOJWANE,27.274583799149916,-21.783314177365938,Botswana,NOx,1.7668527197986725,220,1.1055780063951026e-4
0239,BOTSWANA_CENTRAL_SEROWE PALAPYE_GOO-SEKGWENG,27.378852556607093,-22.684458968010347,Botswana,NOx,1.2479861123181928,220,7.363359430057059e-5
0240,BOTSWANA_CENTRAL_SEROWE PALAPYE_GOOTAU,27.424470969841263,-22.695172167140004,Botswana,NOx,0.17190164716118822,220,7.432202077506389e-5
0241,BOTSWANA_CENTRAL_SEROWE PALAPYE_KGAGODI,27.50339317555218,-22.29477672423486,Botswana,NOx,0.7128547710459042,220,8.777844030460891e-5
0242,BOTSWANA_CENTRAL_SEROWE PALAPYE_LECHENG,27.185275817151037,-22.673190570584637,Botswana,NOx,3.7799776073290583,220,7.056141914540959e-5
0243,BOTSWANA_CENTRAL_SEROWE PALAPYE_LERALA,27.844813325817267,-22.74868745754991,Botswana,NOx,2.009723701103857,220,7.987245941243337e-5
0244,BOTSWANA_CENTRAL_SEROWE PALAPYE_LESENEPOLE/MATOLWANE,27.57647005773152,-22.540521067100062,Botswana,NOx,0.26702331445396216,220,8.264884303965658e-5
0245,BOTSWANA_CENTRAL_SEROWE PALAPYE_MABELEAPUDI,26.825166966464483,-22.128040644255414,Botswana,NOx,1.6369443987093355,220,6.491064532565538e-5
0246,BOTSWANA_CENTRAL_SEROWE PALAPYE_MAJWANAADIPITSE,27.005264767504467,-21.94020945810498,Botswana,NOx,5.640865602480706,220,8.503946249094341e-5
0247,BOTSWANA_CENTRAL_SEROWE PALAPYE_MAJWANENG,27.649493814512812,-22.75586221108769,Botswana,NOx,0.0028676631315080682,220,7.496131210138479e-5
0248,BOTSWANA_CENTRAL_SEROWE PALAPYE_MALAKA,27.34590226161426,-22.592437093749382,Botswana,NOx,12.471798762970154,220,8.06950427110209e-5
0249,BOTSWANA_CENTRAL_SEROWE PALAPYE_MALATSWAI,26.22277867959262,-21.857375536824936,Botswana,NOx,20.137553596564615,220,7.368369516891349e-5
0250,BOTSWANA_CENTRAL_SEROWE PALAPYE_MANALEDI,27.5051048457668,-22.739538071182494,Botswana,NOx,0.39017782201119816,220,7.540181011300717e-5
0251,BOTSWANA_CENTRAL_SEROWE PALAPYE_MATLHAKOLA,27.317001132592853,-22.71429972506726,Botswana,NOx,0.10010592696618865,220,7.468345952910127e-5
0252,BOTSWANA_CENTRAL_SEROWE PALAPYE_MAUNATLALA,27.815623496542926,-22.549960915979852,Botswana,NOx,1.4946428558338036,220,8.753445909293056e-5
0253,BOTSWANA_CENTRAL_SEROWE PALAPYE_MMASHORO,26.545528327992464,-21.913528088466634,Botswana,NOx,0.9903798845905551,220,7.783384939341609e-5
0254,BOTSWANA_CENTRAL_SEROWE PALAPYE_MOENG,27.61182691600207,-22.684247954870994,Botswana,NOx,0.010503406813370943,220,7.558530273055197e-5
0255,BOTSWANA_CENTRAL_SEROWE PALAPYE_MOGAPI,27.90355332352727,-22.400536057043198,Botswana,NOx,2.5245743637845224,220,9.322368133823922e-5
0256,BOTSWANA_CENTRAL_SEROWE PALAPYE_MOGAPINYANA,27.656777003289175,-22.30921854076872,Botswana,NOx,0.7349469957640211,220,9.120317413002788e-5
0257,BOTSWANA_CENTRAL_SEROWE PALAPYE_MOGOME,26.8788884869847,-22.780246290758782,Botswana,NOx,0.22032622199040533,220,6.430751477015662e-5
0258,BOTSWANA_CENTRAL_SEROWE PALAPYE_MOGOROSI,26.50681705808967,-22.435754433322103,Botswana,NOx,0.9301910455524829,220,6.115690390018358e-5
0259,BOTSWANA_CENTRAL_SEROWE PALAPYE_MOIYABANA,25.735420719204132,-22.568416950895624,Botswana,NOx,14.583981378711949,220,4.308627077764804e-5
0260,BOTSWANA_CENTRAL_SEROWE PALAPYE_MOKGWARE,26.78655204288414,-22.77384105120242,Botswana,NOx,0.12574374183435663,220,5.9452740551968475e-5
0261,BOTSWANA_CENTRAL_SEROWE PALAPYE_MOKHUNGWANA,27.306318999794403,-22.66250272126858,Botswana,NOx,0.915097144692396,220,7.329445276638147e-5
0262,BOTSWANA_CENTRAL_SEROWE PALAPYE_MOKOKWANA,27.68970066181251,-22.615814171525756,Botswana,NOx,5.496223552234887,220,8.472893033228956e-5
0263,BOTSWANA_CENTRAL_SEROWE PALAPYE_MOREMI,27.48231653767836,-22.53631545317506,Botswana,NOx,1.0720974043846498,220,8.059523443848526e-5
0264,BOTSWANA_CENTRAL_SEROWE PALAPYE_MOREOMABELE,27.19509262463396,-21.997866632985815,Botswana,NOx,3.5498160032464914,220,9.476007860809155e-5
0265,BOTSWANA_CENTRAL_SEROWE PALAPYE_MOSWEU,27.643842814290796,-22.648861924159835,Botswana,NOx,0.015432309467288397,220,7.377768468819212e-5
0266,BOTSWANA_CENTRAL_SEROWE PALAPYE_MOTSHEGALETAU,26.39728909838941,-22.561009612981003,Botswana,NOx,0.06373707514609601,220,5.887654232927808e-5
0267,BOTSWANA_CENTRAL_SEROWE PALAPYE_PAJE,26.816328935481604,-22.26070768401234,Botswana,NOx,0.025336999255226977,220,6.644315956250146e-5
0268,BOTSWANA_CENTRAL_SEROWE PALAPYE_PALAPYE,27.16786344665423,-22.55497413257865,Botswana,NOx,19492.40332249695,220,7.352753700762271e-5
0269,BOTSWANA_CENTRAL_SEROWE PALAPYE_RADISELE,26.988408471288807,-22.81090444695215,Botswana,NOx,0.5205423570968939,220,6.799173215732424e-5
0270,BOTSWANA_CENTRAL_SEROWE PALAPYE_RATHOLO,27.53938699821314,-22.68681419937455,Botswana,NOx,1.2685964817555306,220,7.432533566609223e-5
0271,BOTSWANA_CENTRAL_SEROWE PALAPYE_SEHUNOU,26.385003835935297,-22.59514869100243,Botswana,NOx,0.008276628042025658,220,5.9201838300104725e-5
0272,BOTSWANA_CENTRAL_SEROWE PALAPYE_SEOLWANE,27.762620325390287,-22.666448768729584,Botswana,NOx,41.59567452365225,220,7.556906619932136e-5
0273,BOTSWANA_CENTRAL_SEROWE PALAPYE_SEROWE,26.50285991859318,-21.991307902066985,Botswana,NOx,171.79652494083587,220,7.87806035580374e-5
0274,BOTSWANA_CENTRAL_SEROWE PALAPYE_SERULE,27.237798390462725,-21.890009585678992,Botswana,NOx,2.4081630732736232,220,9.336507491064516e-5
0275,BOTSWANA_CENTRAL_SEROWE PALAPYE_TAMASANE,27.396841887713986,-22.3814578521284,Botswana,NOx,1.0034767872615211,220,7.81760490695671e-5
0276,BOTSWANA_CENTRAL_SEROWE PALAPYE_THABALA,26.421061666211095,-22.511119340536165,Botswana,NOx,0.5473371858516725,220,5.918538233906645e-5
0277,BOTSWANA_CENTRAL_SEROWE PALAPYE_TOPISI,27.22337506343467,-22.227424247307294,Botswana,NOx,21.847972896462583,220,7.864207851060456e-5
0278,BOTSWANA_CENTRAL_SEROWE PALAPYE_TSHIMOYAPULA,27.019142014452218,-22.119432295799754,Botswana,NOx,1.4451747233907817,220,8.790983400053243e-5
0279,BOTSWANA_CENTRAL_SEROWE PALAPYE_TULI,28.061256491221307,-22.727203098241798,Botswana,NOx,1.9388294431921316,220,9.578388727282672e-5
0280,BOTSWANA_CENTRAL_TUTUME_BOROLONG,27.32637665560921,-21.091395459266185,Botswana,NOx,0.44419719522439927,220,1.1645774317425861e-4
0281,BOTSWANA_CENTRAL_TUTUME_BOROTSI,27.251654267811457,-21.026993493948527,Botswana,NOx,0.2594352877819461,220,1.1004014385207483e-4
0282,BOTSWANA_CENTRAL_TUTUME_CHADIBE,27.342256409557447,-21.066229746391034,Botswana,NOx,0.6440151818104558,220,1.1501593286289413e-4
0283,BOTSWANA_CENTRAL_TUTUME_CHANGATE,27.246529169011538,-20.323681695475976,Botswana,NOx,0.016265715008517367,220,9.751194720086787e-5
0284,BOTSWANA_CENTRAL_TUTUME_DAGWI,27.24543111493109,-20.205531255072483,Botswana,NOx,0.12127036141430254,220,9.783884989800207e-5
0285,BOTSWANA_CENTRAL_TUTUME_DUKWI,26.284620970093016,-20.67546283807841,Botswana,NOx,8.890518041511788,220,7.730343878264989e-5
0286,BOTSWANA_CENTRAL_TUTUME_GOSHWE,27.21557874997618,-20.535609785786193,Botswana,NOx,0,220,9.927863398351278e-5
0287,BOTSWANA_CENTRAL_TUTUME_GWETA,25.591976234675478,-19.905319536886395,Botswana,NOx,84.63732835191345,220,4.76081430940134e-5
0288,BOTSWANA_CENTRAL_TUTUME_JAMATAKA,27.15547496011975,-21.068951470145485,Botswana,NOx,0.14774357036211988,220,1.0844943111432137e-4
0289,BOTSWANA_CENTRAL_TUTUME_KUTAMOGREE,26.880512190693914,-20.75110495387822,Botswana,NOx,2.3823358736928713,220,9.817614508222938e-5
0290,BOTSWANA_CENTRAL_TUTUME_LEPASHE,26.66685337113433,-20.812417757916798,Botswana,NOx,18.014228201686066,220,9.293181437142195e-5
0291,BOTSWANA_CENTRAL_TUTUME_MABESEKWA,26.832739428334428,-21.176734877732674,Botswana,NOx,9.17393351738776,220,9.929150878540405e-5
0292,BOTSWANA_CENTRAL_TUTUME_MAFONGO/HOBONA,27.235943246400137,-20.94573521021701,Botswana,NOx,0.030763770710384622,220,1.0871726276251437e-4
0293,BOTSWANA_CENTRAL_TUTUME_MAITENGWE,27.011808968202775,-20.116667928999114,Botswana,NOx,2.777627068098665,220,8.1670878205653e-5
0294,BOTSWANA_CENTRAL_TUTUME_MAKOBO,27.107677079222814,-21.02576555193948,Botswana,NOx,0.4105428978557488,220,1.0737516377568035e-4
0295,BOTSWANA_CENTRAL_TUTUME_MAKUTA,26.936411463806042,-20.611020613663403,Botswana,NOx,2.6945167881100156,220,9.06918559218095e-5
0296,BOTSWANA_CENTRAL_TUTUME_MANDUNYANE,27.164838306199922,-21.29997484522961,Botswana,NOx,3.68940953522492,220,1.044877106133324e-4
0297,BOTSWANA_CENTRAL_TUTUME_MAPOSA,26.227831043889193,-20.105672557073913,Botswana,NOx,2.2949666267144817,220,5.961949330823835e-5
0298,BOTSWANA_CENTRAL_TUTUME_MARAPONG,27.060904032209528,-20.875646900092942,Botswana,NOx,0.005596637592600365,220,1.0509948722736695e-4
0299,BOTSWANA_CENTRAL_TUTUME_MAROBELA,27.22684904528886,-20.86226718353111,Botswana,NOx,0.020457587361186868,220,1.0613229111045008e-4
0300,BOTSWANA_CENTRAL_TUTUME_MATHANGWANE,27.301597561179328,-20.96526881266621,Botswana,NOx,1.2777320809724546,220,1.1396379510286714e-4
0301,BOTSWANA_CENTRAL_TUTUME_MATOBO,27.07410815569497,-20.55396589314004,Botswana,NOx,1.0695627098121383,220,9.644417050225229e-5
0302,BOTSWANA_CENTRAL_TUTUME_MATSITAMA,26.795600326944548,-20.91574597947195,Botswana,NOx,29.45392637015447,220,9.650381818349096e-5
0303,BOTSWANA_CENTRAL_TUTUME_MMANXOTAE,26.39231628230285,-20.11189737769122,Botswana,NOx,1.4337646947827103,220,5.90260720247926e-5
0304,BOTSWANA_CENTRAL_TUTUME_MMEYA,26.45632418802842,-20.83403038639063,Botswana,NOx,16.522434234563935,220,8.361241827281596e-5
0305,BOTSWANA_CENTRAL_TUTUME_MOKUBILO,26.522301620359478,-21.211068795354347,Botswana,NOx,10.197509903254245,220,9.598418585388124e-5
0306,BOTSWANA_CENTRAL_TUTUME_MOSETSE,26.717225408615494,-20.61414488681695,Botswana,NOx,4.794588047698584,220,8.863351257248908e-5
0307,BOTSWANA_CENTRAL_TUTUME_NATA,26.421106250465357,-20.364015464327988,Botswana,NOx,26.736970371676794,220,6.980229812780792e-5
0308,BOTSWANA_CENTRAL_TUTUME_NATALE,27.13819661363051,-21.12190933916731,Botswana,NOx,2.0993719980606413,220,1.0679399139545964e-4
0309,BOTSWANA_CENTRAL_TUTUME_NKANGE,27.150899768186317,-20.292280125711056,Botswana,NOx,0.15434760236758846,220,9.476522089135742e-5
0310,BOTSWANA_CENTRAL_TUTUME_NSHAKASHOKWE,27.19448164625436,-20.800715019251136,Botswana,NOx,0.06241844733000026,220,1.0493483057505415e-4
0311,BOTSWANA_CENTRAL_TUTUME_NSWAZWI,27.11079707796551,-20.717051379328918,Botswana,NOx,2.7909610419117445,220,1.0503768533531854e-4
0312,BOTSWANA_CENTRAL_TUTUME_SEBINA,27.212125328697905,-20.8229088309246,Botswana,NOx,0.022246073753918044,220,1.0538007218685586e-4
0313,BOTSWANA_CENTRAL_TUTUME_SEMITWE,27.057568754807466,-20.9304846145358,Botswana,NOx,2.7426433034511115,220,1.059307998416692e-4
0314,BOTSWANA_CENTRAL_TUTUME_SENETE,27.061521930586494,-20.338940466599496,Botswana,NOx,1.0702626636712504,220,9.005266836736858e-5
0315,BOTSWANA_CENTRAL_TUTUME_SEPAKO,26.42176865500974,-19.91292710159379,Botswana,NOx,17.083761525108333,220,5.904914580567855e-5
0316,BOTSWANA_CENTRAL_TUTUME_SHASHE-MOOKE,27.294622390104607,-21.200689259821715,Botswana,NOx,1.0424759926750922,220,1.086224791981838e-4
0317,BOTSWANA_CENTRAL_TUTUME_SHASHE/SEMOTSWANE,27.353975033981698,-21.4004850680266,Botswana,NOx,0.9336742913588313,220,1.0642362979984554e-4
0318,BOTSWANA_CENTRAL_TUTUME_TONOTA,27.390007578405545,-21.56581687363627,Botswana,NOx,11.577157440531089,220,1.1069296530696882e-4
0319,BOTSWANA_CENTRAL_TUTUME_TSHOKATSHAA,25.411457316681155,-20.073274987651395,Botswana,NOx,0.5609895307851117,220,4.5090215011978074e-5
0320,BOTSWANA_CENTRAL_TUTUME_TUTUME,26.93343318392142,-20.358110222677443,Botswana,NOx,11.742131077482176,220,8.607018276252099e-5
0321,BOTSWANA_CENTRAL_TUTUME_ZOROGA,25.931132083826565,-20.225947339100205,Botswana,NOx,4.181147185397469,220,6.821234103338014e-5
0322,BOTSWANA_CHOBE_CHOBE_KACHIKAU,24.593403269312077,-18.19955337118612,Botswana,NOx,0.39103647439758527,220,1.955021085864317e-5
0323,BOTSWANA_CHOBE_CHOBE_KASANE,25.053605518831368,-17.95621200218165,Botswana,NOx,15.41045517329004,220,2.3997877536041656e-5
0324,BOTSWANA_CHOBE_CHOBE_KATABA,24.208556915615702,-18.516556039211913,Botswana,NOx,2.0930600389434955,220,1.9400074045217153e-5
0325,BOTSWANA_CHOBE_CHOBE_KAVIMBA,24.673787397731,-18.131513519062572,Botswana,NOx,0.26828032950190517,220,1.9756184472585758e-5
0326,BOTSWANA_CHOBE_CHOBE_KAZUNGULA,25.239551399880288,-17.81715309318576,Botswana,NOx,1.461446954412805,220,2.7867119169577848e-5
0327,BOTSWANA_CHOBE_CHOBE_LESOMA,25.22616409411994,-17.924922498851625,Botswana,NOx,1.212056757320803,220,2.6927707861723604e-5
0328,BOTSWANA_CHOBE_CHOBE_MUCHINJE/MABELE,24.80594102179805,-18.000000788213598,Botswana,NOx,0.2976474929977096,220,2.137766605936342e-5
0329,BOTSWANA_CHOBE_CHOBE_NUMBER SEVEN,25.091530617419757,-18.628521496100262,Botswana,NOx,41.45833509254263,220,2.482636941825156e-5
0330,BOTSWANA_CHOBE_CHOBE_PANDAMATENGA,25.62991931175742,-18.55507084642917,Botswana,NOx,0.19379277815047402,220,3.1508073718544694e-5
0331,BOTSWANA_CHOBE_CHOBE_PARAKARUNGU,24.3003425097673,-18.078920152986736,Botswana,NOx,1.0023791210092396,220,1.8999157974652903e-5
0332,BOTSWANA_CHOBE_CHOBE_SATAU,24.4229631549193,-18.021010667013208,Botswana,NOx,0.2118975617711735,220,1.8733470136700348e-5
0333,BOTSWANA_GABORONE_GABORONE_GABORONE,25.88095190745218,-24.686452843134287,Botswana,NOx,79.3396819428579,220,7.669701315893285e-5
0334,BOTSWANA_GHANZI_CENTRAL KGALAGADI GAME RESERVE_CENTRAL KGALAGADI GAME RESERVE,23.84354631529824,-22.32227292696922,Botswana,NOx,217.42943149598733,220,1.9636221966434775e-5
0335,BOTSWANA_GHANZI_GHANZI_B. VISSER,22.55838233704724,-21.32992655115972,Botswana,NOx,0,220,1.2115028892312196e-5
0336,BOTSWANA_GHANZI_GHANZI_BERE,21.79557213181817,-22.740271290335002,Botswana,NOx,0,220,1.1422852606246536e-5
0337,BOTSWANA_GHANZI_GHANZI_CHARLES HILL,20.07849051397565,-22.30448292484571,Botswana,NOx,1.2085946823907263,220,9.319357034964781e-6
0338,BOTSWANA_GHANZI_GHANZI_CHARLES SHELDON,22.10987199508711,-21.572165997131027,Botswana,NOx,0.754875355168637,220,1.0834680468807534e-5
0339,BOTSWANA_GHANZI_GHANZI_CHOBOKWANE,21.24948179474576,-22.480947513304624,Botswana,NOx,0.32091885979411316,220,9.724133304134241e-6
0340,BOTSWANA_GHANZI_GHANZI_DECT ETIN,21.87694726048196,-21.572322965589386,Botswana,NOx,3.2429122943120605,220,1.042540197482289e-5
0341,BOTSWANA_GHANZI_GHANZI_DEKAR,22.065436232878568,-21.366520787607246,Botswana,NOx,0.24031802197168184,220,1.1329965847961532e-5
0342,BOTSWANA_GHANZI_GHANZI_EAST HANAHAI,22.296004965831617,-22.138606212752848,Botswana,NOx,4.356094731953302,220,1.1538434697255795e-5
0343,BOTSWANA_GHANZI_GHANZI_GHANZI,21.636172818729325,-21.69600936266415,Botswana,NOx,5.852545363322015,220,9.462523077319318e-6
0344,BOTSWANA_GHANZI_GHANZI_GROOTE LAAGTE,21.349883074115542,-21.38859908504291,Botswana,NOx,9.827900480307193,220,9.20097650070062e-6
0345,BOTSWANA_GHANZI_GHANZI_HANS METZLER,20.164337868142784,-22.12061746486461,Botswana,NOx,1.8192510673595503,220,9.660036185188403e-6
0346,BOTSWANA_GHANZI_GHANZI_J. RANSALL,20.422333298998613,-22.140780374743333,Botswana,NOx,0,220,9.605184961847257e-6
0347,BOTSWANA_GHANZI_GHANZI_JANKI JANKI,21.346606317490824,-23.123137224643713,Botswana,NOx,1.5506033463424955,220,1.068611519028373e-5
0348,BOTSWANA_GHANZI_GHANZI_JERUNG,22.462289483631174,-21.771073127188487,Botswana,NOx,1.92694001519357,220,1.2413237945096967e-5
0349,BOTSWANA_GHANZI_GHANZI_JOHN FARM,22.325500764273656,-21.113654988029502,Botswana,NOx,0.22558643556643504,220,1.3443972376681046e-5
0350,BOTSWANA_GHANZI_GHANZI_KACGAE,22.25670639051408,-22.78108355380457,Botswana,NOx,3.41327455781509,220,1.2846225452500803e-5
0351,BOTSWANA_GHANZI_GHANZI_KARAKOBIS,20.69787418591688,-22.076318449477853,Botswana,NOx,0.20105426532579943,220,9.50351374973124e-6
0352,BOTSWANA_GHANZI_GHANZI_KULE,20.25485884411168,-22.82990220520822,Botswana,NOx,0.16520868022374124,220,1.0368816283801152e-5
0353,BOTSWANA_GHANZI_GHANZI_MAGONO MAGONO,20.74295662591417,-23.122989899939387,Botswana,NOx,0,220,1.0809461011174193e-5
0354,BOTSWANA_GHANZI_GHANZI_MAKUNDA,20.356137474087205,-22.403140017753746,Botswana,NOx,1.4204639757470254,220,9.924725127952172e-6
0355,BOTSWANA_GHANZI_GHANZI_MASIRE'S FARM,21.364735361374258,-21.90738889293877,Botswana,NOx,1.140878972741647,220,9.19259571863229e-6
0356,BOTSWANA_GHANZI_GHANZI_NCOJANE,20.259249043024266,-23.18993344999315,Botswana,NOx,7.554851487795703e-4,220,1.138473741324475e-5
0357,BOTSWANA_GHANZI_GHANZI_NEW XADE,22.47638609723249,-22.059709596306462,Botswana,NOx,0.49842717334914605,220,1.2417503013617548e-5
0358,BOTSWANA_GHANZI_GHANZI_NEW XANAGAS,20.800274167066778,-22.572525810989912,Botswana,NOx,1.8624718518376764,220,1.0308968021677245e-5
0359,BOTSWANA_GHANZI_GHANZI_QABO,21.72658991626723,-21.05161346564646,Botswana,NOx,0,220,1.1220764272401595e-5
0360,BOTSWANA_GHANZI_GHANZI_TSOOTSHA,20.91109497610415,-22.075747207834585,Botswana,NOx,0.10647908815837676,220,8.748042217732177e-6
0361,BOTSWANA_GHANZI_GHANZI_WEST HANAHAI,21.65082272869238,-22.135855131778566,Botswana,NOx,0,220,9.748621008442981e-6
0362,BOTSWANA_JWANENG_JWANENG_JWANENG,24.757853176422884,-24.58932918017088,Botswana,NOx,0.3222056551802396,220,4.004011568103927e-5
0363,BOTSWANA_KGALAGADI_KGALAGADI NORTH_HUKUNTSI,21.663906534181816,-23.998763591814352,Botswana,NOx,2.423158159641416,220,1.3553231408058863e-5
0364,BOTSWANA_KGALAGADI_KGALAGADI NORTH_HUNHUKWE,21.77076341928267,-23.455768999361656,Botswana,NOx,0.7946594947494526,220,1.182275618916151e-5
0365,BOTSWANA_KGALAGADI_KGALAGADI NORTH_INALEGOLO,22.658513508974664,-24.45585560542118,Botswana,NOx,10.208386644601422,220,1.8855889945434967e-5
0366,BOTSWANA_KGALAGADI_KGALAGADI NORTH_KANG,22.631383747199003,-23.529403386876705,Botswana,NOx,7.177302059231177,220,1.5105665708725624e-5
0367,BOTSWANA_KGALAGADI_KGALAGADI NORTH_LEHUTUTU,22.00790879280739,-23.84360826239536,Botswana,NOx,0.03004865164017616,220,1.3819866836684014e-5
0368,BOTSWANA_KGALAGADI_KGALAGADI NORTH_LOKGWABE,21.7851453687414,-24.07867771129318,Botswana,NOx,1.6741733171428355,220,1.4027435274899247e-5
0369,BOTSWANA_KGALAGADI_KGALAGADI NORTH_MAKE,21.994205625425362,-23.680770428270183,Botswana,NOx,2.052681118060195e-10,220,1.3535251713214791e-5
0370,BOTSWANA_KGALAGADI_KGALAGADI NORTH_MONONG,21.544688834846603,-23.73920927317219,Botswana,NOx,0.10684000564641007,220,1.2706545046814455e-5
0371,BOTSWANA_KGALAGADI_KGALAGADI NORTH_NCAANG,21.1223824590204,-23.44041697965504,Botswana,NOx,0,220,1.303240760130997e-5
0372,BOTSWANA_KGALAGADI_KGALAGADI NORTH_NGWATLE,21.117355141120534,-23.647886311201248,Botswana,NOx,0.10145439151012663,220,1.2895983768190789e-5
0373,BOTSWANA_KGALAGADI_KGALAGADI NORTH_PHUDUHUDU,22.580063911251433,-23.93036127904691,Botswana,NOx,0.7210145787941515,220,1.695461649942054e-5
0374,BOTSWANA_KGALAGADI_KGALAGADI NORTH_TSHANE,22.009218648598967,-23.97480857848694,Botswana,NOx,0.3580537492218315,220,1.4772189242728828e-5
0375,BOTSWANA_KGALAGADI_KGALAGADI NORTH_UKWI,20.54965855676176,-23.64224465777984,Botswana,NOx,15.2463438877433,220,1.2662163773047297e-5
0376,BOTSWANA_KGALAGADI_KGALAGADI NORTH_ZUTSWA,21.06879673283048,-24.378159867529472,Botswana,NOx,16.06970995964808,220,1.60986872361768e-5
0377,BOTSWANA_KGALAGADI_KGALAGADI SOUTH_BOGOGOBO,21.939941061820672,-26.643776855439175,Botswana,NOx,0,220,3.0237007173194996e-5
0378,BOTSWANA_KGALAGADI_KGALAGADI SOUTH_BOKSPITS,21.314513491670507,-25.52305062333103,Botswana,NOx,0.86850430755961,220,2.182215150625666e-5
0379,BOTSWANA_KGALAGADI_KGALAGADI SOUTH_BRAY,23.752155151918004,-25.314612046817558,Botswana,NOx,6.064638410681217,220,3.518626812870629e-5
0380,BOTSWANA_KGALAGADI_KGALAGADI SOUTH_GACHIBANA,21.318615947145076,-26.76135876855932,Botswana,NOx,0,220,2.9211444910082207e-5
0381,BOTSWANA_KGALAGADI_KGALAGADI SOUTH_KHISA,22.627311790636153,-25.661301014142644,Botswana,NOx,0,220,2.644303959997707e-5
0382,BOTSWANA_KGALAGADI_KGALAGADI SOUTH_KHUIS,21.778745594602643,-26.61621321259511,Botswana,NOx,0,220,2.900022229379573e-5
0383,BOTSWANA_KGALAGADI_KGALAGADI SOUTH_KHWAWA,21.536389504618732,-26.33146231350371,Botswana,NOx,0,220,2.7010354380463397e-5
0384,BOTSWANA_KGALAGADI_KGALAGADI SOUTH_KOKOTSHA,23.282665786747692,-24.952596354252385,Botswana,NOx,0.0294723800724481,220,2.569056739432085e-5
0385,BOTSWANA_KGALAGADI_KGALAGADI SOUTH_KOLONKWANE,21.998886440804885,-26.46695305601831,Botswana,NOx,0,220,2.9589805178753537e-5
0386,BOTSWANA_KGALAGADI_KGALAGADI SOUTH_MAKOPONG,23.00557554126552,-25.279785016029198,Botswana,NOx,0,220,2.5643230054717137e-5
0387,BOTSWANA_KGALAGADI_KGALAGADI SOUTH_MALESHE,22.578885408820124,-25.861705230970156,Botswana,NOx,4.514219233895437e-9,220,2.8160292409706855e-5
0388,BOTSWANA_KGALAGADI_KGALAGADI SOUTH_MARALALENG,22.68707487230088,-25.784682276497044,Botswana,NOx,0,220,2.7490603545121672e-5
0389,BOTSWANA_KGALAGADI_KGALAGADI SOUTH_MAUBELO,22.38337590834033,-25.32060395255863,Botswana,NOx,3.988357946272732,220,2.2768083388191585e-5
0390,BOTSWANA_KGALAGADI_KGALAGADI SOUTH_MIDDLEPITS,21.88965522829646,-26.64510622003729,Botswana,NOx,0,220,2.983925611688143e-5
0391,BOTSWANA_KGALAGADI_KGALAGADI SOUTH_MOLOPO FARMS,23.901539179894392,-25.218667431791786,Botswana,NOx,7.7736012368959235,220,3.494344035503971e-5
0392,BOTSWANA_KGALAGADI_KGALAGADI SOUTH_OMAWENENO,22.58460683893281,-25.787109823452095,Botswana,NOx,0,220,2.802694100578762e-5
0393,BOTSWANA_KGALAGADI_KGALAGADI SOUTH_PHEPHENG/DRAAIHOEK,22.78105010135853,-25.353110330504997,Botswana,NOx,0.13421293899276324,220,2.4552691779700098e-5
0394,BOTSWANA_KGALAGADI_KGALAGADI SOUTH_RAPPLES PAN,21.008575646663,-26.638159980643096,Botswana,NOx,0,220,2.5958794231506488e-5
0395,BOTSWANA_KGALAGADI_KGALAGADI SOUTH_STRUIZENDAM,20.634736317115014,-26.674011578479416,Botswana,NOx,0,220,2.415423231960645e-5
0396,BOTSWANA_KGALAGADI_KGALAGADI SOUTH_TSABONG,22.533675678870342,-26.03261068358875,Botswana,NOx,5.846283067811565,220,2.833599757701144e-5
0397,BOTSWANA_KGALAGADI_KGALAGADI SOUTH_VAALHOEK,20.899174768893236,-26.63085165782585,Botswana,NOx,0,220,2.5254634839821932e-5
0398,BOTSWANA_KGALAGADI_KGALAGADI SOUTH_WERDA,23.074307700309763,-25.079935228446647,Botswana,NOx,26.906651217488314,220,2.44589038638221e-5
0399,BOTSWANA_KGATLENG_KGATLENG_ARTISIA,26.329598045283216,-24.01646307301413,Botswana,NOx,1.186260269802652,220,6.935911533401118e-5
0400,BOTSWANA_KGATLENG_KGATLENG_BOKAA,25.97195065976654,-24.450230086407068,Botswana,NOx,24.52681365329527,220,7.268784705360964e-5
0401,BOTSWANA_KGATLENG_KGATLENG_DIKGONNYE,26.029703255813914,-24.096171191247226,Botswana,NOx,2.163511652946642,220,6.699176589286537e-5
0402,BOTSWANA_KGATLENG_KGATLENG_DIKWIDIDI,26.17999949757091,-24.55666835671585,Botswana,NOx,0,220,8.23521665327398e-5
0403,BOTSWANA_KGATLENG_KGATLENG_KGOMODIATSHABA,26.269863148495805,-23.959055603855354,Botswana,NOx,93.20724195214892,220,6.654282092322106e-5
0404,BOTSWANA_KGATLENG_KGATLENG_KHURUTSHE,26.132859344771337,-23.690545327799267,Botswana,NOx,2.9993562212612153,220,6.296097157276748e-5
0405,BOTSWANA_KGATLENG_KGATLENG_LESHIBITSE,26.406165055796965,-23.83651089330935,Botswana,NOx,5.074105687168124,220,6.72862403698904e-5
0406,BOTSWANA_KGATLENG_KGATLENG_MABALANE,26.28893676301754,-24.621655976454754,Botswana,NOx,0.19161318183744122,220,8.675227870402757e-5
0407,BOTSWANA_KGATLENG_KGATLENG_MALOLWANE,26.430380010494872,-24.457842437404707,Botswana,NOx,1.2830694015487694,220,9.010598054093322e-5
0408,BOTSWANA_KGATLENG_KGATLENG_MALOTWANA SIDING,26.151012846299633,-24.29179457997145,Botswana,NOx,4.238218040406919,220,7.550637013720163e-5
0409,BOTSWANA_KGATLENG_KGATLENG_MATEBELENG,26.04953135972325,-24.525143676862136,Botswana,NOx,0.7780775770310757,220,7.614737763361745e-5
0410,BOTSWANA_KGATLENG_KGATLENG_MMATHUBUDUKWANE,26.402194016452356,-24.58953432239364,Botswana,NOx,0.08393321241570326,220,9.18031246164297e-5
0411,BOTSWANA_KGATLENG_KGATLENG_MOCHUDI,26.47677571716603,-24.23454264974918,Botswana,NOx,33.103573450156226,220,8.389881054293724e-5
0412,BOTSWANA_KGATLENG_KGATLENG_MODIPANE,26.172106866832117,-24.61311568769224,Botswana,NOx,1.3744231846401165,220,8.283212347048874e-5
0413,BOTSWANA_KGATLENG_KGATLENG_MORWA,26.089564160859158,-24.467876815246445,Botswana,NOx,5.190216166899412,220,7.759255188033443e-5
0414,BOTSWANA_KGATLENG_KGATLENG_OLIPHANTS DRIFT,26.833613302849894,-24.18652011472838,Botswana,NOx,0.21987198566159882,220,9.685510087420468e-5
0415,BOTSWANA_KGATLENG_KGATLENG_OODI,26.09229785618965,-24.566777150464368,Botswana,NOx,0.6921706108739383,220,7.667856782034299e-5
0416,BOTSWANA_KGATLENG_KGATLENG_PILANE STATION,26.10483646643129,-24.415535218505003,Botswana,NOx,1.6551814870815347,220,7.566624650712228e-5
0417,BOTSWANA_KGATLENG_KGATLENG_RAMONAKA,26.446902425513134,-24.542320856771433,Botswana,NOx,0.18358066858932906,220,9.083443737067931e-5
0418,BOTSWANA_KGATLENG_KGATLENG_RAMOTLABAKI,26.871752159032944,-23.894065124338375,Botswana,NOx,0.41190486523937353,220,7.921062754401298e-5
0419,BOTSWANA_KGATLENG_KGATLENG_RASESA,26.029082284030856,-24.334812008927873,Botswana,NOx,19.24381057689662,220,7.19776709703357e-5
0420,BOTSWANA_KGATLENG_KGATLENG_SIKWANE,26.40976832130963,-24.631382480577347,Botswana,NOx,0.013649748811472583,220,1.0276502189365821e-4
0421,BOTSWANA_KWENENG_KWENENG EAST_BDF MOGODITSHANE,25.866597567365684,-24.60177989688917,Botswana,NOx,1.2833517721062786,220,6.712916247231249e-5
0422,BOTSWANA_KWENENG_KWENENG EAST_BOATLANAME,25.90698626304365,-23.603697827888347,Botswana,NOx,3.0550829486865996,220,6.5953665724372e-5
0423,BOTSWANA_KWENENG_KWENENG EAST_DIKGATLHONG,25.890773108192004,-24.22990108004598,Botswana,NOx,0.31387743688997055,220,6.697984693859738e-5
0424,BOTSWANA_KWENENG_KWENENG EAST_DITSHUKUDU,25.79018424903999,-24.31657903586985,Botswana,NOx,1.255085254204069,220,6.052132638889596e-5
0425,BOTSWANA_KWENENG_KWENENG EAST_GABANE,25.724856086362443,-24.625622432889752,Botswana,NOx,8.424184471338164,220,6.82759647050446e-5
0426,BOTSWANA_KWENENG_KWENENG EAST_GAKGATLA,25.558388738489484,-24.555893651556392,Botswana,NOx,0,220,5.652224836794062e-5
0427,BOTSWANA_KWENENG_KWENENG EAST_GAKUTLO,25.795893008492364,-24.485500847618265,Botswana,NOx,4.730803259638436,220,6.687056181720052e-5
0428,BOTSWANA_KWENENG_KWENENG EAST_GAMODUBU,25.71707045103724,-24.50745373492028,Botswana,NOx,0.0899387996013452,220,6.426666163661388e-5
0429,BOTSWANA_KWENENG_KWENENG EAST_HATSALATLADI,25.655128743903163,-24.053036283307804,Botswana,NOx,0.29454828673161615,220,5.9799505922830676e-5
0430,BOTSWANA_KWENENG_KWENENG EAST_KGOPE,25.90730765578967,-24.309697924278826,Botswana,NOx,2.1197840042387583,220,6.896885412555065e-5
0431,BOTSWANA_KWENENG_KWENENG EAST_KOPONG,25.870465764300775,-24.444158127481042,Botswana,NOx,17.60778800136899,220,6.647636906631504e-5
0432,BOTSWANA_KWENENG_KWENENG EAST_KUBUNG,25.360366076259005,-24.614971635386656,Botswana,NOx,0,220,5.5953481450154996e-5
0433,BOTSWANA_KWENENG_KWENENG EAST_KUMAKWANE,25.672697196778568,-24.673575670712168,Botswana,NOx,3.5923188982011176,220,6.749714479359348e-5
0434,BOTSWANA_KWENENG_KWENENG EAST_KWENENG,25.828354177294415,-23.852566021088684,Botswana,NOx,12.777765151905555,220,6.94559643081849e-5
0435,BOTSWANA_KWENENG_KWENENG EAST_LENTSWELETAU,25.870136138465416,-24.167826671475748,Botswana,NOx,3.814103252552886,220,6.028240069011481e-5
0436,BOTSWANA_KWENENG_KWENENG EAST_LEOLOGANE,25.64433800339369,-23.434433772014575,Botswana,NOx,1.1902074078131344,220,5.844474364291585e-5
0437,BOTSWANA_KWENENG_KWENENG EAST_LEPHEPHE,25.894174284633333,-23.40765559827626,Botswana,NOx,0.5377893182807385,220,6.130901746836948e-5
0438,BOTSWANA_KWENENG_KWENENG EAST_LOSILAKGOKONG,25.34988894663335,-24.571135771940597,Botswana,NOx,0,220,5.4558966790851926e-5
0439,BOTSWANA_KWENENG_KWENENG EAST_MAHETLWE,25.665185137212088,-24.23905297400607,Botswana,NOx,6.481446901179842,220,5.46016025109175e-5
0440,BOTSWANA_KWENENG_KWENENG EAST_MEDIE,25.874565240962703,-24.031116366980243,Botswana,NOx,0.5700763647734077,220,6.544971410593625e-5
0441,BOTSWANA_KWENENG_KWENENG EAST_METSIMOTLHABE,25.814813747961594,-24.57843758628985,Botswana,NOx,10.80521117557888,220,6.671811874259248e-5
0442,BOTSWANA_KWENENG_KWENENG EAST_MMANKGODI,25.623117562536567,-24.72944762315122,Botswana,NOx,52.05572868628435,220,6.125630541298221e-5
0443,BOTSWANA_KWENENG_KWENENG EAST_MMANOKO,25.64934009640395,-24.42250311648915,Botswana,NOx,0.7763038067531053,220,5.801281084316656e-5
0444,BOTSWANA_KWENENG_KWENENG EAST_MMATSETA,25.85895904561137,-24.512431056468085,Botswana,NOx,1.7746322208650882,220,6.95063924605055e-5
0445,BOTSWANA_KWENENG_KWENENG EAST_MMOPANE,25.831916673401516,-24.543107056933852,Botswana,NOx,47.21955058870982,220,6.909361044615814e-5
0446,BOTSWANA_KWENENG_KWENENG EAST_MOGODITSHANE,25.85842184630358,-24.60738400491993,Botswana,NOx,14.666622684245716,220,6.815341443355827e-5
0447,BOTSWANA_KWENENG_KWENENG EAST_MOGONONO,25.577935957073354,-24.234385269062876,Botswana,NOx,0.6024676259183692,220,5.401708176666631e-5
0448,BOTSWANA_KWENENG_KWENENG EAST_MOKOLODI,25.81603234528639,-24.697241109077822,Botswana,NOx,0.8919069812036622,220,7.151807050442827e-5
0449,BOTSWANA_KWENENG_KWENENG EAST_MOLEPOLOLE,25.5497055386965,-24.395542548425816,Botswana,NOx,39.202399183762175,220,5.371366377437958e-5
0450,BOTSWANA_KWENENG_KWENENG EAST_RAMAPHATLE,25.61446897045962,-24.70394371590776,Botswana,NOx,12.734151729188614,220,5.940321141939542e-5
0451,BOTSWANA_KWENENG_KWENENG EAST_SHADISHADI,25.6542773445706,-23.631687537826256,Botswana,NOx,2.9635954114845755,220,6.0133358762870515e-5
0452,BOTSWANA_KWENENG_KWENENG EAST_SOJWE,25.81060306743436,-23.447805731300946,Botswana,NOx,2.3692612667403696,220,6.348916909915125e-5
0453,BOTSWANA_KWENENG_KWENENG EAST_THAMAGA,25.512202536353346,-24.636709032733712,Botswana,NOx,0.6056736166483531,220,5.5938583936043784e-5
0454,BOTSWANA_KWENENG_KWENENG EAST_TLOANENG,25.718436819740113,-24.748830124610986,Botswana,NOx,7.3320020925981355,220,7.049900929101405e-5
0455,BOTSWANA_KWENENG_KWENENG WEST_BOTLHAPATLOU,25.49433742402101,-23.950964377275472,Botswana,NOx,0.15069461644345505,220,5.854672108918102e-5
0456,BOTSWANA_KWENENG_KWENENG WEST_DIPHUDUHUDU,25.361313831639055,-23.66424037279965,Botswana,NOx,0.09302312231868091,220,5.568525205301711e-5
0457,BOTSWANA_KWENENG_KWENENG WEST_DITSHEGWANE,24.967494356636315,-24.325453739104706,Botswana,NOx,0.026418731372026272,220,4.570071054343927e-5
0458,BOTSWANA_KWENENG_KWENENG WEST_DUTLWE,24.010209606049106,-24.0766543302552,Botswana,NOx,0.6669303141055548,220,2.6331064477913557e-5
0459,BOTSWANA_KWENENG_KWENENG WEST_KAUDWANE,24.659436878890112,-23.367661970601763,Botswana,NOx,0.0020564547700275297,220,3.543583895448954e-5
0460,BOTSWANA_KWENENG_KWENENG WEST_KHUDUMELAPYE,25.170144578603114,-23.791371348563107,Botswana,NOx,1.0938154751369686,220,5.179334984717343e-5
0461,BOTSWANA_KWENENG_KWENENG WEST_KOTOLANAME,25.344981106952105,-24.426360101349005,Botswana,NOx,0.8436375817043448,220,5.26041508803754e-5
0462,BOTSWANA_KWENENG_KWENENG WEST_LETLHAKENG,25.055504504543418,-24.07736578153483,Botswana,NOx,72.10359319644414,220,4.6021730416123674e-5
0463,BOTSWANA_KWENENG_KWENENG WEST_MABOANE,24.62981126929652,-24.01531720256432,Botswana,NOx,1.432486363280957,220,3.645127590767849e-5
0464,BOTSWANA_KWENENG_KWENENG WEST_MALWELWE,25.388569305562967,-24.124123864830562,Botswana,NOx,0.7451411436107606,220,5.601644249253468e-5
0465,BOTSWANA_KWENENG_KWENENG WEST_MANTSHWABISI,25.20948564723073,-24.090430074502226,Botswana,NOx,0.8594004835122357,220,5.2810336441444505e-5
0466,BOTSWANA_KWENENG_KWENENG WEST_MARATSHWANE,25.27943300340971,-24.00543002229499,Botswana,NOx,0.34153934846612605,220,5.3953156597730256e-5
0467,BOTSWANA_KWENENG_KWENENG WEST_METSIBOTLHOKO,24.88334535341407,-24.02100921043726,Botswana,NOx,30.846554191493354,220,4.2180624877596884e-5
0468,BOTSWANA_KWENENG_KWENENG WEST_MONWANE,25.208167783087692,-24.31675483950471,Botswana,NOx,0.002224066506232837,220,5.0948460903477155e-5
0469,BOTSWANA_KWENENG_KWENENG WEST_MOSHAWENG,25.126758323030916,-24.50223959697767,Botswana,NOx,0,220,4.895558366535546e-5
0470,BOTSWANA_KWENENG_KWENENG WEST_MOTOKWE,23.393326314118752,-23.949217767767472,Botswana,NOx,1.6007876508114895,220,1.9805087315472036e-5
0471,BOTSWANA_KWENENG_KWENENG WEST_NGWARE,25.472317051558928,-23.407189666362918,Botswana,NOx,7.58719699180483,220,5.329754243943441e-5
0472,BOTSWANA_KWENENG_KWENENG WEST_SALAJWE,24.700069233188845,-23.586968168257275,Botswana,NOx,52.20981691827105,220,3.8257390802654e-5
0473,BOTSWANA_KWENENG_KWENENG WEST_SERINANE,25.19951548113084,-24.18969812658127,Botswana,NOx,0.06311427364616348,220,4.961610565445973e-5
0474,BOTSWANA_KWENENG_KWENENG WEST_SESUNG,24.920484389582054,-24.098764991625394,Botswana,NOx,0.04168422266889936,220,4.3632838285123654e-5
0475,BOTSWANA_KWENENG_KWENENG WEST_SORILATHOLO,25.06367528301778,-23.48111009752001,Botswana,NOx,0.4551378148068208,220,4.4322524938689156e-5
0476,BOTSWANA_KWENENG_KWENENG WEST_TAKATOKWANE,24.333986142124967,-23.897263235861104,Botswana,NOx,3.3972207336018605,220,2.958326788737864e-5
0477,BOTSWANA_KWENENG_KWENENG WEST_THEBEPHATSHWA,25.33911813426609,-24.229770927348877,Botswana,NOx,0.43120188998441966,220,5.236613640735577e-5
0478,BOTSWANA_KWENENG_KWENENG WEST_TSETSENG,23.346608409362428,-23.556625874898454,Botswana,NOx,0,220,1.9441428166455665e-5
0479,BOTSWANA_KWENENG_KWENENG WEST_TSWAANE,23.844303310573697,-23.677953470418096,Botswana,NOx,1.1212243808084568,220,2.323355013023054e-5
0480,BOTSWANA_LOBATSE_LOBATSE_LOBATSE,25.680222039240462,-25.21156716052995,Botswana,NOx,7.752368690959136,220,9.058187964794406e-5
0481,BOTSWANA_NORTH EAST_NORTH EAST_BOTALAOTE,27.23593919430158,-20.74011790617292,Botswana,NOx,0,220,1.0598772156811265e-4
0482,BOTSWANA_NORTH EAST_NORTH EAST_BUTALE,27.676071500645865,-20.656116388620305,Botswana,NOx,0.07937877008868639,220,1.1012004962762667e-4
0483,BOTSWANA_NORTH EAST_NORTH EAST_DITLADI,27.593853189898606,-21.357392846398774,Botswana,NOx,8.457949710448784,220,1.1573710442802643e-4
0484,BOTSWANA_NORTH EAST_NORTH EAST_GAMBULE,27.39900708699297,-20.563127167228444,Botswana,NOx,0,220,1.0700797723051103e-4
0485,BOTSWANA_NORTH EAST_NORTH EAST_GULUBANE,27.31358281638026,-20.901873558761327,Botswana,NOx,0.35514663887159514,220,1.1324104690935144e-4
0486,BOTSWANA_NORTH EAST_NORTH EAST_GUNGWE,27.38271596277986,-20.484327285782342,Botswana,NOx,0.022484532291803177,220,1.0557209287642699e-4
0487,BOTSWANA_NORTH EAST_NORTH EAST_HASKINS FARM,27.53856707842432,-20.942088468645853,Botswana,NOx,0.9844270086627115,220,1.1401195521898444e-4
0488,BOTSWANA_NORTH EAST_NORTH EAST_JACKALAS 1,27.70190501415433,-20.551898920198756,Botswana,NOx,0.3463341693461629,220,1.1871576748756496e-4
0489,BOTSWANA_NORTH EAST_NORTH EAST_JACKALAS 2,27.684263288454705,-20.943529822684937,Botswana,NOx,0.019979247478820062,220,1.0993060330521942e-4
0490,BOTSWANA_NORTH EAST_NORTH EAST_JOHANNES KACHEJOHN,27.416370017173527,-21.032990996945774,Botswana,NOx,14.008491178631536,220,1.0639455196481684e-4
0491,BOTSWANA_NORTH EAST_NORTH EAST_KALAKAMATI,27.325085093746505,-20.616599567778596,Botswana,NOx,0,220,1.0567038725572964e-4
0492,BOTSWANA_NORTH EAST_NORTH EAST_KGARI,27.62095491247424,-20.59772226024511,Botswana,NOx,0.030849628508193158,220,1.1176191262163293e-4
0493,BOTSWANA_NORTH EAST_NORTH EAST_LETSHOLATHEBE,27.42289424926035,-20.718374886141437,Botswana,NOx,0.9594479966341453,220,1.0512583323496472e-4
0494,BOTSWANA_NORTH EAST_NORTH EAST_MABUDZANE,27.65030964853915,-20.906207513366976,Botswana,NOx,0.00617750100496381,220,1.1036545738885017e-4
0495,BOTSWANA_NORTH EAST_NORTH EAST_MAKALENG,27.285094240822392,-20.79040562603129,Botswana,NOx,0.018200988398983146,220,1.0790062950793988e-4
0496,BOTSWANA_NORTH EAST_NORTH EAST_MAMBO,27.339806500913884,-20.78191758239405,Botswana,NOx,0,220,1.0719702405137532e-4
0497,BOTSWANA_NORTH EAST_NORTH EAST_MAPOKA,27.583403081931646,-20.534321559571424,Botswana,NOx,0.06555541484523396,220,1.1068006743997216e-4
0498,BOTSWANA_NORTH EAST_NORTH EAST_MASINGWANENG,27.31796380391279,-20.837868143226277,Botswana,NOx,0.019255742366215196,220,1.0886297414680612e-4
0499,BOTSWANA_NORTH EAST_NORTH EAST_MASUKWANE,27.54938882946871,-20.590964331617293,Botswana,NOx,0,220,1.1104388779736851e-4
0500,BOTSWANA_NORTH EAST_NORTH EAST_MASUNGA,27.434400286669504,-20.627325508955153,Botswana,NOx,0.7516158696737555,220,1.0594804790597934e-4
0501,BOTSWANA_NORTH EAST_NORTH EAST_MATENGE,27.243163563094196,-20.824890359812834,Botswana,NOx,0.046036434301827925,220,1.0609497181524041e-4
0502,BOTSWANA_NORTH EAST_NORTH EAST_MATSHELAGABEDI,27.625910201894996,-21.12872037207013,Botswana,NOx,19.650143944988773,220,1.1517565240137806e-4
0503,BOTSWANA_NORTH EAST_NORTH EAST_MATSILOJE,27.79748603303526,-21.272615331495285,Botswana,NOx,57.13034578512181,220,1.1916728824523659e-4
0504,BOTSWANA_NORTH EAST_NORTH EAST_MBALAMBI,27.339335713407475,-20.51403109309788,Botswana,NOx,0.10315042223379244,220,1.0394284789572161e-4
0505,BOTSWANA_NORTH EAST_NORTH EAST_MOROKA,27.64533883665974,-20.526246843989444,Botswana,NOx,0.14008913755279692,220,1.174329075210867e-4
0506,BOTSWANA_NORTH EAST_NORTH EAST_MOSOJANE,27.510648322475955,-20.605682710993673,Botswana,NOx,0.3810561783956911,220,1.1111150108367163e-4
0507,BOTSWANA_NORTH EAST_NORTH EAST_MOWANA,27.63647955779588,-20.777830273205144,Botswana,NOx,0.08475576888417803,220,1.1152565891170418e-4
0508,BOTSWANA_NORTH EAST_NORTH EAST_MULAMBAKWENA,27.46594067350093,-20.57301251814986,Botswana,NOx,0.11570994107298871,220,1.1014617734406151e-4
0509,BOTSWANA_NORTH EAST_NORTH EAST_NLAKHWANE,27.517632990383536,-20.518539158214796,Botswana,NOx,0.10007730262402212,220,1.101625929895711e-4
0510,BOTSWANA_NORTH EAST_NORTH EAST_PATAYAMATEBELE,27.737992823316166,-21.4643350004061,Botswana,NOx,0.6495618525486119,220,1.2084097567721663e-4
0511,BOTSWANA_NORTH EAST_NORTH EAST_POLE,27.574132779023316,-20.610493660531436,Botswana,NOx,0.0028223828930592125,220,1.1117654697989643e-4
0512,BOTSWANA_NORTH EAST_NORTH EAST_RAMOKGWEBANA,27.662924110656288,-20.583729469679355,Botswana,NOx,0.07212908109285945,220,1.1848586549678686e-4
0513,BOTSWANA_NORTH EAST_NORTH EAST_SECHELE,27.38485539651099,-20.797350422844442,Botswana,NOx,0,220,1.0420901004359884e-4
0514,BOTSWANA_NORTH EAST_NORTH EAST_SEKAKANGWE,27.324905899544337,-20.566292847964146,Botswana,NOx,0,220,1.0493390913346445e-4
0515,BOTSWANA_NORTH EAST_NORTH EAST_SENYAWE,27.6781087349486,-20.734971000867784,Botswana,NOx,0.3546835371904798,220,1.1182384687602465e-4
0516,BOTSWANA_NORTH EAST_NORTH EAST_SHASHE BRIDGE,27.441314891279994,-21.258844535487142,Botswana,NOx,9.485665982008983,220,1.1226153497556624e-4
0517,BOTSWANA_NORTH EAST_NORTH EAST_SIVIYA,27.69697685871457,-20.82969467830003,Botswana,NOx,0.14743601010020999,220,1.1243141367600629e-4
0518,BOTSWANA_NORTH EAST_NORTH EAST_TATI SIDING,27.46845579652601,-21.26452617148856,Botswana,NOx,1.2107269748094815,220,1.1145221459374355e-4
0519,BOTSWANA_NORTH EAST_NORTH EAST_THEMASHANGA,27.55069700154272,-20.72636426785868,Botswana,NOx,1.0187086115867043,220,1.115347886182505e-4
0520,BOTSWANA_NORTH EAST_NORTH EAST_TOTENG,27.270345176482714,-20.719997560519936,Botswana,NOx,0,220,1.0736233291219754e-4
0521,BOTSWANA_NORTH EAST_NORTH EAST_TSAMAYA,27.65197854641795,-20.83445747757975,Botswana,NOx,4.161857063641097e-5,220,1.125287074006387e-4
0522,BOTSWANA_NORTH EAST_NORTH EAST_TSHESEBE,27.60488659969322,-20.718620239818698,Botswana,NOx,0.07020588358293281,220,1.1164141316699627e-4
0523,BOTSWANA_NORTH EAST_NORTH EAST_VUKWI,27.38708622858749,-20.607139935771677,Botswana,NOx,0.05195822050030969,220,1.0660823129771124e-4
0524,BOTSWANA_NORTH EAST_NORTH EAST_ZWENSHAMBE,27.448183551665426,-20.504176199278817,Botswana,NOx,0.2785440818328202,220,1.0862068578698647e-4
0525,BOTSWANA_NORTH WEST_NGAMILAND DELTA_NGAMILAND DELTA,22.960336814344046,-19.43828751092393,Botswana,NOx,11.643507836450937,220,1.8003148132939018e-05
0526,BOTSWANA_NORTH WEST_NGAMILAND EAST_BODIBENG,22.600564390842983,-20.54248828687454,Botswana,NOx,0.6929634989303872,220,1.3319894027086221e-5
0527,BOTSWANA_NORTH WEST_NGAMILAND EAST_BOTLHATLOGO,22.726763405990695,-20.74674723011069,Botswana,NOx,3.9609512453729794,220,1.4705915306612027e-5
0528,BOTSWANA_NORTH WEST_NGAMILAND EAST_CHANOGA,23.67422168898431,-20.16363542170472,Botswana,NOx,0.09349225197399501,220,2.563683193823607e-5
0529,BOTSWANA_NORTH WEST_NGAMILAND EAST_HABU,22.399450144071537,-19.835986974771608,Botswana,NOx,0.22422529821239737,220,1.3035909891767616e-5
0530,BOTSWANA_NORTH WEST_NGAMILAND EAST_KARENG,22.300472651793307,-20.754601900098116,Botswana,NOx,2.7888021314128584,220,1.3445859891492162e-5
0531,BOTSWANA_NORTH WEST_NGAMILAND EAST_KGAKGE/MAKAKUNG,22.500435832111794,-20.540049424101177,Botswana,NOx,0.2770423639222554,220,1.2988048920359319e-5
0532,BOTSWANA_NORTH WEST_NGAMILAND EAST_KOMANA,23.23556501767629,-20.197324460737033,Botswana,NOx,0.061163293865680604,220,1.9560070029456256e-5
0533,BOTSWANA_NORTH WEST_NGAMILAND EAST_MABABE,23.997011922196286,-19.182027762406623,Botswana,NOx,0.07796884829910698,220,2.6529445724010614e-5
0534,BOTSWANA_NORTH WEST_NGAMILAND EAST_MAKALAMABEDI,23.41521287773188,-20.67081042197008,Botswana,NOx,72.65458491858311,220,1.7888246769848237e-5
0535,BOTSWANA_NORTH WEST_NGAMILAND EAST_MATLAPANA,23.546036955690333,-19.921555467159827,Botswana,NOx,2.3286364157086594,220,2.4406564622436733e-5
0536,BOTSWANA_NORTH WEST_NGAMILAND EAST_MATSAUDI/SAKAPNAE,23.675283205409393,-19.806194245710948,Botswana,NOx,0.37972827312700524,220,2.660758616368497e-5
0537,BOTSWANA_NORTH WEST_NGAMILAND EAST_MAUN,24.199903111118402,-19.619553541252102,Botswana,NOx,80.29901378269355,220,2.901357947204808e-5
0538,BOTSWANA_NORTH WEST_NGAMILAND EAST_PHUDUHUDU,24.645957266286953,-20.051304523225582,Botswana,NOx,7.849649511320122,220,3.8412080899163925e-5
0539,BOTSWANA_NORTH WEST_NGAMILAND EAST_SANKUYO,23.881724902731463,-19.421659901868495,Botswana,NOx,0.3282047803369823,220,2.674006021075037e-5
0540,BOTSWANA_NORTH WEST_NGAMILAND EAST_SEHITHWA,22.677793302639653,-20.237066774603015,Botswana,NOx,8.166341657552373,220,1.339829985669283e-5
0541,BOTSWANA_NORTH WEST_NGAMILAND EAST_SEMBOYO,22.27649485221952,-20.354376077745215,Botswana,NOx,2.393925568927428,220,1.164787326790595e-5
0542,BOTSWANA_NORTH WEST_NGAMILAND EAST_SHOROBE,23.712796248799126,-19.11296691544541,Botswana,NOx,20.9709354550904,220,2.137228959875337e-5
0543,BOTSWANA_NORTH WEST_NGAMILAND EAST_TOTENG,22.999306808598018,-20.32082005396448,Botswana,NOx,55.02419723194953,220,1.6444948000682302e-5
0544,BOTSWANA_NORTH WEST_NGAMILAND EAST_TSAO,22.28659245098526,-20.02090488822863,Botswana,NOx,4.2581521638467175,220,1.2016438827311404e-5
0545,BOTSWANA_NORTH WEST_NGAMILAND WEST_BEETSHA,22.953920477145694,-18.380166226946653,Botswana,NOx,10.144532021361933,220,1.6980397854471363e-5
0546,BOTSWANA_NORTH WEST_NGAMILAND WEST_CHUKUMUCHU,21.598703917965935,-18.74824397962615,Botswana,NOx,3.533158807190415,220,1.2977394127977604e-5
0547,BOTSWANA_NORTH WEST_NGAMILAND WEST_ERETSHA,22.86584821151028,-18.79052805025673,Botswana,NOx,0.13582474310875453,220,1.6071333388101294e-5
0548,BOTSWANA_NORTH WEST_NGAMILAND WEST_ETSHA 1,22.224044369783737,-19.242642574470672,Botswana,NOx,3.545376102664289,220,1.3362649967429974e-5
0549,BOTSWANA_NORTH WEST_NGAMILAND WEST_ETSHA 13,22.229743070714033,-19.017116669937373,Botswana,NOx,1.0018316815705652,220,1.359180946480798e-5
0550,BOTSWANA_NORTH WEST_NGAMILAND WEST_ETSHA 6,22.229066360329956,-19.108258691269373,Botswana,NOx,1.2397598655395703,220,1.3410089420462512e-5
0551,BOTSWANA_NORTH WEST_NGAMILAND WEST_GANI,21.444696927418082,-18.405419080628068,Botswana,NOx,1.0383794051220478,220,1.338850762810928e-5
0552,BOTSWANA_NORTH WEST_NGAMILAND WEST_GONUTSUGA,22.59253926092765,-18.87801840211525,Botswana,NOx,0.8377695712900953,220,1.562790636167044e-5
0553,BOTSWANA_NORTH WEST_NGAMILAND WEST_GUDINGWA,22.905784262247845,-18.563529796191204,Botswana,NOx,0,220,1.716307777632764e-5
0554,BOTSWANA_NORTH WEST_NGAMILAND WEST_GUMARE,22.131570836874936,-19.394550571792966,Botswana,NOx,4.019722040813807,220,1.2493316975614732e-5
0555,BOTSWANA_NORTH WEST_NGAMILAND WEST_IKOGA,22.218249775302052,-18.888300198172978,Botswana,NOx,1.098107671123844,220,1.391884132884158e-5
0556,BOTSWANA_NORTH WEST_NGAMILAND WEST_KAJAJA,21.992248859877353,-18.703015404036154,Botswana,NOx,0.20626451071036697,220,1.3795616324641102e-5
0557,BOTSWANA_NORTH WEST_NGAMILAND WEST_KAUXWHI,21.93273566781973,-18.270501890330234,Botswana,NOx,1.0897320198800091,220,1.4984061432299356e-5
0558,BOTSWANA_NORTH WEST_NGAMILAND WEST_MOGOMOTHO,22.252300749707768,-18.492510662073524,Botswana,NOx,0.7238453264300027,220,1.4284739753733788e-5
0559,BOTSWANA_NORTH WEST_NGAMILAND WEST_MOHEMBO EAST,21.802957716080922,-18.266524959816728,Botswana,NOx,0.1808752050910618,220,1.533941048115217e-5
0560,BOTSWANA_NORTH WEST_NGAMILAND WEST_MOHEMBO WEST,21.66725143544976,-18.312119665836942,Botswana,NOx,0.38052175572961755,220,1.4773837102355358e-5
0561,BOTSWANA_NORTH WEST_NGAMILAND WEST_MOKGACHA,22.28535493171085,-18.701773297683296,Botswana,NOx,0.12449044089801334,220,1.3884479003190009e-5
0562,BOTSWANA_NORTH WEST_NGAMILAND WEST_NGARANGE,22.04454772324353,-18.490470871633665,Botswana,NOx,0.01534167442081733,220,1.370079870555152e-5
0563,BOTSWANA_NORTH WEST_NGAMILAND WEST_NOKANENG,22.21151988099178,-19.64313399653268,Botswana,NOx,2.0023701509188045,220,1.193067122473579e-5
0564,BOTSWANA_NORTH WEST_NGAMILAND WEST_NXAMASERE,21.95986197574487,-18.61796345462013,Botswana,NOx,0.29169705715529104,220,1.3404250654991401e-5
0565,BOTSWANA_NORTH WEST_NGAMILAND WEST_NXAUNXAU,21.351524290127983,-18.90359537023587,Botswana,NOx,5.606175591287817,220,1.2503343522984878e-5
0566,BOTSWANA_NORTH WEST_NGAMILAND WEST_QANGWA,21.56450523279803,-19.49744243797423,Botswana,NOx,6.414177001221481,220,1.1838414897269445e-5
0567,BOTSWANA_NORTH WEST_NGAMILAND WEST_SAMOCHEMA,21.807530849136374,-18.491110966045003,Botswana,NOx,0.3462649624907221,220,1.3910148667806155e-5
0568,BOTSWANA_NORTH WEST_NGAMILAND WEST_SEKONDOMBORO,22.116154551020507,-18.31395834682349,Botswana,NOx,0.4203367299688762,220,1.5266217379350522e-5
0569,BOTSWANA_NORTH WEST_NGAMILAND WEST_SEPOPA,22.058884839789098,-18.787426270755017,Botswana,NOx,1.473313316443715,220,1.3842056568957872e-5
0570,BOTSWANA_NORTH WEST_NGAMILAND WEST_SERONGA,22.432137134077763,-18.68657047380979,Botswana,NOx,0.8588067968191977,220,1.5016630235953343e-5
0571,BOTSWANA_NORTH WEST_NGAMILAND WEST_SHAKAWE,21.734262044931864,-18.42525466967516,Botswana,NOx,1.7619075231478774,220,1.418313729595333e-5
0572,BOTSWANA_NORTH WEST_NGAMILAND WEST_TUBU,22.343676013963407,-19.42290273539071,Botswana,NOx,0.8653336645586035,220,1.3147232660104535e-5
0573,BOTSWANA_NORTH WEST_NGAMILAND WEST_XAKAO,21.89184146965982,-18.35122741006872,Botswana,NOx,1.5736468459408277,220,1.5079819772223502e-5
0574,BOTSWANA_NORTH WEST_NGAMILAND WEST_XAXA,21.481474650920102,-20.367126109392327,Botswana,NOx,7.1361276053230265,220,9.026477065576799e-6
0575,BOTSWANA_NORTH WEST_NGAMILAND WEST_XHAUGA,21.8600876919785,-18.555460050065392,Botswana,NOx,0.5591747041686336,220,1.400433120402056e-5
0576,BOTSWANA_ORAPA_ORAPA_ORAPA,25.3996206036354,-21.263370671233456,Botswana,NOx,28.50921229221137,220,5.531950421588938e-5
0577,BOTSWANA_SELIBE PHIKWE_SELIBE PHIKWE_SELIBE PHIKWE,27.837207638783738,-21.958685691075345,Botswana,NOx,151.63479254326168,220,1.1985947089665494e-4
0578,BOTSWANA_SOUTH EAST_SOUTH EAST_DOORN LAAGTE,25.651786031535003,-25.28255683886919,Botswana,NOx,25.864729594748336,220,8.735487193156644e-5
0579,BOTSWANA_SOUTH EAST_SOUTH EAST_HILDAVALE,25.616656741956373,-25.403085615302597,Botswana,NOx,4.020955016960533,220,7.102346953402616e-5
0580,BOTSWANA_SOUTH EAST_SOUTH EAST_LOBATSE ESTATES,25.699833727272946,-25.141969237065187,Botswana,NOx,9.46189962715761,220,8.762599550093952e-5
0581,BOTSWANA_SOUTH EAST_SOUTH EAST_MOGOBANE,25.702998989332475,-24.943145974483425,Botswana,NOx,0.5261360579356031,220,8.251887022781013e-5
0582,BOTSWANA_SOUTH EAST_SOUTH EAST_OTSE,25.756324039083623,-25.045000276937234,Botswana,NOx,17.059001218386395,220,8.694883315807367e-5
0583,BOTSWANA_SOUTH EAST_SOUTH EAST_RAMOTSWA,25.829789056966593,-24.901951101856636,Botswana,NOx,38.977742027926325,220,8.25564974813453e-5
0584,BOTSWANA_SOUTH EAST_SOUTH EAST_RAMOTSWA STATION/TAUNG,25.770154438973417,-24.815461657589147,Botswana,NOx,0,220,7.148863839057107e-5
0585,BOTSWANA_SOUTH EAST_SOUTH EAST_TLOKWENG,26.035546995861406,-24.647763400719953,Botswana,NOx,80.28482193347944,220,8.128026197740112e-5
0586,BOTSWANA_SOUTHERN_BAROLONG_BETHEL,25.523180210457173,-25.455324991549087,Botswana,NOx,0.23653955534158266,220,6.644428716029438e-5
0587,BOTSWANA_SOUTHERN_BAROLONG_BOROBADILEPE,25.45763854772069,-25.624399960180156,Botswana,NOx,0.17121274692511312,220,6.414473017346545e-5
0588,BOTSWANA_SOUTHERN_BAROLONG_DIGAWANA,25.554337853260883,-25.336847733509767,Botswana,NOx,0.1597705317352062,220,7.110384815356419e-5
0589,BOTSWANA_SOUTHERN_BAROLONG_DIKHUKHUNG,24.885447065593745,-25.800063981646993,Botswana,NOx,0.03370512023856395,220,5.480653199585461e-5
0590,BOTSWANA_SOUTHERN_BAROLONG_DINATSHANA,25.561032468363326,-25.459552008174736,Botswana,NOx,0.4121602165648665,220,6.698152761241971e-5
0591,BOTSWANA_SOUTHERN_BAROLONG_DITLHARAPA,25.26534775604463,-25.74503088773403,Botswana,NOx,4.097415459991904,220,5.814630074008065e-5
0592,BOTSWANA_SOUTHERN_BAROLONG_GAMAJALELA,25.422867167043186,-25.383535663638526,Botswana,NOx,0.47864089358723383,220,6.558806189183031e-5
0593,BOTSWANA_SOUTHERN_BAROLONG_GATHWANE,25.50825122582933,-25.39225799661276,Botswana,NOx,0.0866818260337145,220,6.655142854161689e-5
0594,BOTSWANA_SOUTHERN_BAROLONG_GOOD HOPE,25.425540411603592,-25.474044252271263,Botswana,NOx,1.9503559069875915,220,6.597298341670665e-5
0595,BOTSWANA_SOUTHERN_BAROLONG_HEBRON,25.41118276541949,-25.696194884502404,Botswana,NOx,0.13635389814668536,220,6.127955452672751e-5
0596,BOTSWANA_SOUTHERN_BAROLONG_KANGWE,25.079061936844482,-25.406209192834304,Botswana,NOx,0,220,5.15283346356199e-5
0597,BOTSWANA_SOUTHERN_BAROLONG_KGORO,25.486735775180065,-25.453486474188907,Botswana,NOx,1.1446645741597175,220,6.75646943910646e-5
0598,BOTSWANA_SOUTHERN_BAROLONG_LEJWANA,25.53432726709042,-25.415801471703258,Botswana,NOx,0.14993338384196742,220,6.611903956188492e-5
0599,BOTSWANA_SOUTHERN_BAROLONG_LEPORUNG,25.008424229579703,-25.672891074188268,Botswana,NOx,1.9685902801468589,220,5.919565685497119e-5
0600,BOTSWANA_SOUTHERN_BAROLONG_LOGAGANE,25.398915672259538,-25.611615010488325,Botswana,NOx,0.16179112610673035,220,6.364398990532649e-5
0601,BOTSWANA_SOUTHERN_BAROLONG_LORWANA,25.502074910123632,-25.286996269753118,Botswana,NOx,0.14408668609801892,220,6.910427233108862e-5
0602,BOTSWANA_SOUTHERN_BAROLONG_MABULE,24.537508834961965,-25.73692702390118,Botswana,NOx,5.714778183080049,220,5.224114317514683e-5
0603,BOTSWANA_SOUTHERN_BAROLONG_MADINGWANA,25.481261650329014,-25.576730325456165,Botswana,NOx,2.7804574039400394,220,6.630213535419038e-5
0604,BOTSWANA_SOUTHERN_BAROLONG_MAGORIAPITSE,25.27977947866948,-25.44137079227652,Botswana,NOx,0.021417888638928597,220,5.420096746466818e-5
0605,BOTSWANA_SOUTHERN_BAROLONG_MAKOKWE,25.475459011292934,-25.66937770824479,Botswana,NOx,0.1388983053097247,220,6.54326129581051e-5
0606,BOTSWANA_SOUTHERN_BAROLONG_MALOKAGANYANE,25.488358562103294,-25.502299871489452,Botswana,NOx,1.1694686212847116,220,6.779687927460643e-5
0607,BOTSWANA_SOUTHERN_BAROLONG_MAROJANE,25.341901927422153,-25.73640142441916,Botswana,NOx,0.20803832779530199,220,6.0662264324662374e-5
0608,BOTSWANA_SOUTHERN_BAROLONG_METLOBO,25.124348846065626,-25.39253659443453,Botswana,NOx,0.07984057181497876,220,5.183095538785487e-5
0609,BOTSWANA_SOUTHERN_BAROLONG_METLOJANE,25.375187769980677,-25.552026515853672,Botswana,NOx,0.66059535203043,220,6.378782706661923e-5
0610,BOTSWANA_SOUTHERN_BAROLONG_MMAKGORI,24.800927173643334,-25.789358109184104,Botswana,NOx,1.0408988892573268,220,5.675160924867306e-5
0611,BOTSWANA_SOUTHERN_BAROLONG_MMATHETHE,25.16245192169214,-25.332818623646105,Botswana,NOx,1.629279026674007,220,4.947961791379463e-5
0612,BOTSWANA_SOUTHERN_BAROLONG_MOGOJOGOJO,25.472237292279374,-25.35846674488226,Botswana,NOx,2.3730341731742675,220,6.852929060485735e-5
0613,BOTSWANA_SOUTHERN_BAROLONG_MOGWALALE,25.3618167413177,-25.480322244471722,Botswana,NOx,0.2727480965356402,220,5.634237870366654e-5
0614,BOTSWANA_SOUTHERN_BAROLONG_MOKATAKO,25.21324864044004,-25.72876284416883,Botswana,NOx,4.2222811208320294,220,5.7036247822939146e-5
0615,BOTSWANA_SOUTHERN_BAROLONG_MOKGOMANE,25.21261347084866,-25.518245387897743,Botswana,NOx,0.9763182376819336,220,5.4282367660807296e-5
0616,BOTSWANA_SOUTHERN_BAROLONG_MOLETE,25.308791189937068,-25.671084438672697,Botswana,NOx,1.1307608145305947,220,5.9570363816874305e-5
0617,BOTSWANA_SOUTHERN_BAROLONG_MOTSENTSHE,25.375726428046065,-25.379180264622413,Botswana,NOx,0.02138947716684966,220,6.435318039610394e-5
0618,BOTSWANA_SOUTHERN_BAROLONG_MUSI,25.08334912114238,-25.688286393457503,Botswana,NOx,5.481428198679173,220,6.051447165300594e-5
0619,BOTSWANA_SOUTHERN_BAROLONG_NGWATSAU,25.540401017789634,-25.553981728114238,Botswana,NOx,0.30254275846107775,220,6.63516401893105e-5
0620,BOTSWANA_SOUTHERN_BAROLONG_PAPATLO,25.50091785142035,-25.65156471920203,Botswana,NOx,2.646132665253149,220,6.534348522091449e-5
0621,BOTSWANA_SOUTHERN_BAROLONG_PHIHITSHWANE,25.414087664638753,-25.65601906088651,Botswana,NOx,0.11177458638131144,220,6.173915723284296e-5
0622,BOTSWANA_SOUTHERN_BAROLONG_PITSANA-POTOKWE,25.556580548078113,-25.50806204359263,Botswana,NOx,0.41099822784790385,220,6.72941474844091e-5
0623,BOTSWANA_SOUTHERN_BAROLONG_PITSANE SIDING,25.604250914974468,-25.46943866185844,Botswana,NOx,0.8249440798213801,220,7.003140855021961e-5
0624,BOTSWANA_SOUTHERN_BAROLONG_PITSHANE MOLOPO,25.119834443362777,-25.744597939849236,Botswana,NOx,0.24153167796904126,220,5.973119494173673e-5
0625,BOTSWANA_SOUTHERN_BAROLONG_RAKHUNA,25.578883997684116,-25.582003199973805,Botswana,NOx,3.6055444740521807,220,6.752013444977223e-5
0626,BOTSWANA_SOUTHERN_BAROLONG_RAMATLABAMA,25.542590563183143,-25.63663806930263,Botswana,NOx,10.297994530715782,220,6.559869227973358e-5
0627,BOTSWANA_SOUTHERN_BAROLONG_SEDIBENG,25.16840936243981,-25.684656039464652,Botswana,NOx,0,220,5.673121645477508e-5
0628,BOTSWANA_SOUTHERN_BAROLONG_SEKHUTLANE,24.48911487032339,-25.502857393367236,Botswana,NOx,1.1380317955272146,220,4.62013656179483e-5
0629,BOTSWANA_SOUTHERN_BAROLONG_SHEEP FARM,25.494453226915,-25.550549245917278,Botswana,NOx,0.1082932973164135,220,6.758952022423159e-5
0630,BOTSWANA_SOUTHERN_BAROLONG_TLHARESELEELE,25.6164016549552,-25.509947342258574,Botswana,NOx,3.3245440351892706,220,7.107186963928314e-5
0631,BOTSWANA_SOUTHERN_BAROLONG_TSHIDILAMOLOMO,24.680774921105087,-25.71938467094859,Botswana,NOx,5.260611130422024,220,5.40543241325242e-5
0632,BOTSWANA_SOUTHERN_BAROLONG_TSWAANENG,24.874731933296207,-25.481179488719636,Botswana,NOx,2.886884149374208,220,5.031387315312941e-5
0633,BOTSWANA_SOUTHERN_BAROLONG_TSWAGARE/LOTHOJE/LOKALANA,25.32250003507171,-25.608673297419177,Botswana,NOx,0.12250940208873093,220,5.903593069644941e-5
0634,BOTSWANA_SOUTHERN_BAROLONG_TSWANYANENG,25.26289447863055,-25.6163734983762,Botswana,NOx,0.1464319955929415,220,5.6200930647287706e-5
0635,BOTSWANA_SOUTHERN_NGWAKETSE WEST_ITHOLOKE,23.49754475940133,-24.802379212464427,Botswana,NOx,0,220,2.5188338820480993e-5
0636,BOTSWANA_SOUTHERN_NGWAKETSE WEST_KANAKU,23.536569449983585,-24.292118077279163,Botswana,NOx,0.6640043646010316,220,2.2373705285794188e-5
0637,BOTSWANA_SOUTHERN_NGWAKETSE WEST_KENG,23.822720476728055,-24.619062130504958,Botswana,NOx,0.08644268512608723,220,2.6775129046807677e-5
0638,BOTSWANA_SOUTHERN_NGWAKETSE WEST_KHAKHEA,23.52876267152225,-24.69951083983683,Botswana,NOx,10.966031515927991,220,2.500786747861028e-5
0639,BOTSWANA_SOUTHERN_NGWAKETSE WEST_KHONKHWA,23.935454133373597,-24.46012666914766,Botswana,NOx,0.024242901687932972,220,2.6877896086352493e-5
0640,BOTSWANA_SOUTHERN_NGWAKETSE WEST_KOKONG,23.160513999524845,-24.39362019765512,Botswana,NOx,0.32043653038084424,220,2.0581860671553542e-5
0641,BOTSWANA_SOUTHERN_NGWAKETSE WEST_KUTUKU,23.639126946319017,-24.680282589894166,Botswana,NOx,0.49638666925707137,220,2.5583981603682915e-5
0642,BOTSWANA_SOUTHERN_NGWAKETSE WEST_MABUTSANE,23.705699680104797,-24.459760111464377,Botswana,NOx,0.01257806592446294,220,2.441502511230098e-5
0643,BOTSWANA_SOUTHERN_NGWAKETSE WEST_MAHOTSHWANE,24.187255352450173,-24.38400662626752,Botswana,NOx,0.3861389275515815,220,2.965831521684059e-5
0644,BOTSWANA_SOUTHERN_NGWAKETSE WEST_MORWAMOSU,23.122520350392715,-24.153854514850522,Botswana,NOx,0,220,1.9277784358617822e-5
0645,BOTSWANA_SOUTHERN_NGWAKETSE WEST_SEKOMA,24.02445527149606,-24.579997053681147,Botswana,NOx,0,220,2.8350325491199868e-5
0646,BOTSWANA_SOUTHERN_SOUTHERN_BETESANKWE,24.8941696227703,-24.719678878206103,Botswana,NOx,0.016560215585735952,220,4.3601272169180305e-5
0647,BOTSWANA_SOUTHERN_SOUTHERN_DIABO,25.365536715216567,-25.223190983743812,Botswana,NOx,1.19616099379102,220,5.185293389287082e-5
0648,BOTSWANA_SOUTHERN_SOUTHERN_DIPOTSANA,25.446292913079866,-25.212561776849554,Botswana,NOx,0.5840945529272205,220,6.779819752766869e-5
0649,BOTSWANA_SOUTHERN_SOUTHERN_GASITA,24.82803541943543,-25.124083589756676,Botswana,NOx,2.753224618836059,220,4.2260014363026954e-5
0650,BOTSWANA_SOUTHERN_SOUTHERN_KANYE,25.289267678855026,-25.048656911618565,Botswana,NOx,112.86465022271189,220,5.362190298296987e-5
0651,BOTSWANA_SOUTHERN_SOUTHERN_KGOMOKASITWA,25.611112091400322,-25.09686032652438,Botswana,NOx,13.711165881598268,220,6.596355049914848e-5
0652,BOTSWANA_SOUTHERN_SOUTHERN_LEFOKO,24.690111852640598,-24.8470312136434,Botswana,NOx,0,220,3.8912555500481005e-5
0653,BOTSWANA_SOUTHERN_SOUTHERN_LEKGOLOBOTLO,25.61615083241098,-24.885307065481175,Botswana,NOx,6.701463445408,220,6.686860526339267e-5
0654,BOTSWANA_SOUTHERN_SOUTHERN_LOROLWANA,24.459937704580028,-25.2535967198016,Botswana,NOx,1.2016377834152507,220,3.9693490945902354e-5
0655,BOTSWANA_SOUTHERN_SOUTHERN_LOTLHAKANE,25.435707774440367,-25.08771727806122,Botswana,NOx,0.48830441173436984,220,6.017135580216326e-5
0656,BOTSWANA_SOUTHERN_SOUTHERN_LOTLHAKANE WEST,25.295371153997333,-24.784930431562245,Botswana,NOx,2.245718111289777,220,5.53091086983315e-5
0657,BOTSWANA_SOUTHERN_SOUTHERN_MAGOTLHWANE,25.599116726068054,-24.996853415826646,Botswana,NOx,0.06122724807984588,220,6.666065799842968e-5
0658,BOTSWANA_SOUTHERN_SOUTHERN_MANYANA,25.574934396304805,-24.79875482887838,Botswana,NOx,62.36286380525883,220,5.98915520155785e-5
0659,BOTSWANA_SOUTHERN_SOUTHERN_MAOKANE,24.649164740852807,-24.988391174828216,Botswana,NOx,1.7971070578250354,220,3.9016622698895276e-5
0660,BOTSWANA_SOUTHERN_SOUTHERN_MOGONYE,25.67857687556797,-24.842313481878563,Botswana,NOx,0.05727426366197252,220,7.095299467718696e-5
0661,BOTSWANA_SOUTHERN_SOUTHERN_MOKHOMBA,24.61814743618357,-24.716762968297573,Botswana,NOx,0.8627617273623077,220,3.6815476129659075e-5
0662,BOTSWANA_SOUTHERN_SOUTHERN_MOLAPOWABOJANG,25.545639385657516,-25.196418239986023,Botswana,NOx,87.30842141621177,220,7.02600929927133e-5
0663,BOTSWANA_SOUTHERN_SOUTHERN_MOSHANENG,25.208444254843652,-24.835326824262772,Botswana,NOx,196.93622620369754,220,5.421105338809795e-5
0664,BOTSWANA_SOUTHERN_SOUTHERN_MOSHUPA,25.42468410253782,-24.802239950537796,Botswana,NOx,59.636048030916996,220,5.600773161473782e-5
0665,BOTSWANA_SOUTHERN_SOUTHERN_NTLHANTLHE,25.563433827213757,-25.01680148927233,Botswana,NOx,1.2241589078005986,220,6.518154978163437e-5
0666,BOTSWANA_SOUTHERN_SOUTHERN_PITSENG,25.026961859107356,-24.671811025950742,Botswana,NOx,0.3058536576841725,220,4.560391022612187e-5
0667,BOTSWANA_SOUTHERN_SOUTHERN_RALEKGETHO,25.153983418889254,-24.651674927885143,Botswana,NOx,0.027931086386885136,220,5.081187497069095e-5
0668,BOTSWANA_SOUTHERN_SOUTHERN_RANAKA,25.49210433716248,-24.953019551938723,Botswana,NOx,4.061109165162932,220,6.174942662262595e-5
0669,BOTSWANA_SOUTHERN_SOUTHERN_SEGWAGWA,25.154246986825143,-25.20370107041337,Botswana,NOx,2.8033491843392224,220,4.7924959132084055e-5
0670,BOTSWANA_SOUTHERN_SOUTHERN_SEHERELELA,24.966365412487043,-24.85255338029039,Botswana,NOx,0.1361164473194742,220,4.690945835372773e-5
0671,BOTSWANA_SOUTHERN_SOUTHERN_SELOKOLELA,25.08619153157018,-25.012511421456256,Botswana,NOx,45.32513056963285,220,4.5031013246710216e-5
0672,BOTSWANA_SOUTHERN_SOUTHERN_SEMANE,24.36060822534978,-24.5838070534333,Botswana,NOx,1.257297920976654,220,3.235955934854928e-5
0673,BOTSWANA_SOUTHERN_SOUTHERN_SESE,24.837457767676273,-24.623316789302145,Botswana,NOx,3.1006986949118778,220,4.214163516902403e-5
0674,BOTSWANA_SOUTHERN_SOUTHERN_SESUNG,25.085978537640155,-24.864295490303654,Botswana,NOx,21.117806798655472,220,4.944068791368217e-5
0675,BOTSWANA_SOUTHERN_SOUTHERN_TLHANKANE,24.375461207737164,-24.957536336747538,Botswana,NOx,4.345669978675485,220,3.60264913428221e-5
0676,BOTSWANA_SOUTHERN_SOUTHERN_TSHWAANE,25.273421585713766,-24.711641454327474,Botswana,NOx,0.03226456593802868,220,5.3631680040133745e-5
0677,BOTSWANA_SOUTHERN_SOUTHERN_TSONYANE,24.813855404067922,-24.839469110997843,Botswana,NOx,0.01098970472353668,220,4.0003372581365326e-5
0678,BOTSWANA_SOWA TOWN_SOWA TOWN_SOWA TOWN,26.205474065724133,-20.525655504329873,Botswana,NOx,4.88753860619054,220,7.989788341244974e-5
0679,BOTSWANA_NORTH WEST_NGAMILAND WEST_TOBERE,22.060761168763293,-18.2277220943275,Botswana,NOx,0.15805485866897245,220,1.5368670644999582e-5
0680,BOTSWANA_FRANCISTOWN_FRANCISTOWN_FRANCISTOWN,27.527173396825056,-21.15325240029203,Botswana,NOx,14.630592815345079,220,1.1159808671834526e-4
0681,BOTSWANA_NORTH EAST_NORTH EAST_MATOPI,27.91115579539766,-21.482192037003767,Botswana,NOx,0.7760118658070813,220,1.243954182958973e-4
0682,LESOTHO_BEREA,27.916543179927878,-29.196133964322186,Lesotho,NOx,467.16841545992605,220,2.6855027139705e-4
0683,LESOTHO_BUTHA-BUTHE,28.564194113912084,-28.80291309387294,Lesotho,NOx,139.11684953743426,220,2.836731440651885e-4
0684,LESOTHO_LERIBE,28.262778693785734,-29.01811492119529,Lesotho,NOx,598.3986421684062,220,2.9350980764264456e-4
0685,LESOTHO_MAFETENG,27.392581280663943,-29.77903326417238,Lesotho,NOx,278.8812077177546,220,1.5726497309742626e-4
0686,LESOTHO_MASERU,27.818410139103523,-29.578708001027245,Lesotho,NOx,664.5726145746108,220,2.2220340969436592e-4
0687,LESOTHO_MOHALE'S HOEK,27.81073935217726,-30.05732318594617,Lesotho,NOx,338.0998330632047,220,1.4126375996714735e-4
0688,LESOTHO_MOKHOTLONG,29.030965902973236,-29.219387585513097,Lesotho,NOx,192.81124937392002,220,3.046731124478619e-4
0689,LESOTHO_QACHA'S NEK,28.738216934631595,-29.96551989191937,Lesotho,NOx,108.57069940346435,220,2.530593254295166e-4
0690,LESOTHO_QUTHING,27.985860217458367,-30.361098997601832,Lesotho,NOx,175.97914873338286,220,3.048593460204252e-4
0691,LESOTHO_THABA-TSEKA,28.592501565541635,-29.5707462455164,Lesotho,NOx,200.90412179816153,220,2.6692352004142883e-4
0692,MALAWI_SOUTHERN REGION_BALAKA,35.057010057789576,-15.035291543995603,Malawi,NOx,155.89427663719033,220,5.920536104744301e-4
0693,MALAWI_SOUTHERN REGION_BLANTYRE,34.93215294645478,-15.653521070374605,Malawi,NOx,341.94040362872704,220,5.113599460906393e-4
0694,MALAWI_SOUTHERN REGION_BLANTYRE CITY,35.049846087604834,-15.788155512634402,Malawi,NOx,379.0237013573681,220,4.1886439224558814e-4
0695,MALAWI_SOUTHERN REGION_CHIKWAWA,34.70903689510921,-16.164449793446956,Malawi,NOx,235.46045298280512,220,1.88530484299676e-4
0696,MALAWI_SOUTHERN REGION_CHIRADZULU,35.21401510212054,-15.74504273186666,Malawi,NOx,181.9788202717069,220,3.825896756268765e-4
0697,MALAWI_NORTHERN REGION_CHITIPA,33.50075697273936,-9.961323805951439,Malawi,NOx,53.567885309884154,220,1.6283697618613147e-4
0698,MALAWI_CENTRAL REGION_DEDZA,34.227546152785884,-14.26666414364504,Malawi,NOx,369.92574963264093,220,5.98027605233753e-4
0699,MALAWI_CENTRAL REGION_DOWA,33.7882007354298,-13.568943726666408,Malawi,NOx,342.91387301861573,220,5.983976335106611e-4
0700,MALAWI_NORTHERN REGION_KARONGA,33.88286491576761,-10.085628973711133,Malawi,NOx,304.7782353948257,220,5.88005066732844e-5
0701,MALAWI_CENTRAL REGION_KASUNGU,33.38591920703449,-12.984592469489298,Malawi,NOx,187.4199424283126,220,4.6916944941610694e-4
0702,MALAWI_LAKE MALAWI_LAKE MALAWI,34.46342187078561,-11.83542210532386,Malawi,NOx,525.6264879763162,220,1.3536854853346547e-4
0703,MALAWI_NORTHERN REGION_LIKOMA,34.68456952933858,-12.049251389757782,Malawi,NOx,4.314580075616849,220,1.8964920110597916e-4
0704,MALAWI_CENTRAL REGION_LILONGWE,33.678384246204125,-14.02262845680586,Malawi,NOx,1233.1722481532577,220,4.6890883971206776e-4
0705,MALAWI_CENTRAL REGION_LILONGWE CITY,33.777412227707195,-13.917060812410538,Malawi,NOx,1024.6567952871997,220,5.03485006928539e-4
0706,MALAWI_SOUTHERN REGION_MACHINGA,35.56621569203856,-14.939743540640112,Malawi,NOx,274.5930907407291,220,4.1524923439806294e-4
0707,MALAWI_SOUTHERN REGION_MANGOCHI,35.188672100825926,-14.35745673152043,Malawi,NOx,351.114274130575,220,4.467875656040121e-4
0708,MALAWI_CENTRAL REGION_MCHINJI,33.05678421553763,-13.693204790303813,Malawi,NOx,270.455043643682,220,4.526075799156093e-4
0709,MALAWI_SOUTHERN REGION_MULANJE,35.510601697456494,-15.937493088013312,Malawi,NOx,386.96899870831015,220,3.327350074180391e-4
0710,MALAWI_SOUTHERN REGION_MWANZA,34.51070572282828,-15.653498412560298,Malawi,NOx,65.27149344311107,220,4.765496789016499e-4
0711,MALAWI_NORTHERN REGION_MZIMBA,33.63357391674036,-11.774662616846621,Malawi,NOx,279.39995674903565,220,7.089696552031732e-4
0712,MALAWI_NORTHERN REGION_MZUZU CITY,34.008085621399474,-11.435033136665401,Malawi,NOx,229.4371873531672,220,2.5270354175122023e-4
0713,MALAWI_SOUTHERN REGION_NENO,34.69511229098429,-15.46855436212607,Malawi,NOx,45.13763304211881,220,5.124530743565447e-4
0714,MALAWI_NORTHERN REGION_NKHATA BAY,34.04155946420708,-11.671744085857307,Malawi,NOx,122.89094130394147,220,1.9795382469522949e-4
0715,MALAWI_CENTRAL REGION_NKHOTAKOTA,34.088412143637505,-12.844968406478515,Malawi,NOx,99.93691025560106,220,3.7381392742630304e-4
0716,MALAWI_SOUTHERN REGION_NSANJE,35.14256102689594,-16.7458281066411,Malawi,NOx,91.92180072002171,220,1.0235396744784353e-4
0717,MALAWI_CENTRAL REGION_NTCHEU,34.7150219403129,-14.809209532624244,Malawi,NOx,261.8709582903563,220,5.29809340088061e-4
0718,MALAWI_CENTRAL REGION_NTCHISI,33.919435671123914,-13.29729664939087,Malawi,NOx,75.30365781891534,220,5.80323810544181e-4
0719,MALAWI_SOUTHERN REGION_PHALOMBE,35.69103908738544,-15.669471595035306,Malawi,NOx,151.39958634759543,220,2.997764172154582e-4
0720,MALAWI_NORTHERN REGION_RUMPHI,33.814313155835954,-10.819178535708213,Malawi,NOx,32.65720429271803,220,5.378522153136611e-4
0721,MALAWI_CENTRAL REGION_SALIMA,34.38342391012431,-13.73580013859686,Malawi,NOx,145.6067370480976,220,3.665131990695514e-4
0722,MALAWI_SOUTHERN REGION_THYOLO,35.14513805866104,-16.103293124272504,Malawi,NOx,402.53481312485025,220,2.0714082939621292e-4
0723,MALAWI_SOUTHERN REGION_ZOMBA,35.431720494463534,-15.397965042950926,Malawi,NOx,417.2807693310509,220,3.3256500191747307e-4
0724,MALAWI_SOUTHERN REGION_ZOMBA CITY,35.32958370864326,-15.389038184748701,Malawi,NOx,17.072011350878114,220,5.176037570198133e-4
0725,MOZAMBIQUE_CABO DELGADO_ANCUABE_ANCUABE SEDE,39.81250434636672,-12.844910167361961,Mozambique,NOx,11.903828620907447,220,1.66416728347496e-4
0726,MOZAMBIQUE_CABO DELGADO_ANCUABE_METORO,39.98166464165771,-13.123343510947777,Mozambique,NOx,13.469825908524273,220,1.533375085940314e-4
0727,MOZAMBIQUE_CABO DELGADO_ANCUABE_MEZA,39.50077329178648,-13.002763030349875,Mozambique,NOx,11.53878461704281,220,1.6465954094901925e-4
0728,MOZAMBIQUE_CABO DELGADO_BALAMA_BALAMA SEDE,38.60741548928212,-13.34632445565341,Mozambique,NOx,26.35327885524886,220,1.5248141437096407e-4
0729,MOZAMBIQUE_CABO DELGADO_BALAMA_IMPIRE,38.234370073203195,-13.36117175168839,Mozambique,NOx,5.2492001386627765,220,1.601404535880313e-4
0730,MOZAMBIQUE_CABO DELGADO_BALAMA_KWEKWE,38.360631459274536,-13.719258906829074,Mozambique,NOx,11.491586316247092,220,1.6563612526154792e-4
0731,MOZAMBIQUE_CABO DELGADO_BALAMA_MAVALA,38.44433858639442,-13.127397794272662,Mozambique,NOx,5.359490435063663,220,1.505991908730131e-4
0732,MOZAMBIQUE_CABO DELGADO_CHIÚRE_CHIÚRE SEDE,39.78631866112433,-13.334949533035196,Mozambique,NOx,28.54086064200679,220,1.666339996164723e-4
0733,MOZAMBIQUE_CABO DELGADO_CHIÚRE_CHIÚRE VELHO,39.9790643743911,-13.394863091288299,Mozambique,NOx,10.831435088085232,220,1.566736205085295e-4
0734,MOZAMBIQUE_CABO DELGADO_CHIÚRE_KATAPUA,39.46036839056145,-13.3790182741743,Mozambique,NOx,8.225997660401397,220,1.6622513014108442e-4
0735,MOZAMBIQUE_CABO DELGADO_CHIÚRE_MAZEZE,40.26493789258037,-13.394800824078336,Mozambique,NOx,10.319147721524793,220,1.4219802430348594e-4
0736,MOZAMBIQUE_CABO DELGADO_CHIÚRE_NAMOGELIA,39.39543595419324,-13.73917584393942,Mozambique,NOx,11.38714187891162,220,1.7425240887347648e-4
0737,MOZAMBIQUE_CABO DELGADO_CHIÚRE_OCUA,39.70712436514545,-13.593555718225081,Mozambique,NOx,16.05390674406344,220,1.695441221392091e-4
0738,MOZAMBIQUE_CABO DELGADO_CIDADE DE PEMBA_CIDADE DE PEMBA,40.5301137002399,-13.01866368362211,Mozambique,NOx,30.52751852084375,220,9.839858075877395e-5
0739,MOZAMBIQUE_CABO DELGADO_IBO_IBO SEDE,40.58966660854597,-12.296434453801252,Mozambique,NOx,0.5194837634581485,220,8.428235525714811e-5
0740,MOZAMBIQUE_CABO DELGADO_IBO_QUIRIMBA,40.60573197983616,-12.436621233927731,Mozambique,NOx,0.020243217444275093,220,8.836974950909848e-5
0741,MOZAMBIQUE_CABO DELGADO_MACOMIA_CHAI,40.09939009869904,-11.975771317344952,Mozambique,NOx,7.081838911628954,220,1.2566345807241142e-4
0742,MOZAMBIQUE_CABO DELGADO_MACOMIA_MACOMIA SEDE,40.00966789367028,-12.185963022208076,Mozambique,NOx,19.381108467695007,220,1.3136795644119736e-4
0743,MOZAMBIQUE_CABO DELGADO_MACOMIA_MUCOJO,40.39838621183561,-12.132019600349427,Mozambique,NOx,14.231522751311756,220,8.563137877537486e-5
